date_of_sale,address,county,price,vat_exclusive,property_description,property_size,place_id,geocoding_url,latitude,longitude,formatted_address,eircode,accuracy,region,electoral_district_id,electoral_district,bus_distance,train_distance
04/01/2010,"15A Moore Bay, Kilkee",Clare,126500.0,No,Second-Hand Dwelling house /Apartment,,ChIJAeGRND7oWkgRndqyDhiG5h4,"https://maps.googleapis.com/maps/api/geocode/json?address=15A+Moore+Bay,+Kilkee,+Clare,+Ireland&key=AIzaSyBe-vaefvOwUycBlN707CRlGhsewZq-NII",52.6712676,-9.6543382,"15A Moore Bay Holiday Homes, Kilkee Lower, Kilkee, Co. Clare, V15 NT29, Ireland",V15 NT29,ROOFTOP,Mid-West,16087,Kilfearagh,0.7641562534461591,49.36881371446946
05/01/2010,"24 Garran Na Coille, Claureen",Clare,390000.0,Yes,New Dwelling house /Apartment,greater than or equal to 38 sq metres and less than 125 sq metres,ChIJ02AyKMcSW0gR5ZmzF1ScGFk,"https://maps.googleapis.com/maps/api/geocode/json?address=24+Garran+Na+Coille,+Claureen,+Clare,+Ireland&key=AIzaSyBe-vaefvOwUycBlN707CRlGhsewZq-NII",52.8521784,-9.008153300000002,"24 Garrán Na Coille, Shanaway Rd, Claureen, Ennis, Co. Clare, V95 A02A, Ireland",V95 A02A,ROOFTOP,Mid-West,16032,Ennis Rural,0.08478813885924241,2.6246936229601383
07/01/2010,"16 Abeyvill, Clare Road, Ennis",Clare,245000.0,No,Second-Hand Dwelling house /Apartment,,ChIJtdowL9RsW0gR9EyYAYxW2qA,"https://maps.googleapis.com/maps/api/geocode/json?address=16+Abeyvill,+Clare+Road,+Ennis,+Ireland&key=AIzaSyBe-vaefvOwUycBlN707CRlGhsewZq-NII",52.8326061,-8.974203999999997,"16 Limerick Rd, Abbey Ville, Clonroad More, Ennis, Co. Clare, V95 N4F5, Ireland",V95 N4F5,ROOFTOP,Mid-West,16032,Ennis Rural,0.4243327342037888,0.7190658844470049
07/01/2010,"5 Shallee Drive, Cloughleigh, Ennis",Clare,105000.0,No,Second-Hand Dwelling house /Apartment,,ChIJtW9wX84SW0gRDscyzssU5Bc,"https://maps.googleapis.com/maps/api/geocode/json?address=5+Shallee+Drive,+Cloughleigh,+Ennis,+Clare,+Ireland&key=AIzaSyBe-vaefvOwUycBlN707CRlGhsewZq-NII",52.8476903,-8.994950300000003,"5 Shallee Dr, Cloughleigh, Ennis, Co. Clare, V95 P2WX, Ireland",V95 P2WX,ROOFTOP,Mid-West,16001,Ennis No. 1 Urban,0.631294397350192,1.6108840128042663
08/01/2010,"The Cottage, Shantraud, Killaloe",Clare,222400.0,No,Second-Hand Dwelling house /Apartment,,ChIJIaQkYvKeXEgR0LgtlaZ1M2M,"https://maps.googleapis.com/maps/api/geocode/json?address=The+Cottage,+Shantraud,+Killaloe,+Clare,+Ireland&key=AIzaSyBe-vaefvOwUycBlN707CRlGhsewZq-NII",52.84882529999999,-8.475155099999998,"AnnaCarriga Holiday Resort, Ballyheefy, Killaloe, Co. Clare, Ireland",,GEOMETRIC_CENTER,Mid-West,16125,Carrowbaun,0.2396599488792609,24.13453449909721
11/01/2010,"26 Lissaniska, Lahinch Road, Ennis",Clare,150000.0,No,Second-Hand Dwelling house /Apartment,,ChIJpZYuCckSW0gRnmj5zxCuf3I,"https://maps.googleapis.com/maps/api/geocode/json?address=26+Lissaniska,+Lahinch+Road,+Ennis,+Clare,+Ireland&key=AIzaSyBe-vaefvOwUycBlN707CRlGhsewZq-NII",52.8526724,-8.9969584,"26 Lahinch Rd, Lissaniska, Claureen, Ennis, Co. Clare, V95 P8C3, Ireland",V95 P8C3,ROOFTOP,Mid-West,16032,Ennis Rural,0.6726832338446719,2.077744065041274
11/01/2010,"3 Castlefields, Kilkee",Clare,400000.0,No,Second-Hand Dwelling house /Apartment,,ChIJlzAejWvoWkgR0J0xl6nHAAo,"https://maps.googleapis.com/maps/api/geocode/json?address=3+Castlefields,+Kilkee,+Clare,+Ireland&key=AIzaSyBe-vaefvOwUycBlN707CRlGhsewZq-NII",52.6828228,-9.6444116,"Dough, Kilkee, Co. Clare, Ireland",,APPROXIMATE,Mid-West,16088,Kilkee,0.15304398701233032,48.267450269440495
12/01/2010,"Raenagisheach, Kilmaley",Clare,22500.0,No,Second-Hand Dwelling house /Apartment,,ChIJ-c3fZHYRW0gR8O0xl6nHAAo,"https://maps.googleapis.com/maps/api/geocode/json?address=Raenagisheach,+Kilmaley,+Clare,+Ireland&key=AIzaSyBe-vaefvOwUycBlN707CRlGhsewZq-NII",52.81883149999999,-9.1088004,"Kilmaley, Co. Clare, Ireland",,APPROXIMATE,Mid-West,16035,Killanniv,0.04749783590153713,9.24063351039757
13/01/2010,"L226 Bru Na Sionna, Shannon",Clare,99391.0,Yes,New Dwelling house /Apartment,greater than or equal to 38 sq metres and less than 125 sq metres,ChIJH45SXNNBW0gRDQsvdKT9nqA,"https://maps.googleapis.com/maps/api/geocode/json?address=L226+Bru+Na+Sionna,+Shannon,+Clare,+Ireland&key=AIzaSyBe-vaefvOwUycBlN707CRlGhsewZq-NII",52.707533700000006,-8.8804669,"Brú Na Sionna, Shannon Town Centre, Tullyvarraga, Shannon, Co. Clare, Ireland",,ROOFTOP,Mid-West,16027,Clenagh,0.08121737189479368,7.333028841946138
15/01/2010,"1 Stone Court, Ennis Rd, Newmarket On Fergus",Clare,166000.0,No,Second-Hand Dwelling house /Apartment,,ChIJWRJgUNESW0gRlBpzoC_aOVQ,"https://maps.googleapis.com/maps/api/geocode/json?address=1+Stone+Court,+Ennis+Rd,+Newmarket+On+Fergus,+Clare,+Ireland&key=AIzaSyBe-vaefvOwUycBlN707CRlGhsewZq-NII",52.8405127,-8.99119,"1 Stone Ct, Drumbiggil, Ennis, Co. Clare, V95 HD5E, Ireland",V95 HD5E,ROOFTOP,Mid-West,16002,Ennis No. 2 Urban,0.3878361876428424,1.0636916019748854
15/01/2010,"Fahee South, Carran",Clare,120000.0,No,Second-Hand Dwelling house /Apartment,,ChIJnUYej7IKW0gRilE-2gzNa9U,"https://maps.googleapis.com/maps/api/geocode/json?address=Fahee+South,+Carran,+Clare,+Ireland&key=AIzaSyBe-vaefvOwUycBlN707CRlGhsewZq-NII",53.0340702,-9.0478726,"Fahee South, Carron, Co. Clare, Ireland",,APPROXIMATE,Mid-West,16007,Carran,3.532977832503281,22.20978324864069
18/01/2010,"51 Moyard, Shanballa, Lahinch Road, Ennis",Clare,220264.31,Yes,New Dwelling house /Apartment,greater than 125 sq metres,ChIJT_L4xsESW0gR34PQCvmvQC4,"https://maps.googleapis.com/maps/api/geocode/json?address=51+Moyard,+Shanballa,+Lahinch+Road,+Ennis,+Clare,+Ireland&key=AIzaSyBe-vaefvOwUycBlN707CRlGhsewZq-NII",52.8508262,-9.014112599999999,"51 Moyard, Shanaballa, Ennis, Co. Clare, V95 YKP8, Ireland",V95 YKP8,ROOFTOP,Mid-West,16032,Ennis Rural,0.5123909054287653,2.8973430270171403
22/01/2010,"12 Aisling, Shanaway Road, Ennis",Clare,134075.0,Yes,New Dwelling house /Apartment,less than 38 sq metres,ChIJ44mYPcISW0gRQKI-nICUvrg,"https://maps.googleapis.com/maps/api/geocode/json?address=12+Aisling,+Shanaway+Road,+Ennis,+Clare,+Ireland&key=AIzaSyBe-vaefvOwUycBlN707CRlGhsewZq-NII",52.84819419999999,-9.0128704,"12 Aisling, Shanaway Rd, Shanvogh, Ennis, Co. Clare, V95 XCF4, Ireland",V95 XCF4,ROOFTOP,Mid-West,16032,Ennis Rural,0.6164451214199999,2.7016131838351076
22/01/2010,"5 French Park, Ennis",Clare,295000.0,No,Second-Hand Dwelling house /Apartment,,ChIJmyeluy5tW0gRHELNxluhXDo,"https://maps.googleapis.com/maps/api/geocode/json?address=5+French+Park,+Ennis,+Clare,+Ireland&key=AIzaSyBe-vaefvOwUycBlN707CRlGhsewZq-NII",52.8420235,-8.9753142,"5 French Park, Clonroad More, Ennis, Co. Clare, V95 N9PP, Ireland",V95 N9PP,ROOFTOP,Mid-West,16032,Ennis Rural,0.21823843020641293,0.3123854289798633
22/01/2010,"Cottage 3, Criscean, Carron",Clare,155000.0,No,Second-Hand Dwelling house /Apartment,,ChIJg4gceqIKW0gRMMkxl6nHAAo,"https://maps.googleapis.com/maps/api/geocode/json?address=Cottage+3,+Criscean,+Carron,+Clare,+Ireland&key=AIzaSyBe-vaefvOwUycBlN707CRlGhsewZq-NII",53.0376019,-9.0760449,"Crughwill, Carran, Co. Clare, Ireland",,APPROXIMATE,Mid-West,16007,Carran,3.883890745545108,23.07259651300818
22/01/2010,"Mount Catherine, Clonlara",Clare,410000.0,No,Second-Hand Dwelling house /Apartment,,ChIJGUdN021eW0gRYolOu6fHACY,"https://maps.googleapis.com/maps/api/geocode/json?address=Mount+Catherine,+Clonlara,+Clare,+Ireland&key=AIzaSyBe-vaefvOwUycBlN707CRlGhsewZq-NII",52.70698909999999,-8.5758364,"Mountcatherine, Co. Clare, Ireland",,APPROXIMATE,Mid-West,16116,Kiltenanlea,1.8263781142895965,14.38007240563998
25/01/2010,"50 The Hawthorns, Limerick Road, Ennis",Clare,160000.0,No,Second-Hand Dwelling house /Apartment,,ChIJd1XZWywTW0gRzHRWj7KA1bc,"https://maps.googleapis.com/maps/api/geocode/json?address=50+The+Hawthorns,+Limerick+Road,+Ennis,+Clare,+Ireland&key=AIzaSyBe-vaefvOwUycBlN707CRlGhsewZq-NII",52.8279284,-8.983226499999997,"50 Limerick Road, The Hawthorns, Clonroad More, Ennis, Co. Clare, V95 F2A4, Ireland",V95 F2A4,ROOFTOP,Mid-West,16032,Ennis Rural,0.3406375526159732,1.3467855791306276
25/01/2010,"Killestry, Killaloe",Clare,100000.0,No,Second-Hand Dwelling house /Apartment,,ChIJj460jlGeXEgRyqNqb7TT4C4,"https://maps.googleapis.com/maps/api/geocode/json?address=Killestry,+Killaloe,+Clare,+Ireland&key=AIzaSyBe-vaefvOwUycBlN707CRlGhsewZq-NII",52.7936292,-8.4612784,"Killestry, Co. Clare, Ireland",,APPROXIMATE,Mid-West,16134,Killaloe,1.7257698311479317,22.547129579021124
25/01/2010,"Poulroe, Tubber",Clare,280000.0,No,Second-Hand Dwelling house /Apartment,,ChIJi-VTetV1W0gRHOYnoHLjaaM,"https://maps.googleapis.com/maps/api/geocode/json?address=Poulroe,+Tubber,+Clare,+Ireland&key=AIzaSyBe-vaefvOwUycBlN707CRlGhsewZq-NII",53.013153900000006,-8.9250712,"Poulroe, Co. Clare, Ireland",,APPROXIMATE,Mid-West,16018,Boston,8.499601810229938,19.640205458621683
28/01/2010,"Roo East, Ardnacrusha",Clare,290000.0,No,Second-Hand Dwelling house /Apartment,,ChIJwVOAgP5dW0gRNCDPK_1zQ0E,"https://maps.googleapis.com/maps/api/geocode/json?address=Roo+East,+Ardnacrusha,+Clare,+Ireland&key=AIzaSyBe-vaefvOwUycBlN707CRlGhsewZq-NII",52.72799490000001,-8.607196400000001,"Roo East, Derrymore, Co. Clare, Ireland",,APPROXIMATE,Mid-West,16109,Cloghera,1.0747918924389106,11.904049641744946
29/01/2010,"4 The Compass, Geradline Place, Kilkee",Clare,350000.0,No,Second-Hand Dwelling house /Apartment,,ChIJmWKI3kHoWkgRDqwdcPlAKxo,"https://maps.googleapis.com/maps/api/geocode/json?address=4+The+Compass,+Geradline+Place,+Kilkee,+Clare,+Ireland&key=AIzaSyBe-vaefvOwUycBlN707CRlGhsewZq-NII",52.6780416,-9.6556002,"Geraldine Pl, Kilkee Upper, Co. Clare, Ireland",,GEOMETRIC_CENTER,Mid-West,16088,Kilkee,0.3844648607972367,49.16444647443732
29/01/2010,"Hillcreest, Drumcliffe, Ennis",Clare,228000.0,No,Second-Hand Dwelling house /Apartment,,EihEcnVtY2xpZmZlIFJkLCBFbm5pcywgQ28uIENsYXJlLCBJcmVsYW5kIi4qLAoUChIJ2Yg3FbMSW0gRtOjp6uE_odUSFAoSCSnVM9_NEltIESBzMZepxwAK,"https://maps.googleapis.com/maps/api/geocode/json?address=Hillcreest,+Drumcliffe,+Ennis,+Clare,+Ireland&key=AIzaSyBe-vaefvOwUycBlN707CRlGhsewZq-NII",52.85528619999999,-8.991609799999997,"Drumcliffe Rd, Ennis, Co. Clare, Ireland",,GEOMETRIC_CENTER,Mid-West,16032,Ennis Rural,0.6616700834333639,2.0892787093897933
01/02/2010,"Lannaght, Dromindoora, Caher",Clare,120000.0,No,Second-Hand Dwelling house /Apartment,,ChIJdT3wOxZ5W0gR2r6FLu4_-IU,"https://maps.googleapis.com/maps/api/geocode/json?address=Lannaght,+Dromindoora,+Caher,+Clare,+Ireland&key=AIzaSyBe-vaefvOwUycBlN707CRlGhsewZq-NII",53.01529820000001,-8.724637099999999,"Lannaght, Faha, Co. Clare, Ireland",,APPROXIMATE,Mid-West,16145,Killanena,2.1216267244565623,25.803475912242718
04/02/2010,"21 Carraig An Oir, Tobarteascain, Ennis",Clare,180000.0,No,Second-Hand Dwelling house /Apartment,,EiwyMSBDYXJyaWcgQW4gw5NpciwgRW5uaXMsIENvLiBDbGFyZSwgSXJlbGFuZCIaEhgKFAoSCRHy893VbFtIEdFkso7W6MfREBU,"https://maps.googleapis.com/maps/api/geocode/json?address=21+Carraig+An+Oir,+Tobarteascain,+Ennis,+Clare,+Ireland&key=AIzaSyBe-vaefvOwUycBlN707CRlGhsewZq-NII",52.8343032,-8.9741047,"21 Carrig An Óir, Clonroad More, Ennis, Co. Clare, Ireland",,RANGE_INTERPOLATED,Mid-West,16032,Ennis Rural,0.3364041668222848,0.53186803390562
04/02/2010,"43 Cluainin, Tullyvarraga, Shannon",Clare,230000.0,Yes,New Dwelling house /Apartment,greater than or equal to 38 sq metres and less than 125 sq metres,ChIJH-fpr9pBW0gRCf4SMCsRgNs,"https://maps.googleapis.com/maps/api/geocode/json?address=43+Cluainin,+Tullyvarraga,+Shannon,+Clare,+Ireland&key=AIzaSyBe-vaefvOwUycBlN707CRlGhsewZq-NII",52.7043085,-8.8657538,"43 Cluainin, Tullyvarraga, Shannon, Co. Clare, V14 AD76, Ireland",V14 AD76,ROOFTOP,Mid-West,16027,Clenagh,0.35496953472089,6.6605419422855725
05/02/2010,"54 Gort Na Null, Sixmilebridge",Clare,146916.29,Yes,New Dwelling house /Apartment,greater than or equal to 38 sq metres and less than 125 sq metres,ChIJh9m5mjRoW0gR45P7uKbKVH4,"https://maps.googleapis.com/maps/api/geocode/json?address=54+Gort+Na+Null,+Sixmilebridge,+Clare,+Ireland&key=AIzaSyBe-vaefvOwUycBlN707CRlGhsewZq-NII",52.738139,-8.773987400000001,"54 Gort Na Núll, Ballyliddan West, Sixmilebridge, Co. Clare, V95 YY53, Ireland",V95 YY53,ROOFTOP,Mid-West,16041,Sixmilebridge,0.35346486367611113,0.625387097263636
08/02/2010,"Breaffy South, Spanish Point",Clare,450000.0,No,Second-Hand Dwelling house /Apartment,,ChIJg5nahbICW0gRgCIyl6nHAAo,"https://maps.googleapis.com/maps/api/geocode/json?address=Breaffy+South,+Spanish+Point,+Clare,+Ireland&key=AIzaSyBe-vaefvOwUycBlN707CRlGhsewZq-NII",52.8466428,-9.4397015,"Breaffy South, Spanish Point, Co. Clare, Ireland",,APPROXIMATE,Mid-West,16063,Milltown Malbay,0.23930353717724195,31.197068122649327
11/02/2010,"21 Sli An Fhearghas, Clarecastle",Clare,159382.72,Yes,New Dwelling house /Apartment,greater than or equal to 38 sq metres and less than 125 sq metres,ChIJo0JkwrdsW0gRNPd3OCENEpg,"https://maps.googleapis.com/maps/api/geocode/json?address=21+Sli+An+Fhearghas,+Clarecastle,+Clare,+Ireland&key=AIzaSyBe-vaefvOwUycBlN707CRlGhsewZq-NII",52.8142618,-8.962038699999997,"21 Quay Rd, Slí an Fhearghas, Clare Commons, Ennis, Co. Clare, V95 HK2A, Ireland",V95 HK2A,ROOFTOP,Mid-West,16026,Clareabbey,0.16160427521613555,2.8926760943338765
11/02/2010,"37 Ivy Hill, Gort Road, Ennis",Clare,194000.0,No,Second-Hand Dwelling house /Apartment,,ChIJc32VRDZtW0gRIid5LQORns8,"https://maps.googleapis.com/maps/api/geocode/json?address=37+Ivy+Hill,+Gort+Road,+Ennis,+Clare,+Ireland&key=AIzaSyBe-vaefvOwUycBlN707CRlGhsewZq-NII",52.8551549,-8.978441199999997,"37 Ivy Hill, Lifford, Ennis, Co. Clare, V95 YPP8, Ireland",V95 YPP8,ROOFTOP,Mid-West,16032,Ennis Rural,0.4573295481626168,1.7836724578126986
12/02/2010,"No. 10 Gort An Clochair, Kilkee",Clare,232000.0,Yes,New Dwelling house /Apartment,greater than or equal to 38 sq metres and less than 125 sq metres,EicxMCBHb3J0IEFuIENsb2NoYWlyLCBDby4gQ2xhcmUsIElyZWxhbmQiGhIYChQKEgm9qV2ebOhaSBHLdjt2TtD5PBAK,"https://maps.googleapis.com/maps/api/geocode/json?address=No.+10+Gort+An+Clochair,+Kilkee,+Clare,+Ireland&key=AIzaSyBe-vaefvOwUycBlN707CRlGhsewZq-NII",52.6762294,-9.6468923,"10 Gort An Clochair, Dough, Co. Clare, Ireland",,RANGE_INTERPOLATED,Mid-West,16088,Kilkee,0.25624782304257965,48.69468110582627
15/02/2010,"80 Inis Chlair, Kildysart Road, Ennis",Clare,211453.74,Yes,New Dwelling house /Apartment,greater than or equal to 38 sq metres and less than 125 sq metres,ChIJO7EEdTQTW0gREL-3WXKM2Sg,"https://maps.googleapis.com/maps/api/geocode/json?address=80+Inis+Chlair,+Kildysart+Road,+Ennis,+Clare,+Ireland&key=AIzaSyBe-vaefvOwUycBlN707CRlGhsewZq-NII",52.8189143,-8.9814256,"80 Inis Cláir, Kildysart Rd, Ballaghafadda East, Ennis, Co. Clare, V95 H2HX, Ireland",V95 H2HX,ROOFTOP,Mid-West,16026,Clareabbey,0.3271273100319221,2.2787144633088467
16/02/2010,"Cloughoolia, Oatfield, Sixmilebridge",Clare,215000.0,No,Second-Hand Dwelling house /Apartment,,ChIJk4MASjVoW0gRQJoxl6nHAAo,"https://maps.googleapis.com/maps/api/geocode/json?address=Cloughoolia,+Oatfield,+Sixmilebridge,+Clare,+Ireland&key=AIzaSyBe-vaefvOwUycBlN707CRlGhsewZq-NII",52.7436246,-8.777650399999999,"Ieverstown, Sixmilebridge, Co. Clare, Ireland",,APPROXIMATE,Mid-West,16041,Sixmilebridge,0.2958271519014279,0.7590713061420524
17/02/2010,"22D Moore Bay, Kilkee",Clare,123500.0,No,Second-Hand Dwelling house /Apartment,,ChIJnWOQRD7oWkgRVez6igstT1Q,"https://maps.googleapis.com/maps/api/geocode/json?address=22D+Moore+Bay,+Kilkee,+Clare,+Ireland&key=AIzaSyBe-vaefvOwUycBlN707CRlGhsewZq-NII",52.6703606,-9.6551485,"22D Moore Bay Holiday Homes, Kilkee Lower, Kilkee, Co. Clare, V15 FC04, Ireland",V15 FC04,ROOFTOP,Mid-West,16087,Kilfearagh,0.878411877162813,49.45797321499421
17/02/2010,"Birrenfadda, Cranny",Clare,55000.0,No,Second-Hand Dwelling house /Apartment,,ChIJEaUmOYEYW0gR0T67GajHACY,"https://maps.googleapis.com/maps/api/geocode/json?address=Birrenfadda,+Cranny,+Clare,+Ireland&key=AIzaSyBe-vaefvOwUycBlN707CRlGhsewZq-NII",52.6924765,-9.2254726,"Carrowreagh East, Cranny, Co. Clare, Ireland",,APPROXIMATE,Mid-West,16070,Kilfiddane,3.1019775538320387,23.4341187161838
19/02/2010,"Bridge House, School Road, Ballyvaughan",Clare,350000.0,No,Second-Hand Dwelling house /Apartment,,ChIJbXH2vLB6W0gRFT0GPW90JY8,"https://maps.googleapis.com/maps/api/geocode/json?address=Bridge+House,+School+Road,+Ballyvaughan,+Clare,+Ireland&key=AIzaSyBe-vaefvOwUycBlN707CRlGhsewZq-NII",52.90565,-8.752360000000001,"Gorteenaneelig, School Road, Co. Clare, Ireland",,APPROXIMATE,Mid-West,16147,Kiltannon,4.190616671950537,16.68240906243366
22/02/2010,"42 Ashview Drive, Sixmilebridge",Clare,190000.0,No,Second-Hand Dwelling house /Apartment,,ChIJYyW6b8tpW0gRhifCV893jKs,"https://maps.googleapis.com/maps/api/geocode/json?address=42+Ashview+Drive,+Sixmilebridge,+Clare,+Ireland&key=AIzaSyBe-vaefvOwUycBlN707CRlGhsewZq-NII",52.7379459,-8.7791248,"42 Ashview Dr, Sixmilebridge, Co. Clare, V95 NP76, Ireland",V95 NP76,ROOFTOP,Mid-West,16041,Sixmilebridge,0.4307628572771587,0.279309425404902
23/02/2010,"19 Hazelwood, Clondroadmore, Ennis",Clare,180000.0,No,Second-Hand Dwelling house /Apartment,,ChIJeXYLgSptW0gRvede-PLlVdw,"https://maps.googleapis.com/maps/api/geocode/json?address=19+Hazelwood,+Clondroadmore,+Ennis,+Clare,+Ireland&key=AIzaSyBe-vaefvOwUycBlN707CRlGhsewZq-NII",52.83566159999999,-8.9783817,"19 Hazelwood, Clonroad More, Ennis, Co. Clare, V95 RPW9, Ireland",V95 RPW9,ROOFTOP,Mid-West,16032,Ennis Rural,0.2140895353052921,0.42932331988181055
23/02/2010,"26 Clonlara Village, Clonlara",Clare,228500.0,No,Second-Hand Dwelling house /Apartment,,ChIJje2KnTFeW0gRa_Y6Ue7DGhk,"https://maps.googleapis.com/maps/api/geocode/json?address=26+Clonlara+Village,+Clonlara,+Clare,+Ireland&key=AIzaSyBe-vaefvOwUycBlN707CRlGhsewZq-NII",52.72428559999999,-8.5507244,"26 Clonlara Village, Cloonlara, Co. Clare, V94 W9F8, Ireland",V94 W9F8,ROOFTOP,Mid-West,16116,Kiltenanlea,0.17528882059173492,15.730108537563956
25/02/2010,"22  Liscannor Holiday Homes, Liscannor",Clare,450000.0,No,Second-Hand Dwelling house /Apartment,,ChIJWVP56WABW0gRm47ZQC1Pnd4,"https://maps.googleapis.com/maps/api/geocode/json?address=22+Liscannor+Holiday+Homes,+Liscannor,+Clare,+Ireland&key=AIzaSyBe-vaefvOwUycBlN707CRlGhsewZq-NII",52.9367336,-9.3968343,"22 Liscannor Holiday Homes, Liscannor, Co. Clare, V95 X449, Ireland",V95 X449,ROOFTOP,Mid-West,16060,Liscannor,0.4738552963744577,30.28578499106451
26/02/2010,"11 Doolin Farmhouse Cottages, Doolin",Clare,330598.0,Yes,New Dwelling house /Apartment,greater than 125 sq metres,ChIJV1SpBFcHW0gRl172Bxzb-JE,"https://maps.googleapis.com/maps/api/geocode/json?address=11+Doolin+Farmhouse+Cottages,+Doolin,+Clare,+Ireland&key=AIzaSyBe-vaefvOwUycBlN707CRlGhsewZq-NII",53.0172446,-9.381351,"11, Doolin, Co. Clare, V95 R8R6, Ireland",V95 R8R6,ROOFTOP,Mid-West,16058,Killilagh,0.29746321885838484,33.65452976971004
26/02/2010,"124 Aidan Park, Shannon",Clare,150000.0,No,Second-Hand Dwelling house /Apartment,,ChIJ_7B7qtdBW0gRb7g7NluyUs4,"https://maps.googleapis.com/maps/api/geocode/json?address=124+Aidan+Park,+Shannon,+Clare,+Ireland&key=AIzaSyBe-vaefvOwUycBlN707CRlGhsewZq-NII",52.71134590000001,-8.8721996,"124 Aidan Park, Tullyvarraga, Shannon, Co. Clare, V14 DW61, Ireland",V14 DW61,ROOFTOP,Mid-West,16027,Clenagh,0.16390353597919924,6.644724037132794
26/02/2010,"21, Inchicronan, Crusheen",Clare,185000.0,No,Second-Hand Dwelling house /Apartment,,ChIJLctyXWNxW0gRjstjAiBjtnc,"https://maps.googleapis.com/maps/api/geocode/json?address=21,+Inchicronan,+Crusheen,+Clare,+Ireland&key=AIzaSyBe-vaefvOwUycBlN707CRlGhsewZq-NII",52.9404835,-8.8933085,"21 Inchicronan, Drummanneen, Crusheen, Co. Clare, V95 E702, Ireland",V95 E702,ROOFTOP,Mid-West,16028,Crusheen,0.3316263645915163,12.534335253279602
26/02/2010,"24 Town Centre, Kilrush",Clare,120000.0,No,Second-Hand Dwelling house /Apartment,,ChIJRYfvEHDeWkgRkJUxl6nHAAo,"https://maps.googleapis.com/maps/api/geocode/json?address=24+Town+Centre,+Kilrush,+Clare,+Ireland&key=AIzaSyBe-vaefvOwUycBlN707CRlGhsewZq-NII",52.6406999,-9.4859374,"Drimna, Kilrush, Co. Clare, Ireland",,APPROXIMATE,Mid-West,16005,Kilrush Urban,0.2478448634780041,40.85231870417157
26/02/2010,"5 Tobar Keel, Gort Road, Ennis",Clare,195000.0,No,Second-Hand Dwelling house /Apartment,,ChIJ5dvjSzVtW0gRn0JnUFEbymA,"https://maps.googleapis.com/maps/api/geocode/json?address=5+Tobar+Keel,+Gort+Road,+Ennis,+Clare,+Ireland&key=AIzaSyBe-vaefvOwUycBlN707CRlGhsewZq-NII",52.855318200000006,-8.9876829,"Tobarkeel, Drumcliffe Rd, Lifford, Ennis, Co. Clare, Ireland",,ROOFTOP,Mid-West,16032,Ennis Rural,0.5154172672795497,1.9689094203497
26/02/2010,"75 Castlerock, Tulla Rd, Ennis",Clare,263000.0,No,Second-Hand Dwelling house /Apartment,,ChIJuXGaFzltW0gROiaJwFAajhM,"https://maps.googleapis.com/maps/api/geocode/json?address=75+Castlerock,+Tulla+Rd,+Ennis,+Clare,+Ireland&key=AIzaSyBe-vaefvOwUycBlN707CRlGhsewZq-NII",52.8544522,-8.9680605,"75 Castle Rock, Bóthar Na Tulaí, Knockanoura, Ennis, Co. Clare, V95 D5R2, Ireland",V95 D5R2,ROOFTOP,Mid-West,16032,Ennis Rural,0.4860159282587254,1.763821525459068
26/02/2010,"88 Hawthorns, Limerick Road, Ennis",Clare,178500.0,No,Second-Hand Dwelling house /Apartment,,ChIJu33SWysTW0gRG2LPhDf6mYA,"https://maps.googleapis.com/maps/api/geocode/json?address=88+Hawthorns,+Limerick+Road,+Ennis,+Clare,+Ireland&key=AIzaSyBe-vaefvOwUycBlN707CRlGhsewZq-NII",52.8302669,-8.981036699999997,"88 Limerick Rd, The Hawthorns, Clonroad More, Ennis, Co. Clare, V95 NVK6, Ireland",V95 NVK6,ROOFTOP,Mid-West,16032,Ennis Rural,0.15576792612735255,1.0504013579014182
26/02/2010,"9 Lios Darog, Shannon",Clare,235000.0,No,Second-Hand Dwelling house /Apartment,,ChIJN7bR0NNBW0gR25jdWvOD8Ew,"https://maps.googleapis.com/maps/api/geocode/json?address=9+Lios+Darog,+Shannon,+Clare,+Ireland&key=AIzaSyBe-vaefvOwUycBlN707CRlGhsewZq-NII",52.7062795,-8.874905300000002,"9 Lios Darog, Tullyvarraga, Shannon, Co. Clare, V14 XV67, Ireland",V14 XV67,ROOFTOP,Mid-West,16027,Clenagh,0.07043804674829995,7.069816819747965
26/02/2010,"Leadmore West, Kilrush",Clare,140000.0,No,Second-Hand Dwelling house /Apartment,,ChIJqf8EicXdWkgR0hnBGajHACY,"https://maps.googleapis.com/maps/api/geocode/json?address=Leadmore+West,+Kilrush,+Clare,+Ireland&key=AIzaSyBe-vaefvOwUycBlN707CRlGhsewZq-NII",52.63602879999999,-9.5141705,"Leadmore West, Co. Clare, Ireland",,APPROXIMATE,Mid-West,16093,Kilrush Rural,1.7917327262506988,42.738742568597615
26/02/2010,"No. 1 Olympia Apartments, Merton Square, Kilkee",Clare,170000.0,No,Second-Hand Dwelling house /Apartment,,ChIJc-ZGOWzoWkgR68AbV63VM9I,"https://maps.googleapis.com/maps/api/geocode/json?address=No.+1+Olympia+Apartments,+Merton+Square,+Kilkee,+Clare,+Ireland&key=AIzaSyBe-vaefvOwUycBlN707CRlGhsewZq-NII",52.679721,-9.646163,"O'Connell St, Dough, Kilkee, Co. Clare, V15 Y262, Ireland",V15 Y262,GEOMETRIC_CENTER,Mid-West,16088,Kilkee,0.16878514998297506,48.50405374581955
03/03/2010,"13 Rockmount Manor, Kilrush Road, Ennis",Clare,375000.0,No,Second-Hand Dwelling house /Apartment,,ChIJF6h-ayMTW0gRcQ4cInagm7E,"https://maps.googleapis.com/maps/api/geocode/json?address=13+Rockmount+Manor,+Kilrush+Road,+Ennis,+Clare,+Ireland&key=AIzaSyBe-vaefvOwUycBlN707CRlGhsewZq-NII",52.8246068,-9.0013875,"13 Rockmount Manor, Ballybeg, Ennis, Co. Clare, V95 R2F7, Ireland",V95 R2F7,ROOFTOP,Mid-West,16032,Ennis Rural,0.8929814784429406,2.374887177242168
03/03/2010,"23 Ballykeelaun, Parteen",Clare,222500.0,No,Second-Hand Dwelling house /Apartment,,ChIJoeHVI8ldW0gRxB-xqjGvb6k,"https://maps.googleapis.com/maps/api/geocode/json?address=23+Ballykeelaun,+Parteen,+Clare,+Ireland&key=AIzaSyBe-vaefvOwUycBlN707CRlGhsewZq-NII",52.69775019999999,-8.614443,"23 Ballykeelaun, Gortatogher, Parteen, Co. Clare, V94 E9C6, Ireland",V94 E9C6,ROOFTOP,Mid-West,16106,Ballyglass,0.08080368547894695,12.204438925421087
05/03/2010,"23 Gleann Bhreandain, Lisdoonvarna",Clare,266500.0,Yes,New Dwelling house /Apartment,greater than or equal to 38 sq metres and less than 125 sq metres,ChIJz_GAuwGoW0gRmV-wHvhGJGw,"https://maps.googleapis.com/maps/api/geocode/json?address=23+Gleann+Bhreandain,+Lisdoonvarna,+Clare,+Ireland&key=AIzaSyBe-vaefvOwUycBlN707CRlGhsewZq-NII",53.03004789999999,-9.2849212,"Gleann Bhreandáin, St Brendan's Rd, Gowlaun, Lisdoonvarna, Co. Clare, Ireland",,ROOFTOP,Mid-West,16012,Lisdoonvarna,0.3269855782182109,29.678961921517434
05/03/2010,"7 Clover Hill, Tulla Road, Ennis",Clare,250000.0,No,Second-Hand Dwelling house /Apartment,,ChIJmfKQ-DhtW0gRjw6GsxwfWcY,"https://maps.googleapis.com/maps/api/geocode/json?address=7+Clover+Hill,+Tulla+Road,+Ennis,+Clare,+Ireland&key=AIzaSyBe-vaefvOwUycBlN707CRlGhsewZq-NII",52.8554895,-8.9699764,"7 Clover Hill, Bóthar Na Tulaí, Knockanoura, Ennis, Co. Clare, V95 WEW0, Ireland",V95 WEW0,ROOFTOP,Mid-West,16032,Ennis Rural,0.5903922514393853,1.8469627870884195
05/03/2010,"Gortygreeheen, Lissycasey",Clare,120000.0,No,Second-Hand Dwelling house /Apartment,,ChIJV8_zX3IXW0gR-3RPG-KfIsg,"https://maps.googleapis.com/maps/api/geocode/json?address=Gortygreeheen,+Lissycasey,+Clare,+Ireland&key=AIzaSyBe-vaefvOwUycBlN707CRlGhsewZq-NII",52.74467239999999,-9.158153,"Liscasey, Co. Clare, Ireland",,APPROXIMATE,Mid-West,16074,Liscasey,0.5721534561535053,16.16671644713633
08/03/2010,"64 Churchfields, Clonlara",Clare,176168.0,Yes,New Dwelling house /Apartment,greater than or equal to 38 sq metres and less than 125 sq metres,ChIJ94405TBeW0gREPIxl6nHAAo,"https://maps.googleapis.com/maps/api/geocode/json?address=64+Churchfields,+Clonlara,+Clare,+Ireland&key=AIzaSyBe-vaefvOwUycBlN707CRlGhsewZq-NII",52.72471179999999,-8.5546236,"Cloonlara, Co. Clare, Ireland",,APPROXIMATE,Mid-West,16116,Kiltenanlea,0.04801533545314647,15.464122167056713
09/03/2010,"26 Greenfield Park, Lahinch",Clare,165000.0,No,Second-Hand Dwelling house /Apartment,,ChIJg1YxwiEEW0gRircocXf7yqw,"https://maps.googleapis.com/maps/api/geocode/json?address=26+Greenfield+Park,+Lahinch,+Clare,+Ireland&key=AIzaSyBe-vaefvOwUycBlN707CRlGhsewZq-NII",52.93379359999999,-9.3336657,"26 Greenfield Park, Lahinch, Co. Clare, V95 TH79, Ireland",V95 TH79,ROOFTOP,Mid-West,16054,Ennistimon,0.7299023898441803,26.23924990174308
09/03/2010,"4 Pairc Na Heaglaise, Church Street, Corofin",Clare,160000.0,Yes,New Dwelling house /Apartment,greater than or equal to 38 sq metres and less than 125 sq metres,ChIJc55fMY4MW0gRLOonjZLoIjI,"https://maps.googleapis.com/maps/api/geocode/json?address=4+Pairc+Na+Heaglaise,+Church+Street,+Corofin,+Clare,+Ireland&key=AIzaSyBe-vaefvOwUycBlN707CRlGhsewZq-NII",52.9451593,-9.0627485,"Church St, Co. Clare, Ireland",,GEOMETRIC_CENTER,Mid-West,16019,Corrofin,0.024067689153348226,13.158175455196808
11/03/2010,"Labasheeda, Kilrush",Clare,40000.0,No,Second-Hand Dwelling house /Apartment,,ChIJ5xQGPd4jW0gR0A0yl6nHAAo,"https://maps.googleapis.com/maps/api/geocode/json?address=Labasheeda,+Kilrush,+Clare,+Ireland&key=AIzaSyBe-vaefvOwUycBlN707CRlGhsewZq-NII",52.623696,-9.2458938,"Cloonkerry West, Labasheeda, Co. Clare, Ireland",,APPROXIMATE,Mid-West,16072,Killofin,0.32959221712015313,30.097498955267138
12/03/2010,"6 Station Court, Ennis",Clare,160000.0,No,Second-Hand Dwelling house /Apartment,,ChIJx9ZS5ittW0gRu09E_zL_55c,"https://maps.googleapis.com/maps/api/geocode/json?address=6+Station+Court,+Ennis,+Clare,+Ireland&key=AIzaSyBe-vaefvOwUycBlN707CRlGhsewZq-NII",52.8398559,-8.9765117,"6 Station Ct, Station Rd, Clonroad More, Ennis, Co. Clare, V95 D1WP, Ireland",V95 D1WP,ROOFTOP,Mid-West,16032,Ennis Rural,0.055036534958300264,0.09811042241264173
12/03/2010,"Main Street, Ennistymon",Clare,55000.0,No,Second-Hand Dwelling house /Apartment,,ChIJ7w1E8dcFW0gRfsQGXsRPaWk,"https://maps.googleapis.com/maps/api/geocode/json?address=Main+Street,+Ennistymon,+Clare,+Ireland&key=AIzaSyBe-vaefvOwUycBlN707CRlGhsewZq-NII",52.9400996,-9.293463,"Main St, Ennistimon, Ennistymon, Co. Clare, Ireland",,GEOMETRIC_CENTER,Mid-West,16054,Ennistimon,0.09917346442937383,24.108941179080237
15/03/2010,"No.2, Fort Lawn, Cappa Kilrush",Clare,188590.3,Yes,New Dwelling house /Apartment,greater than 125 sq metres,ChIJraYkeXreWkgRHnbUsMhEyoA,"https://maps.googleapis.com/maps/api/geocode/json?address=No.2,+Fort+Lawn,+Cappa+Kilrush,+Clare,+Ireland&key=AIzaSyBe-vaefvOwUycBlN707CRlGhsewZq-NII",52.6334569,-9.483544,"Fort Lawn Road, Cappagh, Co. Clare, Ireland",,GEOMETRIC_CENTER,Mid-West,16005,Kilrush Urban,0.5291895646850673,41.16128513042637
16/03/2010,"Market Street, Corofin",Clare,82500.0,No,Second-Hand Dwelling house /Apartment,,ChIJ9W6ci44MW0gRwPUxl6nHAAo,"https://maps.googleapis.com/maps/api/geocode/json?address=Market+Street,+Corofin,+Clare,+Ireland&key=AIzaSyBe-vaefvOwUycBlN707CRlGhsewZq-NII",52.9448216,-9.064087400000002,"Laghtagoona, Corofin, Co. Clare, Ireland",,APPROXIMATE,Mid-West,16019,Corrofin,0.025029970386677047,13.164883431307194
16/03/2010,"No. 43  Shantraud Woods, Killaloe",Clare,170000.0,Yes,New Dwelling house /Apartment,greater than or equal to 38 sq metres and less than 125 sq metres,ChIJO37GXPeeXEgRvolfYCH9jpU,"https://maps.googleapis.com/maps/api/geocode/json?address=No.+43+Shantraud+Woods,+Killaloe,+Clare,+Ireland&key=AIzaSyBe-vaefvOwUycBlN707CRlGhsewZq-NII",52.79987819999999,-8.4453364,"43 Shantraud Woods, Moys, Killaloe, Co. Clare, V94 H58X, Ireland",V94 H58X,ROOFTOP,Mid-West,16134,Killaloe,0.4480206709204424,23.77176936776641
19/03/2010,"110, Boheraroan, Newmarket-On-Fergus",Clare,185000.0,No,Second-Hand Dwelling house /Apartment,,ChIJKYvv9KprW0gR5A5SVljYxcY,"https://maps.googleapis.com/maps/api/geocode/json?address=110,+Boheraroan,+Newmarket-On-Fergus,+Clare,+Ireland&key=AIzaSyBe-vaefvOwUycBlN707CRlGhsewZq-NII",52.7578207,-8.8963886,"110 Boheraroan, Newmarket on Fergus, Co. Clare, V95 HK82, Ireland",V95 HK82,ROOFTOP,Mid-West,16045,Urlan,0.16433060821502393,7.914111902895719
19/03/2010,"Patrick Steet, Clarecastle",Clare,150000.0,No,Second-Hand Dwelling house /Apartment,,ChIJ-2ZWO7ZsW0gRmcabrKOPQfE,"https://maps.googleapis.com/maps/api/geocode/json?address=Patrick+Steet,+Clarecastle,+Clare,+Ireland&key=AIzaSyBe-vaefvOwUycBlN707CRlGhsewZq-NII",52.814199,-8.9651,"Patrick St, Clare Commons, Clarecastle, Co. Clare, V95 DN82, Ireland",V95 DN82,GEOMETRIC_CENTER,Mid-West,16026,Clareabbey,0.050406001158622635,2.844028178837452
23/03/2010,"19 Glassan, Lahinch Road, Ennis",Clare,132500.0,No,Second-Hand Dwelling house /Apartment,,ChIJKaklIckSW0gRvWguAFIGY-s,"https://maps.googleapis.com/maps/api/geocode/json?address=19+Glassan,+Lahinch+Road,+Ennis,+Clare,+Ireland&key=AIzaSyBe-vaefvOwUycBlN707CRlGhsewZq-NII",52.8513129,-8.9974141,"19 Lahinch Rd, Glassan, Claureen, Ennis, Co. Clare, V95 X5NH, Ireland",V95 X5NH,ROOFTOP,Mid-West,16032,Ennis Rural,0.6536394017973949,1.9941194044375297
24/03/2010,"58 The Hawthorns, Limerick Road, Ennis",Clare,169000.0,No,Second-Hand Dwelling house /Apartment,,ChIJ25vhZiwTW0gR7NopaV2bpDg,"https://maps.googleapis.com/maps/api/geocode/json?address=58+The+Hawthorns,+Limerick+Road,+Ennis,+Clare,+Ireland&key=AIzaSyBe-vaefvOwUycBlN707CRlGhsewZq-NII",52.82852639999999,-8.983531300000003,"58 Limerick Rd, The Hawthorns, Clonroad More, Ennis, Co. Clare, V95 A3T8, Ireland",V95 A3T8,ROOFTOP,Mid-West,16032,Ennis Rural,0.38620386835206894,1.2943316568194452
25/03/2010,"59 Carraig Midhe, Corbally",Clare,205000.0,Yes,New Dwelling house /Apartment,greater than or equal to 38 sq metres and less than 125 sq metres,ChIJFbucWDRcW0gR4Yejiik6jRE,"https://maps.googleapis.com/maps/api/geocode/json?address=59+Carraig+Midhe,+Corbally,+Clare,+Ireland&key=AIzaSyBe-vaefvOwUycBlN707CRlGhsewZq-NII",52.6874717,-8.612076199999999,"59 Carraig Midhe, Corbally, Limerick, Co. Clare, V94 TXW2, Ireland",V94 TXW2,ROOFTOP,Mid-West,16106,Ballyglass,0.2934219563550585,12.808909877987555
26/03/2010,"11 B (42) Moore Bay, Kilkee",Clare,133000.0,No,Second-Hand Dwelling house /Apartment,,EjIxMSwgNDIgTW9vcmUgQmF5IEhvbGlkYXkgSG9tZXMsIENvLiBDbGFyZSwgSXJlbGFuZCIiGiAKGhIYChQKEgmfUmM3PuhaSBGuicYumQ4SAhAqEgIxMQ,"https://maps.googleapis.com/maps/api/geocode/json?address=11+B+(42)+Moore+Bay,+Kilkee,+Clare,+Ireland&key=AIzaSyBe-vaefvOwUycBlN707CRlGhsewZq-NII",52.67030860000001,-9.6543813,"11, 42 Moore Bay Holiday Homes, Kilkee Lower, Co. Clare, Ireland",,RANGE_INTERPOLATED,Mid-West,16087,Kilfearagh,0.8644776159685984,49.41242346698693
26/03/2010,"15 Inishicronan, Crusheen",Clare,160000.0,No,Second-Hand Dwelling house /Apartment,,ChIJrbPvMGNxW0gRaRjuZPjrQqw,"https://maps.googleapis.com/maps/api/geocode/json?address=15+Inishicronan,+Crusheen,+Clare,+Ireland&key=AIzaSyBe-vaefvOwUycBlN707CRlGhsewZq-NII",52.9396669,-8.8947433,"15 Inchicronan, Crusheen, Co. Clare, V95 X376, Ireland",V95 X376,ROOFTOP,Mid-West,16028,Crusheen,0.199536765315107,12.410619713834205
30/03/2010,"7 Bellharbour Cottages, Ballyvaughan",Clare,240000.0,No,Second-Hand Dwelling house /Apartment,,ChIJFc-2aWWhW0gR7l-BTCL3Mz0,"https://maps.googleapis.com/maps/api/geocode/json?address=7+Bellharbour+Cottages,+Ballyvaughan,+Clare,+Ireland&key=AIzaSyBe-vaefvOwUycBlN707CRlGhsewZq-NII",53.1155333,-9.1494233,"Ballyvaughan, Co. Clare, Ireland",,GEOMETRIC_CENTER,Mid-West,16010,Drumcreehy,0.05234108001787536,32.867809394215826
01/04/2010,"Ayle, Feakle",Clare,265000.0,No,Second-Hand Dwelling house /Apartment,,ChIJ3eA4Ra5oW0gR5KWtH6BXkug,"https://maps.googleapis.com/maps/api/geocode/json?address=Ayle,+Feakle,+Clare,+Ireland&key=AIzaSyBe-vaefvOwUycBlN707CRlGhsewZq-NII",52.80202999999999,-8.75121,"Gortnaglearagh, Ayle, Co. Clare, Ireland",,APPROXIMATE,Mid-West,16144,Kilkishen,0.6026547866632426,7.468445342388001
05/04/2010,"21 Cloughleigh Road, Ennis",Clare,106000.0,No,Second-Hand Dwelling house /Apartment,,ChIJo5Te3s0SW0gRE6fZCNPHR0g,"https://maps.googleapis.com/maps/api/geocode/json?address=21+Cloughleigh+Road,+Ennis,+Clare,+Ireland&key=AIzaSyBe-vaefvOwUycBlN707CRlGhsewZq-NII",52.84685169999999,-8.992339399999997,"21 Cloughleigh Rd, Cloughleigh, Ennis, Co. Clare, V95 T86K, Ireland",V95 T86K,ROOFTOP,Mid-West,16001,Ennis No. 1 Urban,0.44205172926568825,1.4143240596215718
06/04/2010,"70 Churchfileds, Clonlara",Clare,205000.0,Yes,New Dwelling house /Apartment,greater than or equal to 38 sq metres and less than 125 sq metres,ChIJ94405TBeW0gREPIxl6nHAAo,"https://maps.googleapis.com/maps/api/geocode/json?address=70+Churchfileds,+Clonlara,+Clare,+Ireland&key=AIzaSyBe-vaefvOwUycBlN707CRlGhsewZq-NII",52.72471179999999,-8.5546236,"Cloonlara, Co. Clare, Ireland",,APPROXIMATE,Mid-West,16116,Kiltenanlea,0.04801533545314647,15.464122167056713
06/04/2010,"Crofton Street, Kilrush",Clare,130000.0,No,Second-Hand Dwelling house /Apartment,,ChIJCbYrwHbeWkgRWicFOA4fhCA,"https://maps.googleapis.com/maps/api/geocode/json?address=Crofton+Street,+Kilrush,+Clare,+Ireland&key=AIzaSyBe-vaefvOwUycBlN707CRlGhsewZq-NII",52.6375269,-9.4900576,"Crofton St, Drimna, Co. Clare, Ireland",,GEOMETRIC_CENTER,Mid-West,16005,Kilrush Urban,0.18831256579827,41.27777148775722
06/04/2010,"Knocknaskeagh, Kilshanny",Clare,165000.0,No,Second-Hand Dwelling house /Apartment,,ChIJ4RwnaRsHW0gRYXp19ohsDw0,"https://maps.googleapis.com/maps/api/geocode/json?address=Knocknaskeagh,+Kilshanny,+Clare,+Ireland&key=AIzaSyBe-vaefvOwUycBlN707CRlGhsewZq-NII",52.9854248,-9.3377245,"Knocknaskeagh, Co. Clare, Ireland",,APPROXIMATE,Mid-West,16057,Killaspuglonane,2.6683867739650067,29.236499501035066
08/04/2010,"3 Castlelawn, Tulla Road, Ennis",Clare,235000.0,No,Second-Hand Dwelling house /Apartment,,ChIJdTl-cDptW0gRQp4XBdy9gA4,"https://maps.googleapis.com/maps/api/geocode/json?address=3+Castlelawn,+Tulla+Road,+Ennis,+Clare,+Ireland&key=AIzaSyBe-vaefvOwUycBlN707CRlGhsewZq-NII",52.85026999999999,-8.97135,"3 Tulla Rd, Castle Lawn, Cappahard, Ennis, Co. Clare, V95 YKF6, Ireland",V95 YKF6,ROOFTOP,Mid-West,16032,Ennis Rural,0.11513603174861775,1.2595005972928273
08/04/2010,"33 Atlantic View, Castlefields, Kilkee",Clare,112000.0,No,Second-Hand Dwelling house /Apartment,,ChIJ7bYOUG_oWkgRB7bocxlv2-I,"https://maps.googleapis.com/maps/api/geocode/json?address=33+Atlantic+View,+Castlefields,+Kilkee,+Clare,+Ireland&key=AIzaSyBe-vaefvOwUycBlN707CRlGhsewZq-NII",52.684798,-9.6492334,"Atlantic View, Dough, Co. Clare, Ireland",,GEOMETRIC_CENTER,Mid-West,16088,Kilkee,0.4376411795618332,48.49111708880265
09/04/2010,"47 Parnell Street, Ennis",Clare,9523.04,No,Second-Hand Dwelling house /Apartment,,ChIJX7epxdISW0gRQfItMS_2qnU,"https://maps.googleapis.com/maps/api/geocode/json?address=47+Parnell+Street,+Ennis,+Clare,+Ireland&key=AIzaSyBe-vaefvOwUycBlN707CRlGhsewZq-NII",52.84390629999999,-8.985461899999997,"47 Parnell St, Clonroad Beg, Ennis, Co. Clare, V95 HP63, Ireland",V95 HP63,ROOFTOP,Mid-West,16002,Ennis No. 2 Urban,0.10091472074457714,0.8482797658962999
09/04/2010,"5 Callan View, Inagh",Clare,130000.0,No,Second-Hand Dwelling house /Apartment,,ChIJTQGH-M4PW0gRfodfmke4mwc,"https://maps.googleapis.com/maps/api/geocode/json?address=5+Callan+View,+Inagh,+Clare,+Ireland&key=AIzaSyBe-vaefvOwUycBlN707CRlGhsewZq-NII",52.8767636,-9.1799856,"5 Callan View, Carrowkeel East, Inagh, Co. Clare, V95 W997, Ireland",V95 W997,ROOFTOP,Mid-West,16048,Ballyea,0.3006399564313946,14.353881546657135
09/04/2010,"50 Cluain Ros Leamhain, Roslevan, Ennis",Clare,190000.0,Yes,New Dwelling house /Apartment,greater than or equal to 38 sq metres and less than 125 sq metres,ChIJm9C9H9RtW0gRFNT2xmQWpws,"https://maps.googleapis.com/maps/api/geocode/json?address=50+Cluain+Ros+Leamhain,+Roslevan,+Ennis,+Clare,+Ireland&key=AIzaSyBe-vaefvOwUycBlN707CRlGhsewZq-NII",52.85939820000001,-8.957901999999997,"50 Cluain Ros, Leahmain, Ennis, Co. Clare, V95 X33E, Ireland",V95 X33E,ROOFTOP,Mid-West,16032,Ennis Rural,0.3792617437140089,2.5287402578448845
13/04/2010,"12 Corran Meabh, Crag, Lahinch",Clare,240088.1,Yes,New Dwelling house /Apartment,less than 38 sq metres,ChIJrwUuxhoEW0gRy9jUuyuvHKU,"https://maps.googleapis.com/maps/api/geocode/json?address=12+Corran+Meabh,+Crag,+Lahinch,+Clare,+Ireland&key=AIzaSyBe-vaefvOwUycBlN707CRlGhsewZq-NII",52.927418,-9.346435,"Crag, Lahinch, Co. Clare, Ireland",,GEOMETRIC_CENTER,Mid-West,16064,Moy,0.4461147422794833,26.76021039483689
13/04/2010,"18 Childers Road, Ennis",Clare,15000.0,No,Second-Hand Dwelling house /Apartment,,ChIJld-Nxc8SW0gRSYdB9_dVuyQ,"https://maps.googleapis.com/maps/api/geocode/json?address=18+Childers+Road,+Ennis,+Clare,+Ireland&key=AIzaSyBe-vaefvOwUycBlN707CRlGhsewZq-NII",52.8457993,-8.996823800000003,"18 Childers Rd, Cloughleigh, Ennis, Co. Clare, V95 W0VX, Ireland",V95 W0VX,ROOFTOP,Mid-West,16032,Ennis Rural,0.6473709388904784,1.6085805049607629
13/04/2010,"25, Greenfield Park, Lahinch",Clare,195000.0,No,Second-Hand Dwelling house /Apartment,,ChIJM1PBwyEEW0gRoHbtdBGW6Vo,"https://maps.googleapis.com/maps/api/geocode/json?address=25,+Greenfield+Park,+Lahinch,+Clare,+Ireland&key=AIzaSyBe-vaefvOwUycBlN707CRlGhsewZq-NII",52.9338681,-9.3337421,"25 Greenfield Park, Lahinch, Co. Clare, V95 A254, Ireland",V95 A254,ROOFTOP,Mid-West,16054,Ennistimon,0.7245149045945329,26.247251250808297
13/04/2010,"31 Woodhaven, Kilrush Road, Ennis",Clare,190000.0,No,Second-Hand Dwelling house /Apartment,,ChIJcR0aBycTW0gRIfyjdUV8vLM,"https://maps.googleapis.com/maps/api/geocode/json?address=31+Woodhaven,+Kilrush+Road,+Ennis,+Clare,+Ireland&key=AIzaSyBe-vaefvOwUycBlN707CRlGhsewZq-NII",52.831691000000006,-8.998653599999997,"31 Woodhaven, Kilrush Rd, Drumbiggil, Ennis, Co. Clare, V95 Y7VC, Ireland",V95 Y7VC,ROOFTOP,Mid-West,16032,Ennis Rural,0.32749465257247645,1.7653687369341502
14/04/2010,"16 Rath Ban, Tulla Road, Ennis",Clare,159000.0,No,Second-Hand Dwelling house /Apartment,,ChIJWdRsSQ1tW0gRJ1k3ssEfQxk,"https://maps.googleapis.com/maps/api/geocode/json?address=16+Rath+Ban,+Tulla+Road,+Ennis,+Clare,+Ireland&key=AIzaSyBe-vaefvOwUycBlN707CRlGhsewZq-NII",52.85925989999999,-8.9443834,"16 Rathbán, Tulla Rd, Knockanean, Ennis, Co. Clare, V95 YYR5, Ireland",V95 YYR5,ROOFTOP,Mid-West,16029,Doora,0.9468920387446316,3.0411578908772743
14/04/2010,"57 Woodhaven, Kilrush Road, Ennis",Clare,188000.0,No,Second-Hand Dwelling house /Apartment,,ChIJ-XbdGycTW0gRI21uOwG77MM,"https://maps.googleapis.com/maps/api/geocode/json?address=57+Woodhaven,+Kilrush+Road,+Ennis,+Clare,+Ireland&key=AIzaSyBe-vaefvOwUycBlN707CRlGhsewZq-NII",52.8315886,-8.999761699999997,"57 Woodhaven, Kilrush Rd, Drumbiggil, Ennis, Co. Clare, V95 P5KC, Ireland",V95 P5KC,ROOFTOP,Mid-West,16032,Ennis Rural,0.2616368189078949,1.8367441146178511
15/04/2010,"Shanakyle, Parteen",Clare,320000.0,No,Second-Hand Dwelling house /Apartment,,ChIJR1DvHNRdW0gRMmz9nljohhE,"https://maps.googleapis.com/maps/api/geocode/json?address=Shanakyle,+Parteen,+Clare,+Ireland&key=AIzaSyBe-vaefvOwUycBlN707CRlGhsewZq-NII",52.6960387,-8.596902499999999,"Shannakyle, Co. Clare, Ireland",,APPROXIMATE,Mid-West,16106,Ballyglass,0.5185192413478166,13.377355362418847
16/04/2010,"30 Cluain Ros Leamhain, Tulla Rd, Ennis",Clare,195000.0,Yes,New Dwelling house /Apartment,greater than or equal to 38 sq metres and less than 125 sq metres,ChIJ9Xkd52ptW0gRs1x53uCG1TQ,"https://maps.googleapis.com/maps/api/geocode/json?address=30+Cluain+Ros+Leamhain,+Tulla+Rd,+Ennis,+Clare,+Ireland&key=AIzaSyBe-vaefvOwUycBlN707CRlGhsewZq-NII",52.8602424,-8.957711199999997,"30 Cluain Ros, Rosslevan, Co. Clare, Ireland",,ROOFTOP,Mid-West,16032,Ennis Rural,0.4721495521643838,2.6183060726166154
16/04/2010,"6 Gleann Na Smol, Shannon",Clare,76666.0,No,Second-Hand Dwelling house /Apartment,,ChIJBcnzmNFBW0gRs-o_PYei-PA,"https://maps.googleapis.com/maps/api/geocode/json?address=6+Gleann+Na+Smol,+Shannon,+Clare,+Ireland&key=AIzaSyBe-vaefvOwUycBlN707CRlGhsewZq-NII",52.705431,-8.8724782,"6 Gleann Na Smol, Tullyvarraga, Shannon, Co. Clare, V14 W309, Ireland",V14 W309,ROOFTOP,Mid-West,16027,Clenagh,0.2323826759710685,6.9762031218014275
19/04/2010,"Rehy West, Carrigaholt, Kilkee",Clare,60000.0,No,Second-Hand Dwelling house /Apartment,,ChIJBdaLDOzAWkgR7VEWYmmnWG8,"https://maps.googleapis.com/maps/api/geocode/json?address=Rehy+West,+Carrigaholt,+Kilkee,+Clare,+Ireland&key=AIzaSyBe-vaefvOwUycBlN707CRlGhsewZq-NII",52.58260079999999,-9.7911981,"Rehy W, Rehy West, Co. Clare, Ireland",,GEOMETRIC_CENTER,Mid-West,16101,Rahona,0.469210294725135,61.93513227562701
20/04/2010,"Shannon Villa, Lisdeen, Kilkee",Clare,125000.0,No,Second-Hand Dwelling house /Apartment,,ChIJRTVbjNRBW0gRoHkxl6nHAAo,"https://maps.googleapis.com/maps/api/geocode/json?address=Shannon+Villa,+Lisdeen,+Kilkee,+Clare,+Ireland&key=AIzaSyBe-vaefvOwUycBlN707CRlGhsewZq-NII",52.7124708,-8.8730677,"Shannon, Co. Clare, Ireland",,APPROXIMATE,Mid-West,16027,Clenagh,0.05595836963348397,6.6434440195878635
20/04/2010,"Station Road, Lahinch",Clare,133333.0,No,Second-Hand Dwelling house /Apartment,,ChIJITZL4hgEW0gRDwUc1QMK2nc,"https://maps.googleapis.com/maps/api/geocode/json?address=Station+Road,+Lahinch,+Clare,+Ireland&key=AIzaSyBe-vaefvOwUycBlN707CRlGhsewZq-NII",52.9322198,-9.3385079,"Station Rd, Lahinch, Co. Clare, Ireland",,GEOMETRIC_CENTER,Mid-West,16054,Ennistimon,0.4398644316248553,26.468796628631182
21/04/2010,"5 Pairc Na Heagliase, Corofin",Clare,53000.0,Yes,New Dwelling house /Apartment,greater than or equal to 38 sq metres and less than 125 sq metres,ChIJ9W6ci44MW0gRwPUxl6nHAAo,"https://maps.googleapis.com/maps/api/geocode/json?address=5+Pairc+Na+Heagliase,+Corofin,+Clare,+Ireland&key=AIzaSyBe-vaefvOwUycBlN707CRlGhsewZq-NII",52.9448216,-9.064087400000002,"Laghtagoona, Corofin, Co. Clare, Ireland",,APPROXIMATE,Mid-West,16019,Corrofin,0.025029970386677047,13.164883431307194
21/04/2010,"6 Pairc Na Heagliase, Corofin",Clare,127000.0,Yes,New Dwelling house /Apartment,greater than or equal to 38 sq metres and less than 125 sq metres,ChIJ9W6ci44MW0gRwPUxl6nHAAo,"https://maps.googleapis.com/maps/api/geocode/json?address=6+Pairc+Na+Heagliase,+Corofin,+Clare,+Ireland&key=AIzaSyBe-vaefvOwUycBlN707CRlGhsewZq-NII",52.9448216,-9.064087400000002,"Laghtagoona, Corofin, Co. Clare, Ireland",,APPROXIMATE,Mid-West,16019,Corrofin,0.025029970386677047,13.164883431307194
21/04/2010,"Liscannor, Clare",Clare,400000.0,No,Second-Hand Dwelling house /Apartment,,ChIJc3MknGABW0gR4IExl6nHAAo,"https://maps.googleapis.com/maps/api/geocode/json?address=Liscannor,+Clare,+Ireland&key=AIzaSyBe-vaefvOwUycBlN707CRlGhsewZq-NII",52.9383667,-9.3922452,"Liscannor, Co. Clare, Ireland",,APPROXIMATE,Mid-West,16060,Liscannor,0.12060985344421747,30.06409599008313
21/04/2010,"Lisheenfurroor, Kilkee",Clare,20000.0,No,Second-Hand Dwelling house /Apartment,,ChIJ753WilnCWkgRJ8MLahMU_pA,"https://maps.googleapis.com/maps/api/geocode/json?address=Lisheenfurroor,+Kilkee,+Clare,+Ireland&key=AIzaSyBe-vaefvOwUycBlN707CRlGhsewZq-NII",52.618914,-9.6737169,"Lisheenfurroor, Co. Clare, Ireland",,GEOMETRIC_CENTER,Mid-West,16098,Moyarta,1.8940387863591297,53.030614476497114
22/04/2010,"Crusheen, Ennis",Clare,116000.0,No,Second-Hand Dwelling house /Apartment,,ChIJPxjpOH1xW0gRwPYxl6nHAAo,"https://maps.googleapis.com/maps/api/geocode/json?address=Crusheen,+Ennis,+Clare,+Ireland&key=AIzaSyBe-vaefvOwUycBlN707CRlGhsewZq-NII",52.9386532,-8.8967688,"Crusheen, Co. Clare, Ireland",,APPROXIMATE,Mid-West,16028,Crusheen,0.034186350572026084,12.250245262822805
23/04/2010,"16Moyard, Shanballa, Lahinch Road, Ennis",Clare,195434.51,Yes,New Dwelling house /Apartment,greater than or equal to 38 sq metres and less than 125 sq metres,ChIJETbhyMESW0gREfWbnvGZzRw,"https://maps.googleapis.com/maps/api/geocode/json?address=16Moyard,+Shanballa,+Lahinch+Road,+Ennis,+Clare,+Ireland&key=AIzaSyBe-vaefvOwUycBlN707CRlGhsewZq-NII",52.85113860000001,-9.014268199999998,"16 Moyard, Shanaballa, Ennis, Co. Clare, V95 W9Y9, Ireland",V95 W9Y9,ROOFTOP,Mid-West,16032,Ennis Rural,0.5113160771527654,2.922298130031148
23/04/2010,"44 Clover Hill, Tulla Road  Ennis, Tulla Road, Ennis",Clare,230000.0,No,Second-Hand Dwelling house /Apartment,,ChIJA7r1aDhtW0gRuLqJbreYHYM,"https://maps.googleapis.com/maps/api/geocode/json?address=44+Clover+Hill,+Tulla+Road+Ennis,+Tulla+Road,+Ennis,+Clare,+Ireland&key=AIzaSyBe-vaefvOwUycBlN707CRlGhsewZq-NII",52.8564379,-8.9712931,"44 Tulla Rd, Clover Hill, Knockanoura, Ennis, Co. Clare, V95 Y9D6, Ireland",V95 Y9D6,ROOFTOP,Mid-West,16032,Ennis Rural,0.6805313165993986,1.9362126014748944
26/04/2010,"30 Power'S Court, Tulla",Clare,193000.0,No,Second-Hand Dwelling house /Apartment,,ChIJdTs7pWJlW0gR_S43nf5UIGY,"https://maps.googleapis.com/maps/api/geocode/json?address=30+Power'S+Court,+Tulla,+Clare,+Ireland&key=AIzaSyBe-vaefvOwUycBlN707CRlGhsewZq-NII",52.86362389999999,-8.7582758,"30 Powerscourt, Tulla, Co. Clare, V95 RC98, Ireland",V95 RC98,ROOFTOP,Mid-West,16155,Tulla,0.2483911936011378,14.098860782686709
27/04/2010,"9 The Strands, Circular Road, Kilkee",Clare,162000.0,No,Second-Hand Dwelling house /Apartment,,ChIJQ95txNESW0gRYiL5cK3VilY,"https://maps.googleapis.com/maps/api/geocode/json?address=9+The+Strands,+Circular+Road,+Kilkee,+Clare,+Ireland&key=AIzaSyBe-vaefvOwUycBlN707CRlGhsewZq-NII",52.8449919,-8.994174099999997,"Circular Rd, Cloughleigh, Ennis, Co. Clare, Ireland",,GEOMETRIC_CENTER,Mid-West,16001,Ennis No. 1 Urban,0.4483217208920788,1.4092069347761356
28/04/2010,"Grantooha, Kilrush",Clare,50000.0,No,Second-Hand Dwelling house /Apartment,,ChIJRYfvEHDeWkgRkJUxl6nHAAo,"https://maps.googleapis.com/maps/api/geocode/json?address=Grantooha,+Kilrush,+Clare,+Ireland&key=AIzaSyBe-vaefvOwUycBlN707CRlGhsewZq-NII",52.6406999,-9.4859374,"Drimna, Kilrush, Co. Clare, Ireland",,APPROXIMATE,Mid-West,16005,Kilrush Urban,0.2478448634780041,40.85231870417157
28/04/2010,"Main Street, Liscannor",Clare,181612.0,No,Second-Hand Dwelling house /Apartment,,ChIJTXcWgF4BW0gR5vDY7T1SN28,"https://maps.googleapis.com/maps/api/geocode/json?address=Main+Street,+Liscannor,+Clare,+Ireland&key=AIzaSyBe-vaefvOwUycBlN707CRlGhsewZq-NII",52.93880260000001,-9.3910011,"Main St, Liscannor, Co. Clare, V95 FN5R, Ireland",V95 FN5R,GEOMETRIC_CENTER,Mid-West,16060,Liscannor,0.03637360503570757,30.004173540629353
29/04/2010,"6 Ballylannidy, Shannaway Road, Ennis",Clare,705000.0,No,Second-Hand Dwelling house /Apartment,,ChIJneS3uvoSW0gR_CjxGgK42us,"https://maps.googleapis.com/maps/api/geocode/json?address=6+Ballylannidy,+Shannaway+Road,+Ennis,+Clare,+Ireland&key=AIzaSyBe-vaefvOwUycBlN707CRlGhsewZq-NII",52.8413339,-9.028217,"Shanaway Rd, Ballylannidy, Ennis, Co. Clare, V95 TR25, Ireland",V95 TR25,GEOMETRIC_CENTER,Mid-West,16032,Ennis Rural,1.8876405460950765,3.5494335468527782
29/04/2010,"Ballaghboy, Doora, Ennis",Clare,248000.0,No,Second-Hand Dwelling house /Apartment,,ChIJ9ydZFBxtW0gRgNsxl6nHAAo,"https://maps.googleapis.com/maps/api/geocode/json?address=Ballaghboy,+Doora,+Ennis,+Clare,+Ireland&key=AIzaSyBe-vaefvOwUycBlN707CRlGhsewZq-NII",52.8396713,-8.9444727,"Ballaghboy, Co. Clare, Ireland",,APPROXIMATE,Mid-West,16029,Doora,0.06414909393751105,2.05595876318257
30/04/2010,"49 Gort Na Habhanna, Tulla Road, Ennis",Clare,155000.0,No,New Dwelling house /Apartment,greater than or equal to 38 sq metres and less than 125 sq metres,ChIJNxufrRNtW0gRN4J8Wl6S_TI,"https://maps.googleapis.com/maps/api/geocode/json?address=49+Gort+Na+Habhanna,+Tulla+Road,+Ennis,+Clare,+Ireland&key=AIzaSyBe-vaefvOwUycBlN707CRlGhsewZq-NII",52.85605169999999,-8.9487171,"49, Gort Na Habhana, Tulla Road, Co. Clare, V95 VH6N, Ireland",V95 VH6N,ROOFTOP,Mid-West,16032,Ennis Rural,0.5837811496069123,2.5817011032809103
30/04/2010,"6 Moyard, Shanballa  Lahinch Road, Ennis",Clare,195000.0,No,Second-Hand Dwelling house /Apartment,,ChIJeYURssESW0gRKOVZr6dtl6E,"https://maps.googleapis.com/maps/api/geocode/json?address=6+Moyard,+Shanballa+Lahinch+Road,+Ennis,+Clare,+Ireland&key=AIzaSyBe-vaefvOwUycBlN707CRlGhsewZq-NII",52.8514685,-9.013218199999999,"6 Moyard, Shanaballa, Ennis, Co. Clare, V95 X0D0, Ireland",V95 X0D0,ROOFTOP,Mid-West,16032,Ennis Rural,0.43356429141987496,2.8768087896421664
30/04/2010,"Bealaha, Doonbeg",Clare,124500.0,No,Second-Hand Dwelling house /Apartment,,ChIJOyfFbFnmWkgRgr66GajHACY,"https://maps.googleapis.com/maps/api/geocode/json?address=Bealaha,+Doonbeg,+Clare,+Ireland&key=AIzaSyBe-vaefvOwUycBlN707CRlGhsewZq-NII",52.718005700000006,-9.588347500000001,"Carrowblough Beg, Bealaha, Co. Clare, Ireland",,APPROXIMATE,Mid-West,16096,Knocknagore,0.10251886766118057,43.381710358994454
30/04/2010,"Doonsallagh West, Doonsallagh, Miltown Malbay",Clare,140000.0,No,Second-Hand Dwelling house /Apartment,,ChIJJYtVJcAcW0gRzPolM0Sj6qA,"https://maps.googleapis.com/maps/api/geocode/json?address=Doonsallagh+West,+Doonsallagh,+Miltown+Malbay,+Clare,+Ireland&key=AIzaSyBe-vaefvOwUycBlN707CRlGhsewZq-NII",52.82811,-9.35998,"Doonsallagh West, Dunsallagh, Co. Clare, Ireland",,APPROXIMATE,Mid-West,16046,Annagh,1.79269830523995,25.865257784157443
04/05/2010,"20 Marian Avenue, Ennis",Clare,100000.0,No,Second-Hand Dwelling house /Apartment,,ChIJ4bqLqjNtW0gRHArZB64a2GE,"https://maps.googleapis.com/maps/api/geocode/json?address=20+Marian+Avenue,+Ennis,+Clare,+Ireland&key=AIzaSyBe-vaefvOwUycBlN707CRlGhsewZq-NII",52.8488838,-8.982297099999998,"20 Marian Ave, Lifford, Ennis, Co. Clare, V95 YKR1, Ireland",V95 YKR1,ROOFTOP,Mid-West,16001,Ennis No. 1 Urban,0.10065623271926198,1.16803182195022
04/05/2010,"44 The Maples, Oakleigh Woods, Tulla Rd Ennis",Clare,223000.0,No,Second-Hand Dwelling house /Apartment,,ChIJuY06x0BtW0gRnYpj3f8pJBg,"https://maps.googleapis.com/maps/api/geocode/json?address=44+The+Maples,+Oakleigh+Woods,+Tulla+Rd+Ennis,+Clare,+Ireland&key=AIzaSyBe-vaefvOwUycBlN707CRlGhsewZq-NII",52.85947849999999,-8.966425099999997,"44 Oakleigh Wood, The Maples, Knockaderry, Ennis, Co. Clare, V95 WCP4, Ireland",V95 WCP4,ROOFTOP,Mid-West,16032,Ennis Rural,0.534188962484918,2.3322866555301496
05/05/2010,"5 Westbourne Court, Watery Road, Ennis",Clare,150000.0,No,Second-Hand Dwelling house /Apartment,,ChIJHyZqsMwSW0gROdjocLWwj3c,"https://maps.googleapis.com/maps/api/geocode/json?address=5+Westbourne+Court,+Watery+Road,+Ennis,+Clare,+Ireland&key=AIzaSyBe-vaefvOwUycBlN707CRlGhsewZq-NII",52.8502581,-8.987252499999997,"5 Watery Rd, Westbourne, Lifford, Ennis, Co. Clare, V95 AVF2, Ireland",V95 AVF2,ROOFTOP,Mid-West,16032,Ennis Rural,0.19323047008599525,1.4598074123025817
06/05/2010,"132 Clonard, Westbury, Limerick",Clare,190000.0,No,Second-Hand Dwelling house /Apartment,,ChIJY9akki5cW0gRUF9s5BQLeRw,"https://maps.googleapis.com/maps/api/geocode/json?address=132+Clonard,+Westbury,+Limerick,+Clare,+Ireland&key=AIzaSyBe-vaefvOwUycBlN707CRlGhsewZq-NII",52.68459789999999,-8.5970692,"132 Clonard, Corbally, Westbury, Co. Clare, V94 YFE0, Ireland",V94 YFE0,ROOFTOP,Mid-West,16106,Ballyglass,0.07022101272058552,13.859703072341
06/05/2010,"9 Glen Gardens, Clonroadmpre, Ennis",Clare,170000.0,No,Second-Hand Dwelling house /Apartment,,ChIJc-yRBdYSW0gRSKFAxt8OLnM,"https://maps.googleapis.com/maps/api/geocode/json?address=9+Glen+Gardens,+Clonroadmpre,+Ennis,+Clare,+Ireland&key=AIzaSyBe-vaefvOwUycBlN707CRlGhsewZq-NII",52.835283200000006,-8.989385400000002,"Greenwich, 9 Glen Gardens, Clonroad Beg, Ennis, Co. Clare, V95 V0VE, Ireland",V95 V0VE,ROOFTOP,Mid-West,16032,Ennis Rural,0.4520256894120662,1.030162622321832
07/05/2010,"227Blockl, Bru Na Sionna, Shannon",Clare,108810.56,Yes,New Dwelling house /Apartment,less than 38 sq metres,ChIJH45SXNNBW0gRDQsvdKT9nqA,"https://maps.googleapis.com/maps/api/geocode/json?address=227Blockl,+Bru+Na+Sionna,+Shannon,+Clare,+Ireland&key=AIzaSyBe-vaefvOwUycBlN707CRlGhsewZq-NII",52.707533700000006,-8.8804669,"Brú Na Sionna, Shannon Town Centre, Tullyvarraga, Shannon, Co. Clare, Ireland",,ROOFTOP,Mid-West,16027,Clenagh,0.08121737189479368,7.333028841946138
07/05/2010,"93 Lois Anama, Sixmilebridge",Clare,162620.0,Yes,New Dwelling house /Apartment,greater than or equal to 38 sq metres and less than 125 sq metres,ChIJuUOmdMppW0gRB_-hVaI37Ms,"https://maps.googleapis.com/maps/api/geocode/json?address=93+Lois+Anama,+Sixmilebridge,+Clare,+Ireland&key=AIzaSyBe-vaefvOwUycBlN707CRlGhsewZq-NII",52.74192180000001,-8.7831782,"93 Lios Anama, Sixmilebridge, Co. Clare, V95 PC66, Ireland",V95 PC66,ROOFTOP,Mid-West,16041,Sixmilebridge,0.5187781296475316,0.4600651821456898
10/05/2010,"Ennis Road, Miltown Malbay",Clare,220000.0,No,Second-Hand Dwelling house /Apartment,,ChIJ8ZX7UNYCW0gRBe1tzyjoeUo,"https://maps.googleapis.com/maps/api/geocode/json?address=Ennis+Road,+Miltown+Malbay,+Clare,+Ireland&key=AIzaSyBe-vaefvOwUycBlN707CRlGhsewZq-NII",52.85355999999999,-9.39821,"Ennis Rd, Leagard North, Co. Clare, Ireland",,GEOMETRIC_CENTER,Mid-West,16063,Milltown Malbay,0.17018558251256946,28.44113631910225
11/05/2010,"Bauragegaun, Feakle",Clare,178000.0,No,Second-Hand Dwelling house /Apartment,,ChIJsa-B1GB7W0gRkj1Ou6fHACY,"https://maps.googleapis.com/maps/api/geocode/json?address=Bauragegaun,+Feakle,+Clare,+Ireland&key=AIzaSyBe-vaefvOwUycBlN707CRlGhsewZq-NII",52.9310333,-8.6767728,"Bauragegaun, Co. Clare, Ireland",,APPROXIMATE,Mid-West,16120,Ayle,1.9664240031608216,22.479369690242105
12/05/2010,"Apartment 6, Sandfield Gardens, Ennis",Clare,77500.0,No,Second-Hand Dwelling house /Apartment,,Ej82LCBTYW5kZmllbGQgR2FyZGVucywgSGlnaGZpZWxkIFBhcmssIEVubmlzLCBDby4gQ2xhcmUsIElyZWxhbmQiHRobChYKFAoSCcPu85I0bVtIEcDN7pEPAtW4EgE2,"https://maps.googleapis.com/maps/api/geocode/json?address=Apartment+6,+Sandfield+Gardens,+Ennis,+Clare,+Ireland&key=AIzaSyBe-vaefvOwUycBlN707CRlGhsewZq-NII",52.8524326,-8.984585899999997,"6, Sandfield Gardens, Highfield Park, Lifford, Ennis, Co. Clare, Ireland",,ROOFTOP,Mid-West,16032,Ennis Rural,0.1366999159945671,1.591506932160328
12/05/2010,"Rhynagonaught, Doonebeg",Clare,296620.0,No,Second-Hand Dwelling house /Apartment,,ChIJ2d-nfUnhWkgRoIAxl6nHAAo,"https://maps.googleapis.com/maps/api/geocode/json?address=Rhynagonaught,+Doonebeg,+Clare,+Ireland&key=AIzaSyBe-vaefvOwUycBlN707CRlGhsewZq-NII",52.73085010000001,-9.5259951,"Doonbeg, Co. Clare, Ireland",,APPROXIMATE,Mid-West,16082,Doonbeg,0.027762440587278205,38.945103335721114
13/05/2010,"19 Sli An Fearghas, Clarecastle",Clare,163000.0,Yes,New Dwelling house /Apartment,greater than or equal to 38 sq metres and less than 125 sq metres,ChIJ1_fxkMpsW0gRUPsxl6nHAAo,"https://maps.googleapis.com/maps/api/geocode/json?address=19+Sli+An+Fearghas,+Clarecastle,+Clare,+Ireland&key=AIzaSyBe-vaefvOwUycBlN707CRlGhsewZq-NII",52.81473760000001,-8.9642515,"Clare Commons, Clarecastle, Co. Clare, Ireland",,APPROXIMATE,Mid-West,16026,Clareabbey,0.021428757048047867,2.8000789594977387
14/05/2010,"83 Inis Chlair, Kildysart Road, Clarecastle",Clare,143000.0,No,Second-Hand Dwelling house /Apartment,,ChIJk5pXcTQTW0gRWZzMQML2SJg,"https://maps.googleapis.com/maps/api/geocode/json?address=83+Inis+Chlair,+Kildysart+Road,+Clarecastle,+Clare,+Ireland&key=AIzaSyBe-vaefvOwUycBlN707CRlGhsewZq-NII",52.8187089,-8.981066499999997,"83 Inis Cláir, Kildysart Rd, Ballaghafadda East, Ennis, Co. Clare, V95 RDY0, Ireland",V95 RDY0,ROOFTOP,Mid-West,16026,Clareabbey,0.32600711589679954,2.2970748975943582
14/05/2010,"Inch House, Inch, Ennis",Clare,125000.0,No,Second-Hand Dwelling house /Apartment,,ChIJi4qfyrUTW0gRdHmKjb2PmNs,"https://maps.googleapis.com/maps/api/geocode/json?address=Inch+House,+Inch,+Ennis,+Clare,+Ireland&key=AIzaSyBe-vaefvOwUycBlN707CRlGhsewZq-NII",52.8250686,-9.0616866,"Inch, Ennis, Co. Clare, Ireland",,GEOMETRIC_CENTER,Mid-West,16035,Killanniv,0.3637368077451844,6.0014491647463135
15/05/2010,"Enagh North, Kilkishen",Clare,232000.0,No,Second-Hand Dwelling house /Apartment,,ChIJYUQdgpVoW0gRRAVZhxW83vE,"https://maps.googleapis.com/maps/api/geocode/json?address=Enagh+North,+Kilkishen,+Clare,+Ireland&key=AIzaSyBe-vaefvOwUycBlN707CRlGhsewZq-NII",52.7876843,-8.758069800000001,"Enagh North, Co. Clare, Ireland",,APPROXIMATE,Mid-West,16144,Kilkishen,0.9236757358206316,5.807620299322995
18/05/2010,"36 Derrymore, Knockaderry, Tulla Road, Ennis",Clare,176211.45,Yes,New Dwelling house /Apartment,greater than or equal to 38 sq metres and less than 125 sq metres,EkRLbm9ja2FkZXJyeSBHcm92ZSAmIFR1bGxhIFJkLCBLbm9ja2Fub3VyYSwgRW5uaXMsIENvLiBDbGFyZSwgSXJlbGFuZCJmImQKFAoSCReRoi8_bVtIET3Aq4nAcM-XEhQKEgkXkaIvP21bSBE9wKuJwHDPlxoUChIJ_aPNcT9tW0gR6RiAKF747JoaFAoSCfmtz0IUbVtIET8B9R1x_sEgIgoNSSuBHxWi7qf6,"https://maps.googleapis.com/maps/api/geocode/json?address=36+Derrymore,+Knockaderry,+Tulla+Road,+Ennis,+Clare,+Ireland&key=AIzaSyBe-vaefvOwUycBlN707CRlGhsewZq-NII",52.8558921,-8.965769400000003,"Knockaderry Grove & Tulla Rd, Knockanoura, Ennis, Co. Clare, Ireland",,GEOMETRIC_CENTER,Mid-West,16032,Ennis Rural,0.3064702253154952,1.9622176117431671
20/05/2010,"13 Dun On Oir, Shannon",Clare,210000.0,No,Second-Hand Dwelling house /Apartment,,ChIJg864Ey5AW0gRZzYNaadDBI0,"https://maps.googleapis.com/maps/api/geocode/json?address=13+Dun+On+Oir,+Shannon,+Clare,+Ireland&key=AIzaSyBe-vaefvOwUycBlN707CRlGhsewZq-NII",52.70306899999999,-8.8890008,"13 Dun An Oir, Tullyglass, Shannon, Co. Clare, V14 D398, Ireland",V14 D398,ROOFTOP,Mid-West,16027,Clenagh,0.17144408908960593,8.073682513789972
20/05/2010,"2 Ballyellery Cottages, Liscanor",Clare,295000.0,No,Second-Hand Dwelling house /Apartment,,ChIJ9b2sb7AGW0gRRZQTooF-U-0,"https://maps.googleapis.com/maps/api/geocode/json?address=2+Ballyellery+Cottages,+Liscanor,+Clare,+Ireland&key=AIzaSyBe-vaefvOwUycBlN707CRlGhsewZq-NII",52.9486476,-9.3557837,"2 Ballyellery Cottages, Ballyellery, Lahinch, Co. Clare, V95 V6W7, Ireland",V95 V6W7,ROOFTOP,Mid-West,16060,Liscannor,1.7907464687658825,28.27254693517333
21/05/2010,"23 Atlantic View, Castlefield, Kilkee",Clare,110000.0,No,Second-Hand Dwelling house /Apartment,,ChIJ7bYOUG_oWkgRB7bocxlv2-I,"https://maps.googleapis.com/maps/api/geocode/json?address=23+Atlantic+View,+Castlefield,+Kilkee,+Clare,+Ireland&key=AIzaSyBe-vaefvOwUycBlN707CRlGhsewZq-NII",52.684798,-9.6492334,"Atlantic View, Dough, Co. Clare, Ireland",,GEOMETRIC_CENTER,Mid-West,16088,Kilkee,0.4376411795618332,48.49111708880265
21/05/2010,"Dromoland, Newmarket On Fergus",Clare,115000.0,No,Second-Hand Dwelling house /Apartment,,ChIJ748FdHFrW0gRuGSaV5OTUFM,"https://maps.googleapis.com/maps/api/geocode/json?address=Dromoland,+Newmarket+On+Fergus,+Clare,+Ireland&key=AIzaSyBe-vaefvOwUycBlN707CRlGhsewZq-NII",52.78304839999999,-8.905636399999997,"Dromoland, Newmarket on Fergus, Co. Clare, V95 ATD3, Ireland",V95 ATD3,GEOMETRIC_CENTER,Mid-West,16040,Newmarket,0.9527413388877726,7.783582065167684
24/05/2010,"18 Pine Grove, Ennis",Clare,170000.0,No,Second-Hand Dwelling house /Apartment,,ChIJeaLVmkptW0gRltcmiJ1NEm0,"https://maps.googleapis.com/maps/api/geocode/json?address=18+Pine+Grove,+Ennis,+Clare,+Ireland&key=AIzaSyBe-vaefvOwUycBlN707CRlGhsewZq-NII",52.85703480000001,-8.985977400000003,"18 Pine Grove, Dulick, Ennis, Co. Clare, V95 FC1Y, Ireland",V95 FC1Y,ROOFTOP,Mid-West,16032,Ennis Rural,0.6399646881939315,2.1029982421790097
24/05/2010,"22 Anagh Dun, Inagh",Clare,170000.0,No,Second-Hand Dwelling house /Apartment,,ChIJJ1keJM4PW0gRFkTT3Hn9T9Q,"https://maps.googleapis.com/maps/api/geocode/json?address=22+Anagh+Dun,+Inagh,+Clare,+Ireland&key=AIzaSyBe-vaefvOwUycBlN707CRlGhsewZq-NII",52.8744823,-9.1785534,"22 Annaghdún, Carrowkeel East, Inagh, Co. Clare, V95 WF70, Ireland",V95 WF70,ROOFTOP,Mid-West,16048,Ballyea,0.4064618742857829,14.189998800795006
24/05/2010,"37 Atlantic View, Castlefield, West End Kilkee",Clare,125000.0,No,Second-Hand Dwelling house /Apartment,,ChIJ7bYOUG_oWkgRB7bocxlv2-I,"https://maps.googleapis.com/maps/api/geocode/json?address=37+Atlantic+View,+Castlefield,+West+End+Kilkee,+Clare,+Ireland&key=AIzaSyBe-vaefvOwUycBlN707CRlGhsewZq-NII",52.684798,-9.6492334,"Atlantic View, Dough, Co. Clare, Ireland",,GEOMETRIC_CENTER,Mid-West,16088,Kilkee,0.4376411795618332,48.49111708880265
24/05/2010,"68 Woodhaven, Kilrush Road, Ennis",Clare,187000.0,No,Second-Hand Dwelling house /Apartment,,Eic2OCBXb29kaGF2ZW4sIEVubmlzLCBDby4gQ2xhcmUsIElyZWxhbmQiGhIYChQKEgn5YGe4JxNbSBE3Hd8Ziua1ZhBE,"https://maps.googleapis.com/maps/api/geocode/json?address=68+Woodhaven,+Kilrush+Road,+Ennis,+Clare,+Ireland&key=AIzaSyBe-vaefvOwUycBlN707CRlGhsewZq-NII",52.832455,-8.9966882,"68 Woodhaven, Drumbiggil, Ennis, Co. Clare, Ireland",,RANGE_INTERPOLATED,Mid-West,16032,Ennis Rural,0.4454384140931153,1.6089797634770715
27/05/2010,"15 Primrose Gardens, Clarecastle",Clare,110000.0,No,Second-Hand Dwelling house /Apartment,,ChIJBRgWU7RsW0gRHdSEy4YDit0,"https://maps.googleapis.com/maps/api/geocode/json?address=15+Primrose+Gardens,+Clarecastle,+Clare,+Ireland&key=AIzaSyBe-vaefvOwUycBlN707CRlGhsewZq-NII",52.8117718,-8.969618800000003,"15 Primrose Gardens, Clarehill, Ennis, Co. Clare, V95 X8EP, Ireland",V95 X8EP,ROOFTOP,Mid-West,16026,Clareabbey,0.38688139727377796,3.056104137545098
27/05/2010,"77 Bruach Na Habhainn, Quin Road, Ennis",Clare,195000.0,No,Second-Hand Dwelling house /Apartment,,Eio3NyBCcnVhY2ggTmEgaCdBYmhhaW5uLCBDby4gQ2xhcmUsIElyZWxhbmQiGhIYChQKEglzKlBoJ21bSBE11zZ7vcHIphBN,"https://maps.googleapis.com/maps/api/geocode/json?address=77+Bruach+Na+Habhainn,+Quin+Road,+Ennis,+Clare,+Ireland&key=AIzaSyBe-vaefvOwUycBlN707CRlGhsewZq-NII",52.837429,-8.9623987,"77 Bruach Na h'Abhainn, Bunnow, Co. Clare, Ireland",,RANGE_INTERPOLATED,Mid-West,16032,Ennis Rural,0.9116130784026976,0.86930864445998
28/05/2010,"10 Parklands, Ballyalla, Ennis",Clare,467500.0,No,Second-Hand Dwelling house /Apartment,,ChIJF6aitp9yW0gRlYWom38Rsss,"https://maps.googleapis.com/maps/api/geocode/json?address=10+Parklands,+Ballyalla,+Ennis,+Clare,+Ireland&key=AIzaSyBe-vaefvOwUycBlN707CRlGhsewZq-NII",52.8813743,-8.964525,"10, Parklands, Ennis, Co. Clare, V95 P9W4, Ireland",V95 P9W4,ROOFTOP,Mid-West,16043,Templemaley,1.4267034184027847,4.746722758262634
28/05/2010,"15 Moore Bay, Kilkee",Clare,158000.0,No,Second-Hand Dwelling house /Apartment,,Ei4xNSBNb29yZSBCYXkgSG9saWRheSBIb21lcywgQ28uIENsYXJlLCBJcmVsYW5kIhoSGAoUChIJn1JjNz7oWkgRr4nGLpkOEgIQDw,"https://maps.googleapis.com/maps/api/geocode/json?address=15+Moore+Bay,+Kilkee,+Clare,+Ireland&key=AIzaSyBe-vaefvOwUycBlN707CRlGhsewZq-NII",52.6712386,-9.6539557,"15 Moore Bay Holiday Homes, Kilkee Lower, Co. Clare, Ireland",,RANGE_INTERPOLATED,Mid-West,16087,Kilfearagh,0.7575427049238067,49.34621555262165
28/05/2010,"28 Pella Road, Kilrush",Clare,33000.0,No,Second-Hand Dwelling house /Apartment,,ChIJhYvrInbeWkgRONbqADk3NbA,"https://maps.googleapis.com/maps/api/geocode/json?address=28+Pella+Road,+Kilrush,+Clare,+Ireland&key=AIzaSyBe-vaefvOwUycBlN707CRlGhsewZq-NII",52.63709859999999,-9.4945389,"28 Pella Rd, Drimna, Kilrush, Co. Clare, V15 YW10, Ireland",V15 YW10,ROOFTOP,Mid-West,16005,Kilrush Urban,0.4783948991647231,41.557375897127685
28/05/2010,"8 Ocen View, Kilkee",Clare,153065.0,No,Second-Hand Dwelling house /Apartment,,ChIJWWpzX2_oWkgRb49ffl9B7j0,"https://maps.googleapis.com/maps/api/geocode/json?address=8+Ocen+View,+Kilkee,+Clare,+Ireland&key=AIzaSyBe-vaefvOwUycBlN707CRlGhsewZq-NII",52.685247200000006,-9.6489631,"8 Ocean-View, Golf Links Rd, Dough, Kilkee, Co. Clare, V15 W652, Ireland",V15 W652,ROOFTOP,Mid-West,16088,Kilkee,0.4696907213718362,48.456204061273105
28/05/2010,"Carrowmanagh, Kilshanny",Clare,70000.0,No,Second-Hand Dwelling house /Apartment,,ChIJTd_VKQ8HW0gR075O5OQllOQ,"https://maps.googleapis.com/maps/api/geocode/json?address=Carrowmanagh,+Kilshanny,+Clare,+Ireland&key=AIzaSyBe-vaefvOwUycBlN707CRlGhsewZq-NII",52.9935598,-9.3351016,"Carrowmanagh North, Co. Clare, Ireland",,APPROXIMATE,Mid-West,16059,Kilshanny,2.2976964829654083,29.603966638805517
28/05/2010,"High Street, Kilrush",Clare,50000.0,No,Second-Hand Dwelling house /Apartment,,ChIJgZPEAm7eWkgRIBRc0SaTtTw,"https://maps.googleapis.com/maps/api/geocode/json?address=High+Street,+Kilrush,+Clare,+Ireland&key=AIzaSyBe-vaefvOwUycBlN707CRlGhsewZq-NII",52.6392736,-9.4811365,"Kilrush, Co. Clare, Ireland",,GEOMETRIC_CENTER,Mid-West,16005,Kilrush Urban,0.2454647680197521,40.66755388541602
28/05/2010,"Market Street, Corofin",Clare,53625.0,No,Second-Hand Dwelling house /Apartment,,ChIJ9W6ci44MW0gRwPUxl6nHAAo,"https://maps.googleapis.com/maps/api/geocode/json?address=Market+Street,+Corofin,+Clare,+Ireland&key=AIzaSyBe-vaefvOwUycBlN707CRlGhsewZq-NII",52.9448216,-9.064087400000002,"Laghtagoona, Corofin, Co. Clare, Ireland",,APPROXIMATE,Mid-West,16019,Corrofin,0.025029970386677047,13.164883431307194
31/05/2010,"17  Atlantic View, Castlefields, Kilkee",Clare,149000.0,No,Second-Hand Dwelling house /Apartment,,ChIJ7bYOUG_oWkgRB7bocxlv2-I,"https://maps.googleapis.com/maps/api/geocode/json?address=17+Atlantic+View,+Castlefields,+Kilkee,+Clare,+Ireland&key=AIzaSyBe-vaefvOwUycBlN707CRlGhsewZq-NII",52.684798,-9.6492334,"Atlantic View, Dough, Co. Clare, Ireland",,GEOMETRIC_CENTER,Mid-West,16088,Kilkee,0.4376411795618332,48.49111708880265
31/05/2010,"17 Westfields, Limerick Rd, Ennis",Clare,223000.0,No,Second-Hand Dwelling house /Apartment,,ChIJ79V7GtNsW0gRo-8VCfkPaP8,"https://maps.googleapis.com/maps/api/geocode/json?address=17+Westfields,+Limerick+Rd,+Ennis,+Clare,+Ireland&key=AIzaSyBe-vaefvOwUycBlN707CRlGhsewZq-NII",52.8281573,-8.976769899999997,"17 Limerick Rd, Westfields, Clareabbey, Ennis, Co. Clare, V95 A2RK, Ireland",V95 A2RK,ROOFTOP,Mid-West,16032,Ennis Rural,0.17912048489851545,1.217092693472387
31/05/2010,"Boulaveg, Drummin, Miltown Malbay",Clare,93000.0,No,Second-Hand Dwelling house /Apartment,,ChIJx4Gh2QgcW0gRwMlqZnWbTRU,"https://maps.googleapis.com/maps/api/geocode/json?address=Boulaveg,+Drummin,+Miltown+Malbay,+Clare,+Ireland&key=AIzaSyBe-vaefvOwUycBlN707CRlGhsewZq-NII",52.77923999999999,-9.31759,"Drummin, Boulaveg, Co. Clare, Ireland",,APPROXIMATE,Mid-West,16095,Knocknaboley,2.294593483259593,23.948145368982715
02/06/2010,"6 Woodview, Shanaway Road, Ennis",Clare,200000.0,No,Second-Hand Dwelling house /Apartment,,EiU2IFdvb2R2aWV3LCBFbm5pcywgQ28uIENsYXJlLCBJcmVsYW5kIhoSGAoUChIJ0yrsFcESW0gRwxePyMzpuL4QBg,"https://maps.googleapis.com/maps/api/geocode/json?address=6+Woodview,+Shanaway+Road,+Ennis,+Clare,+Ireland&key=AIzaSyBe-vaefvOwUycBlN707CRlGhsewZq-NII",52.8509634,-9.010325800000002,"6 Woodview, Claureen, Ennis, Co. Clare, Ireland",,RANGE_INTERPOLATED,Mid-West,16032,Ennis Rural,0.27892011689964696,2.679418633741232
02/06/2010,"Loughborough, O'Callaghans Mills",Clare,170000.0,No,Second-Hand Dwelling house /Apartment,,ChIJmZpfsU5kW0gRQBUyl6nHAAo,"https://maps.googleapis.com/maps/api/geocode/json?address=Loughborough,+O'Callaghans+Mills,+Clare,+Ireland&key=AIzaSyBe-vaefvOwUycBlN707CRlGhsewZq-NII",52.84217320000001,-8.686002199999999,"Foxandgeese, O'Callaghansmills, Co. Clare, Ireland",,APPROXIMATE,Mid-West,16146,Killuran,0.03690264120361307,13.334591622994655
03/06/2010,"10 /Inis Chlair, Kildysart Road, Ennis",Clare,70000.0,Yes,New Dwelling house /Apartment,greater than or equal to 38 sq metres and less than 125 sq metres,ChIJL85geDQTW0gRpCeBWz4Y3Fo,"https://maps.googleapis.com/maps/api/geocode/json?address=10+/Inis+Chlair,+Kildysart+Road,+Ennis,+Clare,+Ireland&key=AIzaSyBe-vaefvOwUycBlN707CRlGhsewZq-NII",52.8190493,-8.9805359,"Inis Cláir, Kildysart Rd, Ballaghafadda East, Ennis, Co. Clare, Ireland",,ROOFTOP,Mid-West,16026,Clareabbey,0.27399741525780497,2.254007028089872
04/06/2010,"5 Moyglass, Crusheen, Ennis",Clare,145000.0,No,Second-Hand Dwelling house /Apartment,,ChIJuwO2-9dzW0gRAZmI4cB3rls,"https://maps.googleapis.com/maps/api/geocode/json?address=5+Moyglass,+Crusheen,+Ennis,+Clare,+Ireland&key=AIzaSyBe-vaefvOwUycBlN707CRlGhsewZq-NII",52.9383369,-8.8998034,"5, Moyglass, Crusheen, Co. Clare, V95 VX71, Ireland",V95 VX71,ROOFTOP,Mid-West,16028,Crusheen,0.052644800674064726,12.132251892236733
04/06/2010,"52 Ivy Hill, Gort Road, Ennis",Clare,190000.0,No,Second-Hand Dwelling house /Apartment,,ChIJcf2CODZtW0gRX8xwcrhD7eM,"https://maps.googleapis.com/maps/api/geocode/json?address=52+Ivy+Hill,+Gort+Road,+Ennis,+Clare,+Ireland&key=AIzaSyBe-vaefvOwUycBlN707CRlGhsewZq-NII",52.8557472,-8.9785562,"52 Ivy Hill, Dulick, Ennis, Co. Clare, V95 Y66V, Ireland",V95 Y66V,ROOFTOP,Mid-West,16032,Ennis Rural,0.5235857871714369,1.8500040131295925
07/06/2010,"Ballinacarragh, Kilfenora",Clare,90000.0,No,Second-Hand Dwelling house /Apartment,,ChIJe65zF1YIW0gR4Owxl6nHAAo,"https://maps.googleapis.com/maps/api/geocode/json?address=Ballinacarragh,+Kilfenora,+Clare,+Ireland&key=AIzaSyBe-vaefvOwUycBlN707CRlGhsewZq-NII",52.9899429,-9.218327,"Creggaun, Kilfenora, Co. Clare, Ireland",,APPROXIMATE,Mid-West,16056,Kilfenora,0.04771589498746561,23.373586146161145
09/06/2010,"179 Acha Bhile, Loughville, Ennis",Clare,121000.0,Yes,New Dwelling house /Apartment,greater than or equal to 38 sq metres and less than 125 sq metres,ChIJEXJMuL4SW0gRrIBJx9bITfQ,"https://maps.googleapis.com/maps/api/geocode/json?address=179+Acha+Bhile,+Loughville,+Ennis,+Clare,+Ireland&key=AIzaSyBe-vaefvOwUycBlN707CRlGhsewZq-NII",52.8587411,-9.012063699999999,"Acha Bhile, Lahinch Rd, Loughvella, Ennis, Co. Clare, Ireland",,ROOFTOP,Mid-West,16032,Ennis Rural,0.7803578095629998,3.278267767399224
09/06/2010,"44 The Hawthorns, Limerick Road, Ennis",Clare,143000.0,No,Second-Hand Dwelling house /Apartment,,ChIJ3U2T9SwTW0gRdksettiHGyQ,"https://maps.googleapis.com/maps/api/geocode/json?address=44+The+Hawthorns,+Limerick+Road,+Ennis,+Clare,+Ireland&key=AIzaSyBe-vaefvOwUycBlN707CRlGhsewZq-NII",52.8281571,-8.982739700000002,"44 Limerick Road, The Hawthorns, Clonroad More, Ennis, Co. Clare, V95 R9K8, Ireland",V95 R9K8,ROOFTOP,Mid-West,16032,Ennis Rural,0.32019164339781664,1.3107447446608214
11/06/2010,"2 Westbourne Court, Watery Road, Ennis",Clare,132158.0,Yes,New Dwelling house /Apartment,greater than or equal to 38 sq metres and less than 125 sq metres,ChIJq1vQsMwSW0gR2bde0e8oL10,"https://maps.googleapis.com/maps/api/geocode/json?address=2+Westbourne+Court,+Watery+Road,+Ennis,+Clare,+Ireland&key=AIzaSyBe-vaefvOwUycBlN707CRlGhsewZq-NII",52.85005570000001,-8.987112999999997,"2 Watery Rd, Westbourne, Lifford, Ennis, Co. Clare, V95 WDW6, Ireland",V95 WDW6,ROOFTOP,Mid-West,16032,Ennis Rural,0.1966718461314777,1.4358090939055368
11/06/2010,"3 Manor View, Quin",Clare,201600.0,No,Second-Hand Dwelling house /Apartment,,ChIJ_1XyFRlsW0gR-bjRAzZX4l0,"https://maps.googleapis.com/maps/api/geocode/json?address=3+Manor+View,+Quin,+Clare,+Ireland&key=AIzaSyBe-vaefvOwUycBlN707CRlGhsewZq-NII",52.81836750000001,-8.869275799999997,"3 Manor View, Quinville South, Quin, Co. Clare, V95 C529, Ireland",V95 C529,ROOFTOP,Mid-West,16151,Quin,0.30435605015863154,7.471890705298946
11/06/2010,"88 Abbey Court, Limerick Road, Ennis",Clare,172500.0,No,Second-Hand Dwelling house /Apartment,,EiY4OCBBYmJleSBDdCwgRW5uaXMsIENvLiBDbGFyZSwgSXJlbGFuZCIaEhgKFAoSCd1Oe2PUbFtIEfDS_UuMoBbdEFg,"https://maps.googleapis.com/maps/api/geocode/json?address=88+Abbey+Court,+Limerick+Road,+Ennis,+Clare,+Ireland&key=AIzaSyBe-vaefvOwUycBlN707CRlGhsewZq-NII",52.8312123,-8.976239199999998,"88 Abbey Ct, Clonroad More, Ennis, Co. Clare, Ireland",,RANGE_INTERPOLATED,Mid-West,16032,Ennis Rural,0.28973783072771914,0.8754417264852625
14/06/2010,"Rhynagonnaught, Doonbeg",Clare,135000.0,No,Second-Hand Dwelling house /Apartment,,ChIJ2d-nfUnhWkgRoIAxl6nHAAo,"https://maps.googleapis.com/maps/api/geocode/json?address=Rhynagonnaught,+Doonbeg,+Clare,+Ireland&key=AIzaSyBe-vaefvOwUycBlN707CRlGhsewZq-NII",52.73085010000001,-9.5259951,"Doonbeg, Co. Clare, Ireland",,APPROXIMATE,Mid-West,16082,Doonbeg,0.027762440587278205,38.945103335721114
16/06/2010,"Lahardan, Crusheen",Clare,45000.0,No,Second-Hand Dwelling house /Apartment,,ChIJc3G6RsBzW0gRYRF3TUVCcts,"https://maps.googleapis.com/maps/api/geocode/json?address=Lahardan,+Crusheen,+Clare,+Ireland&key=AIzaSyBe-vaefvOwUycBlN707CRlGhsewZq-NII",52.9444251,-8.9291536,"Lahardan, Co. Clare, Ireland",,APPROXIMATE,Mid-West,16028,Crusheen,2.130770967655628,12.106148984534187
17/06/2010,"17 Clonlea, Shanballa, Lahinch Road Ennis",Clare,230000.0,No,Second-Hand Dwelling house /Apartment,,ChIJKTzFrMESW0gRVDa_P-CR9Fc,"https://maps.googleapis.com/maps/api/geocode/json?address=17+Clonlea,+Shanballa,+Lahinch+Road+Ennis,+Clare,+Ireland&key=AIzaSyBe-vaefvOwUycBlN707CRlGhsewZq-NII",52.851717,-9.012943199999999,"17 Clonlea, Shanaballa, Ennis, Co. Clare, V95 H9X8, Ireland",V95 H9X8,ROOFTOP,Mid-West,16032,Ennis Rural,0.40940601471365945,2.873815620500088
17/06/2010,"68 Laghtagoona, Corofin",Clare,150000.0,No,Second-Hand Dwelling house /Apartment,,ChIJE2qwWoUMW0gRMANYVPf8suI,"https://maps.googleapis.com/maps/api/geocode/json?address=68+Laghtagoona,+Corofin,+Clare,+Ireland&key=AIzaSyBe-vaefvOwUycBlN707CRlGhsewZq-NII",52.9485619,-9.0634949,"68A, Laghtagoona, Corofin, Co. Clare, V95 K063, Ireland",V95 K063,ROOFTOP,Mid-West,16019,Corrofin,0.3333368143790284,13.519867397243214
17/06/2010,"8 Cnoc Na Caoithne, Quin",Clare,252500.0,No,Second-Hand Dwelling house /Apartment,,ChIJu-hWkB1sW0gRjcHcf-H7Zy4,"https://maps.googleapis.com/maps/api/geocode/json?address=8+Cnoc+Na+Caoithne,+Quin,+Clare,+Ireland&key=AIzaSyBe-vaefvOwUycBlN707CRlGhsewZq-NII",52.8155139,-8.8603882,"8 Cnoc Na Caithne, Quin, Co. Clare, V95 RT26, Ireland",V95 RT26,ROOFTOP,Mid-West,16151,Quin,0.12459710904742632,8.138989529420739
18/06/2010,"No 2 The Fairways, Golf Course Road, Kilkee",Clare,200000.0,No,Second-Hand Dwelling house /Apartment,,ChIJlzAejWvoWkgR0J0xl6nHAAo,"https://maps.googleapis.com/maps/api/geocode/json?address=No+2+The+Fairways,+Golf+Course+Road,+Kilkee,+Clare,+Ireland&key=AIzaSyBe-vaefvOwUycBlN707CRlGhsewZq-NII",52.6828228,-9.6444116,"Dough, Kilkee, Co. Clare, Ireland",,APPROXIMATE,Mid-West,16088,Kilkee,0.15304398701233032,48.267450269440495
22/06/2010,"Annagh, Miltown Malbah",Clare,253000.0,No,Second-Hand Dwelling house /Apartment,,ChIJVfw5vjgdW0gRrSB986j0cuw,"https://maps.googleapis.com/maps/api/geocode/json?address=Annagh,+Miltown+Malbah,+Clare,+Ireland&key=AIzaSyBe-vaefvOwUycBlN707CRlGhsewZq-NII",52.82742469999999,-9.3541221,"Annagh River, Co. Clare, Ireland",,APPROXIMATE,Mid-West,16046,Annagh,1.6646741257371478,25.476091166036177
22/06/2010,"Rylane, Crusheen",Clare,65000.0,No,Second-Hand Dwelling house /Apartment,,ChIJIwsAdddxW0gRpSrRlDvTUz0,"https://maps.googleapis.com/maps/api/geocode/json?address=Rylane,+Crusheen,+Clare,+Ireland&key=AIzaSyBe-vaefvOwUycBlN707CRlGhsewZq-NII",52.892895,-8.841741200000003,"Rylane, Crowhill, Co. Clare, Ireland",,APPROXIMATE,Mid-West,16152,Rathclooney,3.6936743465613993,10.765325884394755
23/06/2010,"47 Moyard, Shanballa  Lahinch Road, Ennis",Clare,204200.0,Yes,New Dwelling house /Apartment,greater than or equal to 38 sq metres and less than 125 sq metres,ChIJz1xUv8ESW0gRG9d56Evc3cI,"https://maps.googleapis.com/maps/api/geocode/json?address=47+Moyard,+Shanballa+Lahinch+Road,+Ennis,+Clare,+Ireland&key=AIzaSyBe-vaefvOwUycBlN707CRlGhsewZq-NII",52.85067610000001,-9.0137766,"47 Moyard, Shanaballa, Ennis, Co. Clare, V95 C7P6, Ireland",V95 C7P6,ROOFTOP,Mid-West,16032,Ennis Rural,0.4976408977686712,2.869703695650731
23/06/2010,"7 Radarch An Locha, Mountshannon",Clare,240000.0,Yes,New Dwelling house /Apartment,greater than 125 sq metres,ChIJ2ducR6aEXEgREJwxl6nHAAo,"https://maps.googleapis.com/maps/api/geocode/json?address=7+Radarch+An+Locha,+Mountshannon,+Clare,+Ireland&key=AIzaSyBe-vaefvOwUycBlN707CRlGhsewZq-NII",52.931724,-8.429834399999999,"Dooros, Mountshannon, Co. Clare, Ireland",,APPROXIMATE,Mid-West,16135,Mountshannon,0.02604484937347897,32.09472294042754
23/06/2010,"8 Marian Avenue, Ennis",Clare,110000.0,No,Second-Hand Dwelling house /Apartment,,ChIJAxig_zJtW0gRIdnGNeJ1CXw,"https://maps.googleapis.com/maps/api/geocode/json?address=8+Marian+Avenue,+Ennis,+Clare,+Ireland&key=AIzaSyBe-vaefvOwUycBlN707CRlGhsewZq-NII",52.84852919999999,-8.9823772,"8 Marian Ave, Lifford, Ennis, Co. Clare, V95 EFW5, Ireland",V95 EFW5,ROOFTOP,Mid-West,16001,Ennis No. 1 Urban,0.06912020421444832,1.1340107242727986
23/06/2010,"Ballycrighan, Quin",Clare,265000.0,No,Second-Hand Dwelling house /Apartment,,ChIJMwwVPsVtW0gRYoxNu6fHACY,"https://maps.googleapis.com/maps/api/geocode/json?address=Ballycrighan,+Quin,+Clare,+Ireland&key=AIzaSyBe-vaefvOwUycBlN707CRlGhsewZq-NII",52.855022,-8.8870284,"Ballycrighan, Co. Clare, Ireland",,APPROXIMATE,Mid-West,16042,Spancelhill,1.6002586125392841,6.173486958401478
24/06/2010,"7 Bay View, Lahinch",Clare,280000.0,No,Second-Hand Dwelling house /Apartment,,ChIJDWOWIhAEW0gRhwEyC2IJNiQ,"https://maps.googleapis.com/maps/api/geocode/json?address=7+Bay+View,+Lahinch,+Clare,+Ireland&key=AIzaSyBe-vaefvOwUycBlN707CRlGhsewZq-NII",52.9245221,-9.3456261,"7 Bay View, Crag, Lahinch, Co. Clare, V95 XW30, Ireland",V95 XW30,ROOFTOP,Mid-West,16064,Moy,0.7646470280645771,26.593856024285145
25/06/2010,"11  Georges Head, Kilkee",Clare,265000.0,No,Second-Hand Dwelling house /Apartment,,ChIJLda5CWboWkgRhPZ7aKSqKaE,"https://maps.googleapis.com/maps/api/geocode/json?address=11+Georges+Head,+Kilkee,+Clare,+Ireland&key=AIzaSyBe-vaefvOwUycBlN707CRlGhsewZq-NII",52.6860525,-9.6509253,"Sea Spray, 11 George's Head, Golf Links Rd, Dough, Kilkee, Co. Clare, V15 T992, Ireland",V15 T992,ROOFTOP,Mid-West,16088,Kilkee,0.6176198324457521,48.54787421077501
25/06/2010,"119  122 And 123 Dun Na Hinse, Claureen, Ennis",Clare,515000.0,No,Second-Hand Dwelling house /Apartment,,ChIJkYaxgc8SW0gRzGITZMNQ9rY,"https://maps.googleapis.com/maps/api/geocode/json?address=119+122+And+123+Dun+Na+Hinse,+Claureen,+Ennis,+Clare,+Ireland&key=AIzaSyBe-vaefvOwUycBlN707CRlGhsewZq-NII",52.8472544,-8.999717,"123 Dun Na Hinse, Lahinch Rd, Cloughleigh, Ennis, Co. Clare, V95 F5P8, Ireland",V95 F5P8,ROOFTOP,Mid-West,16032,Ennis Rural,0.7545605868592594,1.8561309645997144
25/06/2010,"2 Ard Ratha, Sixmilebridge",Clare,275000.0,Yes,New Dwelling house /Apartment,greater than 125 sq metres,ChIJu2ufxkhoW0gRmQ_86lFse98,"https://maps.googleapis.com/maps/api/geocode/json?address=2+Ard+Ratha,+Sixmilebridge,+Clare,+Ireland&key=AIzaSyBe-vaefvOwUycBlN707CRlGhsewZq-NII",52.7478746,-8.767574900000001,"2 Ard Ratha, Mountievers, Sixmilebridge, Co. Clare, V95 N8X8, Ireland",V95 N8X8,ROOFTOP,Mid-West,16118,Mountievers,0.7477110760272497,1.5517009596797535
25/06/2010,"9 Woodstock View, Shanaway Road, Ennis",Clare,495000.0,No,Second-Hand Dwelling house /Apartment,,ChIJo0PQC_ASW0gRNhacwdGcySc,"https://maps.googleapis.com/maps/api/geocode/json?address=9+Woodstock+View,+Shanaway+Road,+Ennis,+Clare,+Ireland&key=AIzaSyBe-vaefvOwUycBlN707CRlGhsewZq-NII",52.8426485,-9.0288834,"9 Shanaway Rd, Woodstock View, Ballylannidy, Ennis, Co. Clare, V95 EF6X, Ireland",V95 EF6X,ROOFTOP,Mid-West,16032,Ennis Rural,1.831164146295057,3.606586175919405
28/06/2010,"21 The Maples, Oakleigh Woods, Ennis",Clare,210000.0,No,Second-Hand Dwelling house /Apartment,,ChIJX76N-kBtW0gRwTgM2B7esx8,"https://maps.googleapis.com/maps/api/geocode/json?address=21+The+Maples,+Oakleigh+Woods,+Ennis,+Clare,+Ireland&key=AIzaSyBe-vaefvOwUycBlN707CRlGhsewZq-NII",52.8602085,-8.965064199999997,"21 Oakleigh Wood, The Maples, Knockaderry, Ennis, Co. Clare, V95 YY2C, Ireland",V95 YY2C,ROOFTOP,Mid-West,16032,Ennis Rural,0.5492810992107091,2.4347091146372057
29/06/2010,"3 Cluain Ard, Kilmaley",Clare,145000.0,No,Second-Hand Dwelling house /Apartment,,ChIJaYxy2J0RW0gRSFY_Kw_zlF4,"https://maps.googleapis.com/maps/api/geocode/json?address=3+Cluain+Ard,+Kilmaley,+Clare,+Ireland&key=AIzaSyBe-vaefvOwUycBlN707CRlGhsewZq-NII",52.8268316,-9.1165586,"3 Cluain Árd, Cloonlaheen, Kilmaley, Co. Clare, V95 H0C3, Ireland",V95 H0C3,ROOFTOP,Mid-West,16035,Killanniv,0.19992425576636608,9.5782151856591
30/06/2010,"46 Monin, Kilkee",Clare,147175.0,Yes,New Dwelling house /Apartment,less than 38 sq metres,ChIJPbkQpDZdW0gRUsjBuqfHACY,"https://maps.googleapis.com/maps/api/geocode/json?address=46+Monin,+Kilkee,+Clare,+Ireland&key=AIzaSyBe-vaefvOwUycBlN707CRlGhsewZq-NII",52.70302090000001,-8.700612200000002,"Moneen, Woodcock Hill, Co. Clare, Ireland",,APPROXIMATE,Mid-West,16113,Killeely,2.4009448687159387,6.764113795457059
01/07/2010,"40 Lios Ard, Tulla Road, Ennis",Clare,162000.0,No,Second-Hand Dwelling house /Apartment,,ChIJI9wDynJtW0gRwl4aSWNSDec,"https://maps.googleapis.com/maps/api/geocode/json?address=40+Lios+Ard,+Tulla+Road,+Ennis,+Clare,+Ireland&key=AIzaSyBe-vaefvOwUycBlN707CRlGhsewZq-NII",52.86010200000001,-8.944456899999997,"40 Tulla Rd, Lios Árd, Knockanean, Ennis, Co. Clare, V95 CCW4, Ireland",V95 CCW4,ROOFTOP,Mid-West,16029,Doora,0.9821640940215188,3.10732609640751
01/07/2010,"5D Moore Bay, Kilkee",Clare,125000.0,No,Second-Hand Dwelling house /Apartment,,ChIJdSKCXz7oWkgR0ddz8dkpc6Y,"https://maps.googleapis.com/maps/api/geocode/json?address=5D+Moore+Bay,+Kilkee,+Clare,+Ireland&key=AIzaSyBe-vaefvOwUycBlN707CRlGhsewZq-NII",52.6700645,-9.6560835,"5D Moore Bay Holiday Homes, Kilkee Lower, Kilkee, Co. Clare, V15 VA09, Ireland",V15 VA09,ROOFTOP,Mid-West,16087,Kilfearagh,0.934862910788318,49.528852171224344
02/07/2010,"33 The Willows, Oakleigh Wood  Tulla Road, Ennis",Clare,250000.0,No,Second-Hand Dwelling house /Apartment,,ChIJVbtwSEdtW0gRyvCpJiIpJSA,"https://maps.googleapis.com/maps/api/geocode/json?address=33+The+Willows,+Oakleigh+Wood+Tulla+Road,+Ennis,+Clare,+Ireland&key=AIzaSyBe-vaefvOwUycBlN707CRlGhsewZq-NII",52.8590787,-8.968466000000003,"33 Oakleigh Wood, The Willows, Knockaderry, Ennis, Co. Clare, V95 V1HN, Ireland",V95 V1HN,ROOFTOP,Mid-West,16032,Ennis Rural,0.6052632568861911,2.2582434468820343
02/07/2010,"42 Summercove, Lahinch",Clare,1660000.0,No,Second-Hand Dwelling house /Apartment,,ChIJx_mEZx8EW0gRXOjj-4YKgCQ,"https://maps.googleapis.com/maps/api/geocode/json?address=42+Summercove,+Lahinch,+Clare,+Ireland&key=AIzaSyBe-vaefvOwUycBlN707CRlGhsewZq-NII",52.93352700000001,-9.3355879,"42 Summercove, Lahinch, Co. Clare, V95 PP27, Ireland",V95 PP27,ROOFTOP,Mid-West,16054,Ennistimon,0.6032079548478839,26.34573486288115
02/07/2010,"58 Cregaun, Toberteascain, Ennis",Clare,132000.0,No,Second-Hand Dwelling house /Apartment,,ChIJX7wb9dVsW0gR1sWa6Ulnxjg,"https://maps.googleapis.com/maps/api/geocode/json?address=58+Cregaun,+Toberteascain,+Ennis,+Clare,+Ireland&key=AIzaSyBe-vaefvOwUycBlN707CRlGhsewZq-NII",52.83552950000001,-8.9760295,"58 Cregaún, Tobarteascáin, Ennis, Co. Clare, V95 VRA4, Ireland",V95 VRA4,ROOFTOP,Mid-West,16032,Ennis Rural,0.16995805183709226,0.3965865777208085
05/07/2010,"Ballyvella, Fanore",Clare,100000.0,No,Second-Hand Dwelling house /Apartment,,ChIJzeUW9QimW0gREte6GajHACY,"https://maps.googleapis.com/maps/api/geocode/json?address=Ballyvella,+Fanore,+Clare,+Ireland&key=AIzaSyBe-vaefvOwUycBlN707CRlGhsewZq-NII",53.10493,-9.295539999999999,"Fanore Beg, Fanore, Co. Clare, Ireland",,APPROXIMATE,Mid-West,16009,Derreen,0.3456783078213687,36.5109039828404
05/07/2010,"O'Connell Street, Kilkee",Clare,87500.0,No,Second-Hand Dwelling house /Apartment,,ChIJv1DyMmzoWkgR0_8ZU_OjqDU,"https://maps.googleapis.com/maps/api/geocode/json?address=O'Connell+Street,+Kilkee,+Clare,+Ireland&key=AIzaSyBe-vaefvOwUycBlN707CRlGhsewZq-NII",52.67951360000001,-9.6444596,"O'Connell St, Dough, Co. Clare, Ireland",,GEOMETRIC_CENTER,Mid-West,16088,Kilkee,0.1821722320223788,48.40591916546032
06/07/2010,"Ballyfaudeen, Lahinch",Clare,80000.0,No,Second-Hand Dwelling house /Apartment,,ChIJ5VwIECgEW0gREGDfN6nHABg,"https://maps.googleapis.com/maps/api/geocode/json?address=Ballyfaudeen,+Lahinch,+Clare,+Ireland&key=AIzaSyBe-vaefvOwUycBlN707CRlGhsewZq-NII",52.9334632,-9.3440769,"Lahinch, Co. Clare, Ireland",,APPROXIMATE,Mid-West,16054,Ennistimon,0.044039835138757435,26.866572727100767
08/07/2010,"1 Atlantean Cottages, Miltown Road",Clare,181000.0,No,Second-Hand Dwelling house /Apartment,,ChIJRfyPIXDoWkgR8ccPuq-Cch8,"https://maps.googleapis.com/maps/api/geocode/json?address=1+Atlantean+Cottages,+Miltown+Road,+Clare,+Ireland&key=AIzaSyBe-vaefvOwUycBlN707CRlGhsewZq-NII",52.68437729999999,-9.642525,"1 Atlantean Cottages, Bóthar Bhaile an Mhuilinn, Dough, Kilkee, Co. Clare, V15 FX27, Ireland",V15 FX27,ROOFTOP,Mid-West,16088,Kilkee,0.3665923629864079,48.0860752662249
08/07/2010,"24, Greenfield Park, Lahinch",Clare,183000.0,No,Second-Hand Dwelling house /Apartment,,ChIJuW71wyEEW0gRyDL5yTpiqO4,"https://maps.googleapis.com/maps/api/geocode/json?address=24,+Greenfield+Park,+Lahinch,+Clare,+Ireland&key=AIzaSyBe-vaefvOwUycBlN707CRlGhsewZq-NII",52.9339674,-9.3337908,"24 Greenfield Park, Lahinch, Co. Clare, V95 F862, Ireland",V95 F862,ROOFTOP,Mid-West,16054,Ennistimon,0.7210386722253467,26.25465182014243
08/07/2010,"3, Westbourne, Ennis",Clare,150000.0,No,Second-Hand Dwelling house /Apartment,,ChIJeyjvsMwSW0gRXJMmiZ8s84k,"https://maps.googleapis.com/maps/api/geocode/json?address=3,+Westbourne,+Ennis,+Clare,+Ireland&key=AIzaSyBe-vaefvOwUycBlN707CRlGhsewZq-NII",52.85012510000001,-8.987160800000002,"3 Watery Rd, Westbourne, Lifford, Ennis, Co. Clare, V95 AXY9, Ireland",V95 AXY9,ROOFTOP,Mid-West,16032,Ennis Rural,0.1951538628903305,1.4440351252578874
09/07/2010,"20B Moore Bay, Kilkee",Clare,100000.0,No,Second-Hand Dwelling house /Apartment,,ChIJeR29UT7oWkgRIUcaUFLlqZc,"https://maps.googleapis.com/maps/api/geocode/json?address=20B+Moore+Bay,+Kilkee,+Clare,+Ireland&key=AIzaSyBe-vaefvOwUycBlN707CRlGhsewZq-NII",52.6708544,-9.6556421,"20B Moore Bay Holiday Homes, Kilkee Lower, Kilkee, Co. Clare, V15 PE06, Ireland",V15 PE06,ROOFTOP,Mid-West,16087,Kilfearagh,0.8429900864199577,49.46765523389432
09/07/2010,"Clonfadda, Killaloe",Clare,257000.0,No,Second-Hand Dwelling house /Apartment,,ChIJXe7xg7OfXEgRE5IX6hprCE8,"https://maps.googleapis.com/maps/api/geocode/json?address=Clonfadda,+Killaloe,+Clare,+Ireland&key=AIzaSyBe-vaefvOwUycBlN707CRlGhsewZq-NII",52.7861296,-8.4695287,"Cloonfadda, Co. Clare, Ireland",,APPROXIMATE,Mid-West,16134,Killaloe,2.6756592359425144,21.79424898057786
12/07/2010,"4 West End Court, Kilkee",Clare,286000.0,No,Second-Hand Dwelling house /Apartment,,ChIJ7QLZBkLoWkgRW3L8LSON9EE,"https://maps.googleapis.com/maps/api/geocode/json?address=4+West+End+Court,+Kilkee,+Clare,+Ireland&key=AIzaSyBe-vaefvOwUycBlN707CRlGhsewZq-NII",52.679731200000006,-9.656122,"4, West End, Kilkee, Co. Clare, V15 H221, Ireland",V15 H221,ROOFTOP,Mid-West,16088,Kilkee,0.4782385954962618,49.12815474474947
12/07/2010,"41 Woodhaven, Kilrush Road, Ennis",Clare,185000.0,No,Second-Hand Dwelling house /Apartment,,Eic0MSBXb29kaGF2ZW4sIEVubmlzLCBDby4gQ2xhcmUsIElyZWxhbmQiGhIYChQKEgnhodYHJxNbSBGIY6tQyfwurhAp,"https://maps.googleapis.com/maps/api/geocode/json?address=41+Woodhaven,+Kilrush+Road,+Ennis,+Clare,+Ireland&key=AIzaSyBe-vaefvOwUycBlN707CRlGhsewZq-NII",52.8321032,-8.9983849,"41 Woodhaven, Drumbiggil, Ennis, Co. Clare, Ireland",,RANGE_INTERPOLATED,Mid-West,16032,Ennis Rural,0.33500627406520905,1.728350180518981
12/07/2010,"9 O'Gorman Street, Kilrush",Clare,81000.0,No,Second-Hand Dwelling house /Apartment,,ChIJRYfvEHDeWkgRkJUxl6nHAAo,"https://maps.googleapis.com/maps/api/geocode/json?address=9+O'Gorman+Street,+Kilrush,+Clare,+Ireland&key=AIzaSyBe-vaefvOwUycBlN707CRlGhsewZq-NII",52.6406999,-9.4859374,"Drimna, Kilrush, Co. Clare, Ireland",,APPROXIMATE,Mid-West,16005,Kilrush Urban,0.2478448634780041,40.85231870417157
12/07/2010,"Clonkerry, Barefield, Ennis",Clare,50000.0,No,Second-Hand Dwelling house /Apartment,,ChIJKdUz380SW0gRIHMxl6nHAAo,"https://maps.googleapis.com/maps/api/geocode/json?address=Clonkerry,+Barefield,+Ennis,+Clare,+Ireland&key=AIzaSyBe-vaefvOwUycBlN707CRlGhsewZq-NII",52.8474255,-8.988738399999997,"Ennis, Co. Clare, Ireland",,APPROXIMATE,Mid-West,16001,Ennis No. 1 Urban,0.2285259719030832,1.2743806521677796
13/07/2010,"30 Mount Ivers, Sixmilebridge",Clare,110000.0,No,Second-Hand Dwelling house /Apartment,,ChIJXeqF4UtoW0gR5qnB4a5kg8Q,"https://maps.googleapis.com/maps/api/geocode/json?address=30+Mount+Ivers,+Sixmilebridge,+Clare,+Ireland&key=AIzaSyBe-vaefvOwUycBlN707CRlGhsewZq-NII",52.7473894,-8.7725665,"30 Mount Ievers, Ieverstown, Sixmilebridge, Co. Clare, V95 WP68, Ireland",V95 WP68,ROOFTOP,Mid-West,16118,Mountievers,0.6239657765708966,1.2968527152036975
13/07/2010,"41  Beal An Inbhir, Kilrush",Clare,162000.0,No,Second-Hand Dwelling house /Apartment,,ChIJ8yKAFNndWkgRLTuCXJBn8qk,"https://maps.googleapis.com/maps/api/geocode/json?address=41+Beal+An+Inbhir,+Kilrush,+Clare,+Ireland&key=AIzaSyBe-vaefvOwUycBlN707CRlGhsewZq-NII",52.6363984,-9.500295800000002,"41 Estuary View, Drimna, Kilrush, Co. Clare, V15 E049, Ireland",V15 E049,ROOFTOP,Mid-West,16005,Kilrush Urban,0.8701927912930149,41.92612691417233
15/07/2010,"48 Inchicronan, Crusheen",Clare,170000.0,No,Second-Hand Dwelling house /Apartment,,ChIJd7__cmNxW0gRAwIc-52pOZ0,"https://maps.googleapis.com/maps/api/geocode/json?address=48+Inchicronan,+Crusheen,+Clare,+Ireland&key=AIzaSyBe-vaefvOwUycBlN707CRlGhsewZq-NII",52.9413217,-8.8944485,"48 Inchicronan, Drummanneen, Crusheen, Co. Clare, V95 H046, Ireland",V95 H046,ROOFTOP,Mid-West,16028,Crusheen,0.36538863121930376,12.585102287041092
15/07/2010,"Ballylean, Kildysart",Clare,130000.0,No,Second-Hand Dwelling house /Apartment,,ChIJ6-7le3g9W0gR3Uc21J6Iaeo,"https://maps.googleapis.com/maps/api/geocode/json?address=Ballylean,+Kildysart,+Clare,+Ireland&key=AIzaSyBe-vaefvOwUycBlN707CRlGhsewZq-NII",52.687893,-9.108646499999999,"Ballyleaan, Co. Clare, Ireland",,APPROXIMATE,Mid-West,16071,Killadysert,1.104959223646614,19.05799455523428
15/07/2010,"Limerick Road, Newmarket On Fergus",Clare,140000.0,No,Second-Hand Dwelling house /Apartment,,Eh9MaW1lcmljayBSZCwgQ28uIENsYXJlLCBJcmVsYW5kIi4qLAoUChIJSaM1oKprW0gRXLT7NioJkZMSFAoSCQG2FwOqa1tIEVD1MZepxwAK,"https://maps.googleapis.com/maps/api/geocode/json?address=Limerick+Road,+Newmarket+On+Fergus,+Clare,+Ireland&key=AIzaSyBe-vaefvOwUycBlN707CRlGhsewZq-NII",52.75612140000001,-8.895005399999997,"Limerick Rd, Co. Clare, Ireland",,GEOMETRIC_CENTER,Mid-West,16045,Urlan,0.3359067794331361,7.7729531640886815
16/07/2010,"16 Bruachlan, Westbury, Corbally",Clare,147000.0,No,Second-Hand Dwelling house /Apartment,,ChIJNVNRNyVcW0gROO8MkM-naVw,"https://maps.googleapis.com/maps/api/geocode/json?address=16+Bruachlan,+Westbury,+Corbally,+Clare,+Ireland&key=AIzaSyBe-vaefvOwUycBlN707CRlGhsewZq-NII",52.678712,-8.5988884,"16 Bruachlán, Corbally, Westbury, Co. Clare, V94 W3VF, Ireland",V94 W3VF,ROOFTOP,Mid-West,16106,Ballyglass,0.4284115937073272,14.04264862565675
16/07/2010,"3  Circular Road, Ennistymon",Clare,42000.0,No,Second-Hand Dwelling house /Apartment,,ChIJb2t2AdkFW0gRvMxR2PLI5dY,"https://maps.googleapis.com/maps/api/geocode/json?address=3+Circular+Road,+Ennistymon,+Clare,+Ireland&key=AIzaSyBe-vaefvOwUycBlN707CRlGhsewZq-NII",52.93837660000001,-9.288588699999998,"3 Circular Rd, Ennistimon, Co. Clare, V95 N9F3, Ireland",V95 N9F3,ROOFTOP,Mid-West,16054,Ennistimon,0.3156096292080993,23.730592431526464
16/07/2010,"39  Marian Avenue, Lifford Ennis, Ennis",Clare,96500.0,No,Second-Hand Dwelling house /Apartment,,ChIJUzR7CDNtW0gRFAj8ZuiqgY8,"https://maps.googleapis.com/maps/api/geocode/json?address=39+Marian+Avenue,+Lifford+Ennis,+Ennis,+Clare,+Ireland&key=AIzaSyBe-vaefvOwUycBlN707CRlGhsewZq-NII",52.84938270000001,-8.9827309,"39 Marian Ave, Lifford, Ennis, Co. Clare, V95 WD2Y, Ireland",V95 WD2Y,ROOFTOP,Mid-West,16001,Ennis No. 1 Urban,0.16315953644680495,1.2305096608226511
16/07/2010,"60 Castlerock, Tulla Road, Ennis",Clare,195000.0,No,Second-Hand Dwelling house /Apartment,,ChIJkYOtQTltW0gR87x0bO5wTjw,"https://maps.googleapis.com/maps/api/geocode/json?address=60+Castlerock,+Tulla+Road,+Ennis,+Clare,+Ireland&key=AIzaSyBe-vaefvOwUycBlN707CRlGhsewZq-NII",52.85369770000001,-8.967467800000003,"60 Castle Rock, Bóthar Na Tulaí, Knockanoura, Ennis, Co. Clare, V95 C8C0, Ireland",V95 C8C0,ROOFTOP,Mid-West,16032,Ennis Rural,0.4841112329372567,1.69474691476573
16/07/2010,"69 Willow Park, Gort Road, Ennis",Clare,115000.0,No,Second-Hand Dwelling house /Apartment,,ChIJlybTyssSW0gREMEvLYLJTts,"https://maps.googleapis.com/maps/api/geocode/json?address=69+Willow+Park,+Gort+Road,+Ennis,+Clare,+Ireland&key=AIzaSyBe-vaefvOwUycBlN707CRlGhsewZq-NII",52.85327760000001,-8.993072699999997,"69 Willow Park, Lifford, Ennis, Co. Clare, V95 C2F9, Ireland",V95 C2F9,ROOFTOP,Mid-West,16032,Ennis Rural,0.6149676907817065,1.9592671463025888
16/07/2010,"Ballytarsna, Kilshanny",Clare,40000.0,No,Second-Hand Dwelling house /Apartment,,ChIJV5LsPs4HW0gRgndMu6fHACY,"https://maps.googleapis.com/maps/api/geocode/json?address=Ballytarsna,+Kilshanny,+Clare,+Ireland&key=AIzaSyBe-vaefvOwUycBlN707CRlGhsewZq-NII",52.99257890000001,-9.2846441,"Ballytarsna, Annfield, Co. Clare, Ireland",,APPROXIMATE,Mid-West,16065,Smithstown,1.4961767213375168,26.849326680024085
16/07/2010,"Fintra More, Miltown Malbay",Clare,100000.0,No,Second-Hand Dwelling house /Apartment,,ChIJX5fkt-cCW0gRhXo_qoWmP0w,"https://maps.googleapis.com/maps/api/geocode/json?address=Fintra+More,+Miltown+Malbay,+Clare,+Ireland&key=AIzaSyBe-vaefvOwUycBlN707CRlGhsewZq-NII",52.867161,-9.4156108,"Fintra More, Co. Clare, Ireland",,APPROXIMATE,Mid-West,16050,Ballyvaskin,1.5715088952394058,29.72362161489177
19/07/2010,"17 Bishop Murphy Park, Parteen",Clare,150000.0,No,Second-Hand Dwelling house /Apartment,,ChIJMRk518hdW0gRmxyfeQEUneE,"https://maps.googleapis.com/maps/api/geocode/json?address=17+Bishop+Murphy+Park,+Parteen,+Clare,+Ireland&key=AIzaSyBe-vaefvOwUycBlN707CRlGhsewZq-NII",52.6984122,-8.6138779,"17 Bishop Murphy Park, Gortatogher, Parteen, Co. Clare, V94 D6Y2, Ireland",V94 D6Y2,ROOFTOP,Mid-West,16106,Ballyglass,0.14778905477704984,12.213387188110845
19/07/2010,"29 Willsgrove, Cahercalla Road, Ennis",Clare,355000.0,No,Second-Hand Dwelling house /Apartment,,ChIJQ7b5sdkSW0gRS7_nv7lP8to,"https://maps.googleapis.com/maps/api/geocode/json?address=29+Willsgrove,+Cahercalla+Road,+Ennis,+Clare,+Ireland&key=AIzaSyBe-vaefvOwUycBlN707CRlGhsewZq-NII",52.8369531,-8.9992551,"Altadena, 29 Willsgrove, Cathair Cheallaigh, Ennis, Co. Clare, V95 X2YD, Ireland",V95 X2YD,ROOFTOP,Mid-West,16032,Ennis Rural,0.5605963922570306,1.61558215816382
19/07/2010,"74 Churchfield, Clonlara",Clare,208450.0,Yes,New Dwelling house /Apartment,greater than 125 sq metres,ChIJ94405TBeW0gREPIxl6nHAAo,"https://maps.googleapis.com/maps/api/geocode/json?address=74+Churchfield,+Clonlara,+Clare,+Ireland&key=AIzaSyBe-vaefvOwUycBlN707CRlGhsewZq-NII",52.72471179999999,-8.5546236,"Cloonlara, Co. Clare, Ireland",,APPROXIMATE,Mid-West,16116,Kiltenanlea,0.04801533545314647,15.464122167056713
20/07/2010,"Apt 13 Inis Chlair, Kildysart Road, Ennis",Clare,125000.0,Yes,New Dwelling house /Apartment,greater than or equal to 38 sq metres and less than 125 sq metres,EjgxMywgSW5pcyBDbMOhaXIsIEtpbGR5c2FydCBSZCwgRW5uaXMsIENvLiBDbGFyZSwgSXJlbGFuZCIeGhwKFgoUChIJL85geDQTW0gRpCeBWz4Y3FoSAjEz,"https://maps.googleapis.com/maps/api/geocode/json?address=Apt+13+Inis+Chlair,+Kildysart+Road,+Ennis,+Clare,+Ireland&key=AIzaSyBe-vaefvOwUycBlN707CRlGhsewZq-NII",52.8190493,-8.9805359,"13, Inis Cláir, Kildysart Rd, Ballaghafadda East, Ennis, Co. Clare, Ireland",,ROOFTOP,Mid-West,16026,Clareabbey,0.27399741525780497,2.254007028089872
20/07/2010,Killaloe,Clare,230000.0,No,Second-Hand Dwelling house /Apartment,,ChIJU3DKmYueXEgRoOwxl6nHAAo,"https://maps.googleapis.com/maps/api/geocode/json?address=Killaloe,+Clare,+Ireland&key=AIzaSyBe-vaefvOwUycBlN707CRlGhsewZq-NII",52.808886,-8.447515199999998,"Shantraud, Killaloe, Co. Clare, Ireland",,APPROXIMATE,Mid-West,16134,Killaloe,0.13611480131007947,23.942321926221023
21/07/2010,"1 Cuirt An Fhile, Roslevan, Ennis",Clare,175000.0,Yes,New Dwelling house /Apartment,greater than or equal to 38 sq metres and less than 125 sq metres,ChIJiwCXWhFtW0gRq6BXSyURvkA,"https://maps.googleapis.com/maps/api/geocode/json?address=1+Cuirt+An+Fhile,+Roslevan,+Ennis,+Clare,+Ireland&key=AIzaSyBe-vaefvOwUycBlN707CRlGhsewZq-NII",52.85325719999999,-8.950206999999997,"17, Cúirt an Fhile, Millbank, Rosslevan, Ennis, Co. Clare, Ireland",,ROOFTOP,Mid-West,16032,Ennis Rural,0.5719680649670835,2.2913462524540766
21/07/2010,"14 Dun An Oir, Shannon",Clare,202000.0,No,Second-Hand Dwelling house /Apartment,,ChIJL4pdES5AW0gR3KXn8CuPukY,"https://maps.googleapis.com/maps/api/geocode/json?address=14+Dun+An+Oir,+Shannon,+Clare,+Ireland&key=AIzaSyBe-vaefvOwUycBlN707CRlGhsewZq-NII",52.7029507,-8.8889931,"Shalom, 14 Dun An Oir, Tullyglass, Shannon, Co. Clare, V14 Y292, Ireland",V14 Y292,ROOFTOP,Mid-West,16027,Clenagh,0.17436594012528758,8.079516536470013
21/07/2010,"95 Bruach Na Habhainn, Quin Road, Ennis",Clare,175000.0,No,Second-Hand Dwelling house /Apartment,,ChIJwcbeYSdtW0gR4Tj9gX2Vuhw,"https://maps.googleapis.com/maps/api/geocode/json?address=95+Bruach+Na+Habhainn,+Quin+Road,+Ennis,+Clare,+Ireland&key=AIzaSyBe-vaefvOwUycBlN707CRlGhsewZq-NII",52.8366194,-8.962425099999997,"95 Bruach Na h'Abhainn, Quin Rd, Bunnow, Ennis, Co. Clare, V95 R8F1, Ireland",V95 R8F1,ROOFTOP,Mid-West,16032,Ennis Rural,0.9257008499835614,0.8906659119254329
22/07/2010,"4 Connolly Villas, Ennis",Clare,80000.0,No,Second-Hand Dwelling house /Apartment,,ChIJ6awx4CptW0gRwjif3LFfE6I,"https://maps.googleapis.com/maps/api/geocode/json?address=4+Connolly+Villas,+Ennis,+Clare,+Ireland&key=AIzaSyBe-vaefvOwUycBlN707CRlGhsewZq-NII",52.8379863,-8.980429599999997,"4 Connolly Villas, Clonroad More, Ennis, Co. Clare, V95 Y1TX, Ireland",V95 Y1TX,ROOFTOP,Mid-West,16004,Ennis No. 4 Urban,0.2272481437244677,0.3581420435073539
22/07/2010,"40 Westwood, Golf Links Road, Ennis",Clare,205000.0,Yes,New Dwelling house /Apartment,greater than or equal to 38 sq metres and less than 125 sq metres,EiY0MCBXZXN0d29vZCwgRW5uaXMsIENvLiBDbGFyZSwgSXJlbGFuZCIaEhgKFAoSCSfLD6rREltIEQPbnFR0S0bgECg,"https://maps.googleapis.com/maps/api/geocode/json?address=40+Westwood,+Golf+Links+Road,+Ennis,+Clare,+Ireland&key=AIzaSyBe-vaefvOwUycBlN707CRlGhsewZq-NII",52.84219909999999,-8.9948702,"40 Westwood, Clonroad Beg, Ennis, Co. Clare, Ireland",,RANGE_INTERPOLATED,Mid-West,16032,Ennis Rural,0.4798674907172667,1.3427321806201231
22/07/2010,"Connaught Road, Scariff",Clare,150000.0,No,Second-Hand Dwelling house /Apartment,,ChIJmQbo8VKdXEgRgM8xl6nHAAo,"https://maps.googleapis.com/maps/api/geocode/json?address=Connaught+Road,+Scariff,+Clare,+Ireland&key=AIzaSyBe-vaefvOwUycBlN707CRlGhsewZq-NII",52.9088498,-8.533109,"Ballyminoge, Scarriff, Co. Clare, Ireland",,APPROXIMATE,Mid-West,16137,Scarriff,0.2348550071855653,25.40183510853669
22/07/2010,"Kilkishen, Ennis",Clare,260000.0,No,Second-Hand Dwelling house /Apartment,,ChIJKdUz380SW0gRIHMxl6nHAAo,"https://maps.googleapis.com/maps/api/geocode/json?address=Kilkishen,+Ennis,+Clare,+Ireland&key=AIzaSyBe-vaefvOwUycBlN707CRlGhsewZq-NII",52.8474255,-8.988738399999997,"Ennis, Co. Clare, Ireland",,APPROXIMATE,Mid-West,16001,Ennis No. 1 Urban,0.2285259719030832,1.2743806521677796
