date_of_sale,address,county,price,vat_exclusive,property_description,property_size,place_id,geocoding_url,latitude,longitude,formatted_address,eircode,accuracy,region,electoral_district_id,electoral_district,bus_distance,train_distance
04/01/2010,"11 Melville Heights, Kilkenny",Kilkenny,160000.0,No,Second-Hand Dwelling house /Apartment,,ChIJ51te4LowXUgRbHl77j-uYDI,"https://maps.googleapis.com/maps/api/geocode/json?address=11+Melville+Heights,+Kilkenny,+Ireland&key=AIzaSyA1vJtESoYOSSuM_yTI1j1jpPGpxx_VGyk",52.641393799999996,-7.2336525,"11 Melville Heights, Archersgrove, Kilkenny, R95 VCP0, Ireland",R95 VCP0,ROOFTOP,South-East (IE),7050.0,Kilkenny Rural,0.4339904402861625,1.5849431567874104
12/01/2010,"41 Newtown Terrace, Thomastown, Kilkenny",Kilkenny,120000.0,No,Second-Hand Dwelling house /Apartment,,ChIJKbUrk_g0XUgRk3G2Brn-I9A,"https://maps.googleapis.com/maps/api/geocode/json?address=41+Newtown+Terrace,+Thomastown,+Kilkenny,+Ireland&key=AIzaSyA1vJtESoYOSSuM_yTI1j1jpPGpxx_VGyk",52.5290792,-7.140668700000001,"41 Newtown Terrace, Thomastown, Co. Kilkenny, R95 H7P4, Ireland",R95 H7P4,ROOFTOP,South-East (IE),7084.0,Thomastown,0.4315810424150359,0.855366954521672
13/01/2010,"1 Bridgeview Gardens, Kilkenny",Kilkenny,250000.0,No,Second-Hand Dwelling house /Apartment,,ChIJ93erc3U6XUgRBszHjRzGIt8,"https://maps.googleapis.com/maps/api/geocode/json?address=1+Bridgeview+Gardens,+Kilkenny,+Ireland&key=AIzaSyA1vJtESoYOSSuM_yTI1j1jpPGpxx_VGyk",52.653702,-7.2504351,"8 John's Quay, Gardens, Kilkenny, Ireland",,ROOFTOP,South-East (IE),7002.0,Kilkenny No. 2 Urban,0.06202284478278273,0.4290304379662289
13/01/2010,"Carraigmourne, Thomastown",Kilkenny,217000.0,No,Second-Hand Dwelling house /Apartment,,ChIJSZu6NJa2QkgRSTDsCUlH2iY,"https://maps.googleapis.com/maps/api/geocode/json?address=Carraigmourne,+Thomastown,+Kilkenny,+Ireland&key=AIzaSyA1vJtESoYOSSuM_yTI1j1jpPGpxx_VGyk",52.51112999999999,-7.107943,"Carrickmourne House,, Carrickmourne,, New Ross Road,, Thomastown, Co. Kilkenny, Ireland",,GEOMETRIC_CENTER,South-East (IE),7084.0,Thomastown,2.5685970540397207,3.082633584472688
14/01/2010,"Polerone, Mooncoin",Kilkenny,300000.0,No,Second-Hand Dwelling house /Apartment,,ChIJx11oOqjaQkgR8HLfN6nHABg,"https://maps.googleapis.com/maps/api/geocode/json?address=Polerone,+Mooncoin,+Kilkenny,+Ireland&key=AIzaSyA1vJtESoYOSSuM_yTI1j1jpPGpxx_VGyk",52.2951134,-7.2571128,"Mooncoin, Co. Kilkenny, Ireland",,APPROXIMATE,South-East (IE),7109.0,Pollrone,0.1935441839334518,26.393488307459016
15/01/2010,"127 Ashfield East, Old Golf Links Road, Kilkenny",Kilkenny,168000.0,No,Second-Hand Dwelling house /Apartment,,ChIJ1Z0Udxw6XUgRKneqtxEPosQ,"https://maps.googleapis.com/maps/api/geocode/json?address=127+Ashfield+East,+Old+Golf+Links+Road,+Kilkenny,+Ireland&key=AIzaSyA1vJtESoYOSSuM_yTI1j1jpPGpxx_VGyk",52.6679872,-7.230079799999999,"127 Ashfield E, Charterschool Land, Kilkenny, R95 W8K3, Ireland",R95 W8K3,ROOFTOP,South-East (IE),7050.0,Kilkenny Rural,0.4788188972444383,1.7483549713660649
15/01/2010,"7 Westfield Drive, Outrath Road, Kilkenny",Kilkenny,153000.0,No,Second-Hand Dwelling house /Apartment,,ChIJVy8DB5YwXUgR_Rqm6PnbMGk,"https://maps.googleapis.com/maps/api/geocode/json?address=7+Westfield+Drive,+Outrath+Road,+Kilkenny,+Ireland&key=AIzaSyA1vJtESoYOSSuM_yTI1j1jpPGpxx_VGyk",52.63699370000001,-7.243780399999999,"7 Westfield, Loughboy, Kilkenny, R95 E3VT, Ireland",R95 E3VT,ROOFTOP,South-East (IE),7050.0,Kilkenny Rural,0.3747708976290944,1.9315179753734708
18/01/2010,"17 Whitehall, Paulstown",Kilkenny,185023.0,Yes,New Dwelling house /Apartment,less than 38 sq metres,ChIJR8_ZJhZGXUgRENcxl6nHAAo,"https://maps.googleapis.com/maps/api/geocode/json?address=17+Whitehall,+Paulstown,+Kilkenny,+Ireland&key=AIzaSyA1vJtESoYOSSuM_yTI1j1jpPGpxx_VGyk",52.6813185,-7.021122099999999,"Ballytarsna, Paulstown, Co. Kilkenny, Ireland",,APPROXIMATE,South-East (IE),7058.0,Shankill,0.05191960736333257,15.286113086962516
18/01/2010,"Dreelingstown, Rathmoyce",Kilkenny,156000.0,No,Second-Hand Dwelling house /Apartment,,ChIJm_pvnG8lXUgR8oNSu6fHACY,"https://maps.googleapis.com/maps/api/geocode/json?address=Dreelingstown,+Rathmoyce,+Kilkenny,+Ireland&key=AIzaSyA1vJtESoYOSSuM_yTI1j1jpPGpxx_VGyk",52.6643674,-7.373451200000001,"Dreelingstown, Co. Kilkenny, Ireland",,APPROXIMATE,South-East (IE),7040.0,Ballinamara,6.11306533496189,8.792850462352671
22/01/2010,"68 Rosewood, Johnswell Road, Kilkenny",Kilkenny,200000.0,No,Second-Hand Dwelling house /Apartment,,ChIJZzDktRo6XUgRqzJQRd9qzJc,"https://maps.googleapis.com/maps/api/geocode/json?address=68+Rosewood,+Johnswell+Road,+Kilkenny,+Ireland&key=AIzaSyA1vJtESoYOSSuM_yTI1j1jpPGpxx_VGyk",52.66458589999999,-7.234702799999999,"68 Rosewood, Newpark Upper, Kilkenny, R95 F7D1, Ireland",R95 F7D1,ROOFTOP,South-East (IE),7050.0,Kilkenny Rural,0.25696783377189064,1.2651221388533525
25/01/2010,"6 Ormonde Court, Ormonde Road, Kilkenny",Kilkenny,200000.0,No,Second-Hand Dwelling house /Apartment,,ChIJP6uBlZ4wXUgRgFIILIHnFM8,"https://maps.googleapis.com/maps/api/geocode/json?address=6+Ormonde+Court,+Ormonde+Road,+Kilkenny,+Ireland&key=AIzaSyA1vJtESoYOSSuM_yTI1j1jpPGpxx_VGyk",52.648413399999995,-7.2518620999999985,"Ormonde Court, Ormonde Rd, Gardens, Kilkenny, Ireland",,ROOFTOP,South-East (IE),7001.0,Kilkenny No. 1 Urban,0.008822685903991203,0.8409538892559513
27/01/2010,"2 Belline Vale, Piltown",Kilkenny,132000.0,Yes,New Dwelling house /Apartment,greater than 125 sq metres,ChIJ8XHe9iHRQkgRXuE_LChAKlg,"https://maps.googleapis.com/maps/api/geocode/json?address=2+Belline+Vale,+Piltown,+Kilkenny,+Ireland&key=AIzaSyA1vJtESoYOSSuM_yTI1j1jpPGpxx_VGyk",52.3521279,-7.335938000000001,"2 Belline Vale, Banagher, Piltown, Co. Kilkenny, E32 AY19, Ireland",E32 AY19,ROOFTOP,South-East (IE),7019.0,Pilltown,0.3175640838725406,22.846610491060623
27/01/2010,"6 Pinewood Avenue, Archer Street, Kilkenny",Kilkenny,260000.0,No,Second-Hand Dwelling house /Apartment,,ChIJB-ONx6IwXUgReLAlgMDkcGI,"https://maps.googleapis.com/maps/api/geocode/json?address=6+Pinewood+Avenue,+Archer+Street,+Kilkenny,+Ireland&key=AIzaSyA1vJtESoYOSSuM_yTI1j1jpPGpxx_VGyk",52.643053099999996,-7.242875,"6 Pinewood Ave, Archerstreet Lot, Kilkenny, R95 FTX8, Ireland",R95 FTX8,ROOFTOP,South-East (IE),7050.0,Kilkenny Rural,0.2478160655564953,1.25786616867277
28/01/2010,"19  Richview, Castlecomer Road, Kilkenny",Kilkenny,265000.0,No,Second-Hand Dwelling house /Apartment,,Eh4xOSBSaWNodmlldywgS2lsa2VubnksIElyZWxhbmQiGhIYChQKEgm78w0_azpdSBFGIVJ_ocEbyxAT,"https://maps.googleapis.com/maps/api/geocode/json?address=19+Richview,+Castlecomer+Road,+Kilkenny,+Ireland&key=AIzaSyA1vJtESoYOSSuM_yTI1j1jpPGpxx_VGyk",52.670023,-7.253217999999999,"19 Richview, Kilkenny, Ireland",,RANGE_INTERPOLATED,South-East (IE),7050.0,Kilkenny Rural,0.06609973157925023,1.8381027057380424
28/01/2010,"90 Maudlin Court, Thomastown",Kilkenny,10000.0,No,Second-Hand Dwelling house /Apartment,,ChIJPSkqY_80XUgRK9L3uHMo2yQ,"https://maps.googleapis.com/maps/api/geocode/json?address=90+Maudlin+Court,+Thomastown,+Kilkenny,+Ireland&key=AIzaSyA1vJtESoYOSSuM_yTI1j1jpPGpxx_VGyk",52.5305157,-7.1360860000000015,"90 Maudlin Ct, Cloghabrody, Thomastown, Co. Kilkenny, R95 VW13, Ireland",R95 VW13,ROOFTOP,South-East (IE),7084.0,Thomastown,0.591818040716259,1.1859993623897134
01/02/2010,"39 Marble Court, Paulstown",Kilkenny,159000.0,No,Second-Hand Dwelling house /Apartment,,ChIJF-f7UBdGXUgR7hw5bMthodg,"https://maps.googleapis.com/maps/api/geocode/json?address=39+Marble+Court,+Paulstown,+Kilkenny,+Ireland&key=AIzaSyA1vJtESoYOSSuM_yTI1j1jpPGpxx_VGyk",52.67744129999999,-7.0240351,"39 Marble Ct, Paulstown, Co. Kilkenny, R95 YK12, Ireland",R95 YK12,ROOFTOP,South-East (IE),7054.0,Paulstown,0.2551620490296089,15.014712777063153
01/02/2010,"Apartment 69, Block E, Macdonagh Junction",Kilkenny,140969.16,Yes,New Dwelling house /Apartment,greater than or equal to 38 sq metres and less than 125 sq metres,ChIJIwrhVQo6XUgR1Zm2hjdsl0o,"https://maps.googleapis.com/maps/api/geocode/json?address=Apartment+69,+Block+E,+Macdonagh+Junction,+Kilkenny,+Ireland&key=AIzaSyA1vJtESoYOSSuM_yTI1j1jpPGpxx_VGyk",52.65524010000001,-7.244461999999999,"Hebron Rd, Highhays, Kilkenny, Ireland",,GEOMETRIC_CENTER,South-East (IE),7002.0,Kilkenny No. 2 Urban,0.08544419458191302,0.0911323650464752
01/02/2010,"No 9 The Steeples, Gowran",Kilkenny,183000.0,No,Second-Hand Dwelling house /Apartment,,ChIJTRUNy0hIXUgRbCjqLhJ3BbI,"https://maps.googleapis.com/maps/api/geocode/json?address=No+9+The+Steeples,+Gowran,+Kilkenny,+Ireland&key=AIzaSyA1vJtESoYOSSuM_yTI1j1jpPGpxx_VGyk",52.6298392,-7.067063,"9 The Steeples, Gowran, Co. Kilkenny, R95 E956, Ireland",R95 E956,ROOFTOP,South-East (IE),7048.0,Gowran,0.2688749558790968,12.21016537695802
08/02/2010,"St.Mary'S, Clontubrid, Freshford",Kilkenny,214500.0,No,Second-Hand Dwelling house /Apartment,,ChIJFdcU-nwjXUgRcolu4HGQZCk,"https://maps.googleapis.com/maps/api/geocode/json?address=St.Mary'S,+Clontubrid,+Freshford,+Kilkenny,+Ireland&key=AIzaSyA1vJtESoYOSSuM_yTI1j1jpPGpxx_VGyk",52.7327182,-7.3978011,"Saint Lactin's Church, Church St, Freshford Lots, Freshford, Co. Kilkenny, Ireland",,ROOFTOP,South-East (IE),7047.0,Freshford,0.02826322166838143,13.533527754601607
10/02/2010,"Castlemorris, Hugginstown",Kilkenny,335000.0,Yes,New Dwelling house /Apartment,greater than 125 sq metres,ChIJLR_Mh5_SQkgRb4wzOqZle50,"https://maps.googleapis.com/maps/api/geocode/json?address=Castlemorris,+Hugginstown,+Kilkenny,+Ireland&key=AIzaSyA1vJtESoYOSSuM_yTI1j1jpPGpxx_VGyk",52.4572691,-7.2819093,"Castlemorris, Co. Kilkenny, Ireland",,APPROXIMATE,South-East (IE),7061.0,Aghaviller,5.5219077561572245,11.593605630160415
12/02/2010,"14 Riverview, Kilkenny, Kilkenny",Kilkenny,235000.0,No,Second-Hand Dwelling house /Apartment,,ChIJyRBK5LwwXUgRbekdjHdugHw,"https://maps.googleapis.com/maps/api/geocode/json?address=14+Riverview,+Kilkenny,+Kilkenny,+Ireland&key=AIzaSyA1vJtESoYOSSuM_yTI1j1jpPGpxx_VGyk",52.64069199999999,-7.2399239999999985,"14 Riverview, Gallowshill, Kilkenny, R95 WTW2, Ireland",R95 WTW2,ROOFTOP,South-East (IE),7050.0,Kilkenny Rural,0.13908133269665132,1.538003892109074
12/02/2010,"56 Pococke Lower, Johnswell Road",Kilkenny,175000.0,No,Second-Hand Dwelling house /Apartment,,ChIJ1XK0Oxs6XUgR7_Yp7Bn-IXM,"https://maps.googleapis.com/maps/api/geocode/json?address=56+Pococke+Lower,+Johnswell+Road,+Kilkenny,+Ireland&key=AIzaSyA1vJtESoYOSSuM_yTI1j1jpPGpxx_VGyk",52.665290899999995,-7.231924200000001,"56 Pococke Lower, Newpark Upper, Kilkenny, R95 X9V2, Ireland",R95 X9V2,ROOFTOP,South-East (IE),7050.0,Kilkenny Rural,0.2521662810486877,1.4282502938603752
12/02/2010,"Apartment 40, Block D, Macdonagh Juntion",Kilkenny,105559.47,Yes,New Dwelling house /Apartment,greater than or equal to 38 sq metres and less than 125 sq metres,ChIJIwrhVQo6XUgR1Zm2hjdsl0o,"https://maps.googleapis.com/maps/api/geocode/json?address=Apartment+40,+Block+D,+Macdonagh+Juntion,+Kilkenny,+Ireland&key=AIzaSyA1vJtESoYOSSuM_yTI1j1jpPGpxx_VGyk",52.65524010000001,-7.244461999999999,"Hebron Rd, Highhays, Kilkenny, Ireland",,GEOMETRIC_CENTER,South-East (IE),7002.0,Kilkenny No. 2 Urban,0.08544419458191302,0.0911323650464752
15/02/2010,"22 Willow Close, Kilkenny",Kilkenny,126666.66,No,Second-Hand Dwelling house /Apartment,,ChIJKdwQCaMwXUgRzCt7lUOyL8o,"https://maps.googleapis.com/maps/api/geocode/json?address=22+Willow+Close,+Kilkenny,+Ireland&key=AIzaSyA1vJtESoYOSSuM_yTI1j1jpPGpxx_VGyk",52.64488249999999,-7.2405012000000015,"22 Willow Cl, Ardnore, Kilkenny, R95 DRC3, Ireland",R95 DRC3,ROOFTOP,South-East (IE),7050.0,Kilkenny Rural,0.1836258976060668,1.0719058893451971
17/02/2010,"78  The Padddocks, Kells Road, Kilkenny",Kilkenny,175000.0,No,Second-Hand Dwelling house /Apartment,,ChIJQSeGgZAwXUgR1zsYqcl9VYc,"https://maps.googleapis.com/maps/api/geocode/json?address=78+The+Padddocks,+Kells+Road,+Kilkenny,+Ireland&key=AIzaSyA1vJtESoYOSSuM_yTI1j1jpPGpxx_VGyk",52.64144939999999,-7.2543171000000015,"78 Kells Rd, The Paddocks, Cashel, Kilkenny, R95 R2RX, Ireland",R95 R2RX,ROOFTOP,South-East (IE),7050.0,Kilkenny Rural,0.5768298852816542,1.59115714328211
24/02/2010,"11 Beech Lawns, Johnswell Road, Kilkenny",Kilkenny,169000.0,No,Second-Hand Dwelling house /Apartment,,ChIJiQMO7w86XUgRPxNmx4gbv-4,"https://maps.googleapis.com/maps/api/geocode/json?address=11+Beech+Lawns,+Johnswell+Road,+Kilkenny,+Ireland&key=AIzaSyA1vJtESoYOSSuM_yTI1j1jpPGpxx_VGyk",52.66334000000001,-7.237199299999999,"11 Beechlawns, Newpark Upper, Kilkenny, R95 A5F2, Ireland",R95 A5F2,ROOFTOP,South-East (IE),7050.0,Kilkenny Rural,0.06471769733231783,1.066911496305219
24/02/2010,"14 Dangan Terrace, Thomastown",Kilkenny,122500.0,No,Second-Hand Dwelling house /Apartment,,ChIJc0YMvgE1XUgRF6XVSTEFJms,"https://maps.googleapis.com/maps/api/geocode/json?address=14+Dangan+Terrace,+Thomastown,+Kilkenny,+Ireland&key=AIzaSyA1vJtESoYOSSuM_yTI1j1jpPGpxx_VGyk",52.5271848,-7.1287175000000005,"14 Dangan Terrace, Thomastown, Co. Kilkenny, R95 E4P1, Ireland",R95 E4P1,ROOFTOP,South-East (IE),7084.0,Thomastown,0.6551510673488375,1.4351195878623608
24/02/2010,"45 Ashgrove, Parcnagowen, Outrath Road",Kilkenny,260000.0,No,Second-Hand Dwelling house /Apartment,,ChIJjZx0gZYwXUgRcxv5GmjgIu4,"https://maps.googleapis.com/maps/api/geocode/json?address=45+Ashgrove,+Parcnagowen,+Outrath+Road,+Kilkenny,+Ireland&key=AIzaSyA1vJtESoYOSSuM_yTI1j1jpPGpxx_VGyk",52.63683029999999,-7.246964899999999,"45 Ashgrove, Parcnagowan, Kilkenny, R95 V29K, Ireland",R95 V29K,ROOFTOP,South-East (IE),7050.0,Kilkenny Rural,0.4728560418989604,1.9591666248791484
25/02/2010,"1 Barrow Meadows, Goresbridge",Kilkenny,257000.0,Yes,New Dwelling house /Apartment,greater than or equal to 38 sq metres and less than 125 sq metres,ChIJc_vZS9RIXUgRGgEtraVwpKo,"https://maps.googleapis.com/maps/api/geocode/json?address=1+Barrow+Meadows,+Goresbridge,+Kilkenny,+Ireland&key=AIzaSyA1vJtESoYOSSuM_yTI1j1jpPGpxx_VGyk",52.627990000000004,-6.9948000000000015,"Barrowmount, Barrow Meadows, Co. Kilkenny, Ireland",,APPROXIMATE,South-East (IE),7073.0,Goresbridge,0.22303606307279286,15.62848454826627
26/02/2010,"3 Farmlea Manor, Ferrybank",Kilkenny,200000.0,Yes,New Dwelling house /Apartment,greater than or equal to 38 sq metres and less than 125 sq metres,ChIJT6HI2ZLGQkgRLeVfbIGD_1k,"https://maps.googleapis.com/maps/api/geocode/json?address=3+Farmlea+Manor,+Ferrybank,+Kilkenny,+Ireland&key=AIzaSyA1vJtESoYOSSuM_yTI1j1jpPGpxx_VGyk",52.26332539999999,-7.0913859000000015,"3 Farmlea Manor, Ferrybank, Waterford, Co. Kilkenny, X91 E7KV, Ireland",X91 E7KV,ROOFTOP,South-East (IE),7106.0,Kilculliheen,0.4449149856863423,29.157631093145906
01/03/2010,"Castlemarken, Ballyouskil",Kilkenny,140000.0,No,Second-Hand Dwelling house /Apartment,,ChIJMaqj4jYWXUgRsq9qn2WE4rE,"https://maps.googleapis.com/maps/api/geocode/json?address=Castlemarken,+Ballyouskil,+Kilkenny,+Ireland&key=AIzaSyA1vJtESoYOSSuM_yTI1j1jpPGpxx_VGyk",52.83885,-7.314260000000001,"Ballyoskill, Ballyouskill, Co. Kilkenny, Ireland",,APPROXIMATE,South-East (IE),7024.0,Attanagh,1.1188437363427486,21.045649431314466
01/03/2010,"Scart, Dungarvan, Gowran",Kilkenny,300000.0,No,Second-Hand Dwelling house /Apartment,,ChIJheWtVvZJXUgRyVXtJAuxmq4,"https://maps.googleapis.com/maps/api/geocode/json?address=Scart,+Dungarvan,+Gowran,+Kilkenny,+Ireland&key=AIzaSyA1vJtESoYOSSuM_yTI1j1jpPGpxx_VGyk",52.579922700000004,-7.075649799999999,"Scart, Carn, Co. Kilkenny, Ireland",,APPROXIMATE,South-East (IE),7065.0,Bramblestown,5.3790366108687415,8.018010843420518
02/03/2010,"33 The Belfry, Thomastown",Kilkenny,155000.0,No,Second-Hand Dwelling house /Apartment,,ChIJaTlUlfk0XUgRgNYxl6nHAAo,"https://maps.googleapis.com/maps/api/geocode/json?address=33+The+Belfry,+Thomastown,+Kilkenny,+Ireland&key=AIzaSyA1vJtESoYOSSuM_yTI1j1jpPGpxx_VGyk",52.5270825,-7.1388210999999995,"Thomastown, Co. Kilkenny, Ireland",,APPROXIMATE,South-East (IE),7084.0,Thomastown,0.18783919993760406,0.8051037955451833
03/03/2010,"28 Chattsworth Street, Castlecomer",Kilkenny,222000.0,No,Second-Hand Dwelling house /Apartment,,EicyOCBDaGF0c3dvcnRoIFN0LCBDby4gS2lsa2VubnksIElyZWxhbmQiGhIYChQKEgkxNmLeNT5dSBEvSBoZRD-VkhAc,"https://maps.googleapis.com/maps/api/geocode/json?address=28+Chattsworth+Street,+Castlecomer,+Kilkenny,+Ireland&key=AIzaSyA1vJtESoYOSSuM_yTI1j1jpPGpxx_VGyk",52.8071358,-7.210396599999997,"28 Chatsworth St, Castlecomer, Co. Kilkenny, Ireland",,RANGE_INTERPOLATED,South-East (IE),7026.0,Castlecomer,0.3647472390330416,17.11843674395564
03/03/2010,"7 Brookfield, Ballyhale",Kilkenny,145000.0,Yes,New Dwelling house /Apartment,greater than or equal to 38 sq metres and less than 125 sq metres,ChIJt5lMyMDMQkgR0NUxl6nHAAo,"https://maps.googleapis.com/maps/api/geocode/json?address=7+Brookfield,+Ballyhale,+Kilkenny,+Ireland&key=AIzaSyA1vJtESoYOSSuM_yTI1j1jpPGpxx_VGyk",52.466657,-7.2002407999999996,"Ballyhale, Co. Kilkenny, Ireland",,APPROXIMATE,South-East (IE),7062.0,Ballyhale,0.08100477397727697,7.166028021052622
03/03/2010,"Jerpoint West, Thomastown",Kilkenny,140000.0,No,Second-Hand Dwelling house /Apartment,,ChIJ71MAxo40XUgRYlnHGajHACY,"https://maps.googleapis.com/maps/api/geocode/json?address=Jerpoint+West,+Thomastown,+Kilkenny,+Ireland&key=AIzaSyA1vJtESoYOSSuM_yTI1j1jpPGpxx_VGyk",52.521283,-7.1659684000000015,"Jerpoint West, Ballylinch, Co. Kilkenny, Ireland",,APPROXIMATE,South-East (IE),7084.0,Thomastown,1.903937141579732,1.1544974882250465
09/03/2010,"Turkstown, Piltown",Kilkenny,150000.0,No,Second-Hand Dwelling house /Apartment,,ChIJI6nu1onQQkgRErJSu6fHACY,"https://maps.googleapis.com/maps/api/geocode/json?address=Turkstown,+Piltown,+Kilkenny,+Ireland&key=AIzaSyA1vJtESoYOSSuM_yTI1j1jpPGpxx_VGyk",52.32596059999999,-7.305115199999999,"Turkstown, Co. Kilkenny, Ireland",,APPROXIMATE,South-East (IE),7017.0,Fiddown,0.8471009308840269,24.34389339547068
10/03/2010,"14 Rosewood, Johnswell Road",Kilkenny,136250.0,No,Second-Hand Dwelling house /Apartment,,ChIJc3uqWwU6XUgRQgDAt0cUKMU,"https://maps.googleapis.com/maps/api/geocode/json?address=14+Rosewood,+Johnswell+Road,+Kilkenny,+Ireland&key=AIzaSyA1vJtESoYOSSuM_yTI1j1jpPGpxx_VGyk",52.6633554,-7.2354852,"14 Rosewood, Newpark Upper, Kilkenny, R95 D3K4, Ireland",R95 D3K4,ROOFTOP,South-East (IE),7050.0,Kilkenny Rural,0.1241846513706379,1.119649015961125
12/03/2010,"Glenview, Castlecomer Road, Kilkenny",Kilkenny,250000.0,No,Second-Hand Dwelling house /Apartment,,EiFDYXN0bGVjb21lciBSZCwgS2lsa2VubnksIElyZWxhbmQiLiosChQKEgkzeazWbDpdSBEtjtyr6af7SxIUChIJq8UjNKEwXUgRwHMxl6nHAAo,"https://maps.googleapis.com/maps/api/geocode/json?address=Glenview,+Castlecomer+Road,+Kilkenny,+Ireland&key=AIzaSyA1vJtESoYOSSuM_yTI1j1jpPGpxx_VGyk",52.66828390000001,-7.2527570999999975,"Castlecomer Rd, Kilkenny, Ireland",,GEOMETRIC_CENTER,South-East (IE),7050.0,Kilkenny Rural,0.12359023247268346,1.6458039108856708
15/03/2010,"7 Kenealy Avenue, Kilkenny",Kilkenny,190000.0,No,Second-Hand Dwelling house /Apartment,,ChIJB7NIGaIwXUgRJuVkBjZbNaY,"https://maps.googleapis.com/maps/api/geocode/json?address=7+Kenealy+Avenue,+Kilkenny,+Ireland&key=AIzaSyA1vJtESoYOSSuM_yTI1j1jpPGpxx_VGyk",52.6471835,-7.2443681,"7 Kenealy Ave, Dukesmeadows, Kilkenny, R95 DCW4, Ireland",R95 DCW4,ROOFTOP,South-East (IE),7002.0,Kilkenny No. 2 Urban,0.13883212849333748,0.7985957466545267
16/03/2010,"1  Oakridge, Aylesbury Road, Ferrybank",Kilkenny,193832.59,Yes,New Dwelling house /Apartment,greater than 125 sq metres,ChIJ6asGcG46XUgR9YfYYYe85GE,"https://maps.googleapis.com/maps/api/geocode/json?address=1+Oakridge,+Aylesbury+Road,+Ferrybank,+Kilkenny,+Ireland&key=AIzaSyA1vJtESoYOSSuM_yTI1j1jpPGpxx_VGyk",52.665131,-7.2579699999999985,"Aylesbury, Kilkenny, Ireland",,GEOMETRIC_CENTER,South-East (IE),7050.0,Kilkenny Rural,0.3025789727528353,1.5123772788363794
16/03/2010,"4 The Mews, Granges Road, Kilkenny",Kilkenny,264317.0,Yes,New Dwelling house /Apartment,greater than 125 sq metres,ChIJcYzeSXc6XUgR6Kwk0GgSJFk,"https://maps.googleapis.com/maps/api/geocode/json?address=4+The+Mews,+Granges+Road,+Kilkenny,+Ireland&key=AIzaSyA1vJtESoYOSSuM_yTI1j1jpPGpxx_VGyk",52.659869799999996,-7.2624499999999985,"Granges Rd, Kilkenny, Ireland",,GEOMETRIC_CENTER,South-East (IE),7001.0,Kilkenny No. 1 Urban,0.5257862805868884,1.3770849285019653
18/03/2010,"57 Westfield, Kilkenny",Kilkenny,187000.0,No,Second-Hand Dwelling house /Apartment,,ChIJW6Gy_5UwXUgRpuiQqFO9oT4,"https://maps.googleapis.com/maps/api/geocode/json?address=57+Westfield,+Kilkenny,+Ireland&key=AIzaSyA1vJtESoYOSSuM_yTI1j1jpPGpxx_VGyk",52.6367598,-7.2432273999999985,"57 Westfield, Loughboy, Kilkenny, R95 T0FR, Ireland",R95 T0FR,ROOFTOP,South-East (IE),7050.0,Kilkenny Rural,0.3707694821680106,1.9574013788204712
19/03/2010,"3 An Cuanin  Ard Glas, Ferrybank",Kilkenny,117000.0,No,Second-Hand Dwelling house /Apartment,,ChIJw_EEMZLGQkgRhHR2xCQP9HQ,"https://maps.googleapis.com/maps/api/geocode/json?address=3+An+Cuanin+Ard+Glas,+Ferrybank,+Kilkenny,+Ireland&key=AIzaSyA1vJtESoYOSSuM_yTI1j1jpPGpxx_VGyk",52.2633025,-7.095627799999999,"Árd Glas, Co. Kilkenny, Ireland",,GEOMETRIC_CENTER,South-East (IE),7106.0,Kilculliheen,0.5603124158144986,29.12282694366457
19/03/2010,"No2 Glendine Woods, Ballyfoyle Road, Kilkenny",Kilkenny,421145.0,Yes,New Dwelling house /Apartment,greater than 125 sq metres,ChIJg5C7zj86XUgRKRcQo9al_3Y,"https://maps.googleapis.com/maps/api/geocode/json?address=No2+Glendine+Woods,+Ballyfoyle+Road,+Kilkenny,+Ireland&key=AIzaSyA1vJtESoYOSSuM_yTI1j1jpPGpxx_VGyk",52.67504229999999,-7.2510531,"Glendine Woods, Glendine, Kilkenny, Ireland",,GEOMETRIC_CENTER,South-East (IE),7050.0,Kilkenny Rural,0.3139417993741941,2.335255315069908
23/03/2010,"Garrygaug, Mullinavat, Kilkenny",Kilkenny,272000.0,No,Second-Hand Dwelling house /Apartment,,ChIJU0s3_j_OQkgRguJSu6fHACY,"https://maps.googleapis.com/maps/api/geocode/json?address=Garrygaug,+Mullinavat,+Kilkenny,+Ireland&key=AIzaSyA1vJtESoYOSSuM_yTI1j1jpPGpxx_VGyk",52.3807328,-7.230901599999997,"Garrygaug, Ballinacooley, Co. Kilkenny, Ireland",,APPROXIMATE,South-East (IE),7021.0,Tubbrid,3.5967744157497656,16.77481092983016
24/03/2010,"34 Dominic Street, Kilkenny",Kilkenny,162000.0,No,Second-Hand Dwelling house /Apartment,,ChIJo7ppUZ0wXUgRWfFnw8qABDk,"https://maps.googleapis.com/maps/api/geocode/json?address=34+Dominic+Street,+Kilkenny,+Ireland&key=AIzaSyA1vJtESoYOSSuM_yTI1j1jpPGpxx_VGyk",52.651519900000004,-7.260382099999997,"34 Dominic St, Jamesgreen, Kilkenny, R95 RWD6, Ireland",R95 RWD6,ROOFTOP,South-East (IE),7001.0,Kilkenny No. 1 Urban,0.33863919138634,1.1386687114065115
25/03/2010,"Apt 21 Block 1, Seville Lawns, Margaretsfield",Kilkenny,321585.9,Yes,New Dwelling house /Apartment,greater than or equal to 38 sq metres and less than 125 sq metres,El5BcHQgMjEgQmxvY2ssIDEgU2V2aWxsZSBMYXducywgTWFyZ2FyZXQncyBGaWVsZHMsIENhbGxhbiBSb2FkLCBDby4gS2lsa2VubnksIFI5NSBOMks3LCBJcmVsYW5kIigaJgoWChQKEglbZnCCYjBdSBFXJDAd0Op6MhIMQXB0IDIxIEJsb2Nr,"https://maps.googleapis.com/maps/api/geocode/json?address=Apt+21+Block+1,+Seville+Lawns,+Margaretsfield,+Kilkenny,+Ireland&key=AIzaSyA1vJtESoYOSSuM_yTI1j1jpPGpxx_VGyk",52.6382767,-7.2715205,"Apt 21 Block, 1 Seville Lawns, Margaret's Fields, Callan Road, Co. Kilkenny, R95 N2K7, Ireland",R95 N2K7,ROOFTOP,South-East (IE),7050.0,Kilkenny Rural,1.5040966897634491,2.570607394533122
25/03/2010,"Milepost, Slieverue",Kilkenny,340000.0,No,Second-Hand Dwelling house /Apartment,,ChIJvQtEHfjGQkgR8klTu6fHACY,"https://maps.googleapis.com/maps/api/geocode/json?address=Milepost,+Slieverue,+Kilkenny,+Ireland&key=AIzaSyA1vJtESoYOSSuM_yTI1j1jpPGpxx_VGyk",52.275529999999996,-7.082510000000001,"Ballinvoher, Milepost, Co. Kilkenny, Ireland",,APPROXIMATE,South-East (IE),7106.0,Kilculliheen,0.1589863515958286,27.90428200591839
26/03/2010,"17 Brookfield, Ballyhale",Kilkenny,143943.0,Yes,New Dwelling house /Apartment,greater than or equal to 38 sq metres and less than 125 sq metres,ChIJt5lMyMDMQkgR0NUxl6nHAAo,"https://maps.googleapis.com/maps/api/geocode/json?address=17+Brookfield,+Ballyhale,+Kilkenny,+Ireland&key=AIzaSyA1vJtESoYOSSuM_yTI1j1jpPGpxx_VGyk",52.466657,-7.2002407999999996,"Ballyhale, Co. Kilkenny, Ireland",,APPROXIMATE,South-East (IE),7062.0,Ballyhale,0.08100477397727697,7.166028021052622
29/03/2010,"41 Robertshill, Circular Road, Kilkenny",Kilkenny,153000.0,No,Second-Hand Dwelling house /Apartment,,EjBDaXJjdWxhciBSZCwgUm9iZXJ0cyBIaWxsLCBDby4gS2lsa2VubnksIElyZWxhbmQiLiosChQKEgkRiG7QgzBdSBHSkBceBV1F9xIUChIJg0rMloEwXUgR7ocQVV0LPZE,"https://maps.googleapis.com/maps/api/geocode/json?address=41+Robertshill,+Circular+Road,+Kilkenny,+Ireland&key=AIzaSyA1vJtESoYOSSuM_yTI1j1jpPGpxx_VGyk",52.6492254,-7.2696837,"Circular Rd, Roberts Hill, Co. Kilkenny, Ireland",,GEOMETRIC_CENTER,South-East (IE),7050.0,Kilkenny Rural,0.985446846864768,1.8139225595598831
29/03/2010,"Dunamaggin East, Dunamaggin",Kilkenny,235000.0,No,Second-Hand Dwelling house /Apartment,,ChIJ-3aILmEtXUgR3tXObAmjXdw,"https://maps.googleapis.com/maps/api/geocode/json?address=Dunamaggin+East,+Dunamaggin,+Kilkenny,+Ireland&key=AIzaSyA1vJtESoYOSSuM_yTI1j1jpPGpxx_VGyk",52.50253000000001,-7.297839999999999,"Dunnamaggan East, Dunnamaggin, Co. Kilkenny, Ireland",,APPROXIMATE,South-East (IE),7007.0,Dunamaggan,5.87342406859513,10.320370127567077
30/03/2010,"14 Cedarwood Avenue, Loughboy, Kilkenny",Kilkenny,200000.0,No,Second-Hand Dwelling house /Apartment,,ChIJaWtCLLwwXUgRmWgKUmOracI,"https://maps.googleapis.com/maps/api/geocode/json?address=14+Cedarwood+Avenue,+Loughboy,+Kilkenny,+Ireland&key=AIzaSyA1vJtESoYOSSuM_yTI1j1jpPGpxx_VGyk",52.6375408,-7.239433,"14 Cedarwood Ave, Gallowshill, Kilkenny, R95 P48P, Ireland",R95 P48P,ROOFTOP,South-East (IE),7050.0,Kilkenny Rural,0.13274337851598486,1.8895776195771048
30/03/2010,"27 Burrells Walk, College Park  Callan Road, College Park, Callan Road",Kilkenny,158590.3,Yes,New Dwelling house /Apartment,greater than or equal to 38 sq metres and less than 125 sq metres,ChIJmxUx2IcwXUgRmHzq0XI3yTQ,"https://maps.googleapis.com/maps/api/geocode/json?address=27+Burrells+Walk,+College+Park+Callan+Road,+College+Park,+Callan+Road,+Kilkenny,+Ireland&key=AIzaSyA1vJtESoYOSSuM_yTI1j1jpPGpxx_VGyk",52.64078379999999,-7.2694922,"27 Burrell's Walk, Wetland, Callan Road, Co. Kilkenny, R95 Y1T6, Ireland",R95 Y1T6,ROOFTOP,South-East (IE),7050.0,Kilkenny Rural,1.2315189036905336,2.280606964496032
30/03/2010,"3A Rath Ullord, Bonnettsrath Road, New Orchard",Kilkenny,292035.39,Yes,New Dwelling house /Apartment,greater than 125 sq metres,ChIJ19s3rEk7XUgR7A0gYY8eXkI,"https://maps.googleapis.com/maps/api/geocode/json?address=3A+Rath+Ullord,+Bonnettsrath+Road,+New+Orchard,+Kilkenny,+Ireland&key=AIzaSyA1vJtESoYOSSuM_yTI1j1jpPGpxx_VGyk",52.670033,-7.233320599999999,"Neworchard, New Orchard, Co. Kilkenny, Ireland",,GEOMETRIC_CENTER,South-East (IE),7050.0,Kilkenny Rural,0.7549636284450604,1.854799367537476
31/03/2010,"Leugh, Threecastles",Kilkenny,220264.0,Yes,New Dwelling house /Apartment,greater than 125 sq metres,ChIJcQLyKckkXUgR2lIflCbylPw,"https://maps.googleapis.com/maps/api/geocode/json?address=Leugh,+Threecastles,+Kilkenny,+Ireland&key=AIzaSyA1vJtESoYOSSuM_yTI1j1jpPGpxx_VGyk",52.7052504,-7.3559559000000005,"Leugh, Co. Kilkenny, Ireland",,APPROXIMATE,South-East (IE),7052.0,Odagh,2.0510719235948747,9.424880081165492
01/04/2010,"Apartment No 1, Castlehill House, Bennettsbridge Road",Kilkenny,203000.0,No,Second-Hand Dwelling house /Apartment,,ChIJ99X0rLowXUgRxqj5KrDIvVA,"https://maps.googleapis.com/maps/api/geocode/json?address=Apartment+No+1,+Castlehill+House,+Bennettsbridge+Road,+Kilkenny,+Ireland&key=AIzaSyA1vJtESoYOSSuM_yTI1j1jpPGpxx_VGyk",52.642780099999996,-7.2314713999999976,"Apartment 12, Castlehill House, Bennettsbridge Rd, Castlehill, Archersgrove, Co. Kilkenny, Ireland",,ROOFTOP,South-East (IE),7050.0,Kilkenny Rural,0.469738176114651,1.5187061513872715
01/04/2010,"No27 Pococke Lower, Johnswell Road, Kilkenny",Kilkenny,175000.0,No,Second-Hand Dwelling house /Apartment,,ChIJXc_-Sxs6XUgRh_hGr0f9b4c,"https://maps.googleapis.com/maps/api/geocode/json?address=No27+Pococke+Lower,+Johnswell+Road,+Kilkenny,+Ireland&key=AIzaSyA1vJtESoYOSSuM_yTI1j1jpPGpxx_VGyk",52.6660392,-7.2299731,"27 Pococke Lower, Charterschool Land, Kilkenny, R95 F8X2, Ireland",R95 F8X2,ROOFTOP,South-East (IE),7050.0,Kilkenny Rural,0.2634595706937277,1.5713000135126922
08/04/2010,"Coan West, Coan",Kilkenny,265000.0,Yes,New Dwelling house /Apartment,greater than or equal to 38 sq metres and less than 125 sq metres,ChIJs8YLt4tAXUgRV-HzSerjoho,"https://maps.googleapis.com/maps/api/geocode/json?address=Coan+West,+Coan,+Kilkenny,+Ireland&key=AIzaSyA1vJtESoYOSSuM_yTI1j1jpPGpxx_VGyk",52.78630179999999,-7.1192731,"Coan West, Coan, Co. Kilkenny, Ireland",,APPROXIMATE,South-East (IE),7031.0,Mothell,5.752780204081144,16.87716443661068
08/04/2010,"High Street, Inistioge, Kilkenny",Kilkenny,160000.0,No,Second-Hand Dwelling house /Apartment,,ChIJdf_WD54wXUgRuDzWHlNGBBU,"https://maps.googleapis.com/maps/api/geocode/json?address=High+Street,+Inistioge,+Kilkenny,+Ireland&key=AIzaSyA1vJtESoYOSSuM_yTI1j1jpPGpxx_VGyk",52.6516238,-7.253040999999999,"20 High St, Gardens, Kilkenny, Co. Kilkenny, R95 XW22, Ireland",R95 XW22,ROOFTOP,South-East (IE),7001.0,Kilkenny No. 1 Urban,0.08652852433207779,0.6715902385619066
09/04/2010,"15 Meadow Way, Castlecomer Road, Kilkenny",Kilkenny,190000.0,No,Second-Hand Dwelling house /Apartment,,ChIJQ1YiIA06XUgRBONGzcf0gMs,"https://maps.googleapis.com/maps/api/geocode/json?address=15+Meadow+Way,+Castlecomer+Road,+Kilkenny,+Ireland&key=AIzaSyA1vJtESoYOSSuM_yTI1j1jpPGpxx_VGyk",52.660861,-7.247760699999999,"15 Meadow Way, Newpark Lower, Kilkenny, R95 N40E, Ireland",R95 N40E,ROOFTOP,South-East (IE),7002.0,Kilkenny No. 2 Urban,0.29370580578967004,0.754596488492964
09/04/2010,"21 Patricks Gate, Loughboy, Kilkenny",Kilkenny,170000.0,Yes,New Dwelling house /Apartment,greater than 125 sq metres,ChIJsx5jMZYwXUgR2yIYepDDyIo,"https://maps.googleapis.com/maps/api/geocode/json?address=21+Patricks+Gate,+Loughboy,+Kilkenny,+Ireland&key=AIzaSyA1vJtESoYOSSuM_yTI1j1jpPGpxx_VGyk",52.6391267,-7.244793,"21 St Patrick's Gate, Gallowshill, Kilkenny, R95 F7X0, Ireland",R95 F7X0,ROOFTOP,South-East (IE),7050.0,Kilkenny Rural,0.18560712110989805,1.695161542564371
09/04/2010,"Carrigeen, Mooncoin",Kilkenny,95000.0,No,Second-Hand Dwelling house /Apartment,,ChIJx11oOqjaQkgR8HLfN6nHABg,"https://maps.googleapis.com/maps/api/geocode/json?address=Carrigeen,+Mooncoin,+Kilkenny,+Ireland&key=AIzaSyA1vJtESoYOSSuM_yTI1j1jpPGpxx_VGyk",52.2951134,-7.2571128,"Mooncoin, Co. Kilkenny, Ireland",,APPROXIMATE,South-East (IE),7109.0,Pollrone,0.1935441839334518,26.393488307459016
12/04/2010,"7 Breagagh Place, Kells Road, Kilkenny",Kilkenny,212000.0,No,Second-Hand Dwelling house /Apartment,,ChIJ5-BRZZowXUgRc8coB3MhnqY,"https://maps.googleapis.com/maps/api/geocode/json?address=7+Breagagh+Place,+Kells+Road,+Kilkenny,+Ireland&key=AIzaSyA1vJtESoYOSSuM_yTI1j1jpPGpxx_VGyk",52.6422652,-7.2542309000000005,"7 Kells Rd, Breagagh Pl, Cashel, Kilkenny, R95 X3H3, Ireland",R95 X3H3,ROOFTOP,South-East (IE),7050.0,Kilkenny Rural,0.4859406660523639,1.5071206660678365
13/04/2010,"2 Mayfield, Kilkenny",Kilkenny,230000.0,No,Second-Hand Dwelling house /Apartment,,ChIJv_v-KJowXUgRYSDqaMfM34E,"https://maps.googleapis.com/maps/api/geocode/json?address=2+Mayfield,+Kilkenny,+Ireland&key=AIzaSyA1vJtESoYOSSuM_yTI1j1jpPGpxx_VGyk",52.64388080000001,-7.2521162,"2 Kells Rd, Mayfield, Cashel, Kilkenny, R95 TVT6, Ireland",R95 TVT6,ROOFTOP,South-East (IE),7050.0,Kilkenny Rural,0.33129006526697546,1.2832349948973834
13/04/2010,"Cotterstown, Windgap",Kilkenny,30000.0,No,Second-Hand Dwelling house /Apartment,,ChIJES0wpKjUQkgRMOExl6nHAAo,"https://maps.googleapis.com/maps/api/geocode/json?address=Cotterstown,+Windgap,+Kilkenny,+Ireland&key=AIzaSyA1vJtESoYOSSuM_yTI1j1jpPGpxx_VGyk",52.461296,-7.3962011999999975,"Meallaghmore Upper, Windgap, Co. Kilkenny, Ireland",,APPROXIMATE,South-East (IE),7010.0,Killamery,0.16923930197971546,18.08671193135632
14/04/2010,"26 Burrells Walk, College Park, Callan Road",Kilkenny,177000.0,Yes,New Dwelling house /Apartment,greater than or equal to 38 sq metres and less than 125 sq metres,ChIJYR1P2IcwXUgRKVHp5bE5tPo,"https://maps.googleapis.com/maps/api/geocode/json?address=26+Burrells+Walk,+College+Park,+Callan+Road,+Kilkenny,+Ireland&key=AIzaSyA1vJtESoYOSSuM_yTI1j1jpPGpxx_VGyk",52.640775,-7.269561299999999,"26 Burrell's Walk, Wetland, Callan Road, Co. Kilkenny, R95 V0F8, Ireland",R95 V0F8,ROOFTOP,South-East (IE),7050.0,Kilkenny Rural,1.2359970992027025,2.284750608338587
15/04/2010,"23 Chapelfield, Urlingford",Kilkenny,187000.0,Yes,New Dwelling house /Apartment,greater than or equal to 38 sq metres and less than 125 sq metres,ChIJJX6ucVPfXEgRcNMxl6nHAAo,"https://maps.googleapis.com/maps/api/geocode/json?address=23+Chapelfield,+Urlingford,+Kilkenny,+Ireland&key=AIzaSyA1vJtESoYOSSuM_yTI1j1jpPGpxx_VGyk",52.719749,-7.583866599999999,"Urlingford, Co. Kilkenny, Ireland",,APPROXIMATE,South-East (IE),7098.0,Urlingford,0.05214452417123827,24.030651615790447
16/04/2010,"12 The Greens, Jerpoint West, Thomastown",Kilkenny,165000.0,Yes,New Dwelling house /Apartment,greater than or equal to 38 sq metres and less than 125 sq metres,ChIJ71MAxo40XUgRYlnHGajHACY,"https://maps.googleapis.com/maps/api/geocode/json?address=12+The+Greens,+Jerpoint+West,+Thomastown,+Kilkenny,+Ireland&key=AIzaSyA1vJtESoYOSSuM_yTI1j1jpPGpxx_VGyk",52.521283,-7.1659684000000015,"Jerpoint West, Ballylinch, Co. Kilkenny, Ireland",,APPROXIMATE,South-East (IE),7084.0,Thomastown,1.903937141579732,1.1544974882250465
16/04/2010,"34 Whitecastle, Knocktopher",Kilkenny,237048.0,Yes,New Dwelling house /Apartment,greater than 125 sq metres,ChIJKzluEjIzXUgRANlGzZNfmTY,"https://maps.googleapis.com/maps/api/geocode/json?address=34+Whitecastle,+Knocktopher,+Kilkenny,+Ireland&key=AIzaSyA1vJtESoYOSSuM_yTI1j1jpPGpxx_VGyk",52.48714079999999,-7.216799899999999,"34 White's Castle, Whitescastle Lower, Knocktopher, Co. Kilkenny, R95 XY59, Ireland",R95 XY59,ROOFTOP,South-East (IE),7080.0,Knocktopher,0.1547268017839115,6.078551787977685
16/04/2010,"49 The Paddocks, Kells Road, Kilkenny",Kilkenny,197500.0,No,Second-Hand Dwelling house /Apartment,,ChIJeWyVopAwXUgRg5y-L7AUybs,"https://maps.googleapis.com/maps/api/geocode/json?address=49+The+Paddocks,+Kells+Road,+Kilkenny,+Ireland&key=AIzaSyA1vJtESoYOSSuM_yTI1j1jpPGpxx_VGyk",52.64108620000001,-7.252791499999999,"49 Kells Rd, The Paddocks, Cashel, Kilkenny, R95 F8EC, Ireland",R95 F8EC,ROOFTOP,South-East (IE),7050.0,Kilkenny Rural,0.5711113331333566,1.5871582814120748
16/04/2010,"No. 85 Beechlawns, Johns Well Road",Kilkenny,160000.0,No,Second-Hand Dwelling house /Apartment,,ChIJaS0M2g86XUgRkpiGroRkGag,"https://maps.googleapis.com/maps/api/geocode/json?address=No.+85+Beechlawns,+Johns+Well+Road,+Kilkenny,+Ireland&key=AIzaSyA1vJtESoYOSSuM_yTI1j1jpPGpxx_VGyk",52.6636037,-7.2387856,"85 Beechlawns, Newpark Upper, Kilkenny, R95 H2T0, Ireland",R95 H2T0,ROOFTOP,South-East (IE),7050.0,Kilkenny Rural,0.14977797263013842,1.0567658601469203
19/04/2010,"25 Talbots Gate, Freshford Road, Kilkenny",Kilkenny,275000.0,No,Second-Hand Dwelling house /Apartment,,ChIJ0Y4AQWY6XUgRN_uizXo0trM,"https://maps.googleapis.com/maps/api/geocode/json?address=25+Talbots+Gate,+Freshford+Road,+Kilkenny,+Ireland&key=AIzaSyA1vJtESoYOSSuM_yTI1j1jpPGpxx_VGyk",52.669138600000004,-7.2675719,"25 Talbot's Gate, Bóthar Achadh Úr, Talbotsinch, Kilkenny, R95 P5F1, Ireland",R95 P5F1,ROOFTOP,South-East (IE),7050.0,Kilkenny Rural,0.5999585697178523,2.2753512764789314
21/04/2010,"Clontubbrid, Freshford",Kilkenny,35000.0,Yes,New Dwelling house /Apartment,greater than 125 sq metres,ChIJudjX8AUjXUgRb4jgJoLpegY,"https://maps.googleapis.com/maps/api/geocode/json?address=Clontubbrid,+Freshford,+Kilkenny,+Ireland&key=AIzaSyA1vJtESoYOSSuM_yTI1j1jpPGpxx_VGyk",52.762591500000006,-7.409652799999999,"Clontubbrid, Ballylarkin, Co. Kilkenny, Ireland",,APPROXIMATE,South-East (IE),7095.0,Lisdowney,3.4355077607020745,16.406155369101647
22/04/2010,"38 Kennyswell Road, Kilkenny",Kilkenny,100000.0,No,Second-Hand Dwelling house /Apartment,,ChIJAzezkXc6XUgRAzmp2J6xg6A,"https://maps.googleapis.com/maps/api/geocode/json?address=38+Kennyswell+Road,+Kilkenny,+Ireland&key=AIzaSyA1vJtESoYOSSuM_yTI1j1jpPGpxx_VGyk",52.6537678,-7.2605667,"38 Kennyswell Rd, Gardens, Kilkenny, R95 Y73K, Ireland",R95 Y73K,ROOFTOP,South-East (IE),7001.0,Kilkenny No. 1 Urban,0.2209200137172841,1.1083014709957395
23/04/2010,"12 Father Delahunty Terrace, Kilkenny",Kilkenny,110000.0,No,Second-Hand Dwelling house /Apartment,,ChIJs78fqIQwXUgRFhm7LiSosLk,"https://maps.googleapis.com/maps/api/geocode/json?address=12+Father+Delahunty+Terrace,+Kilkenny,+Ireland&key=AIzaSyA1vJtESoYOSSuM_yTI1j1jpPGpxx_VGyk",52.6465146,-7.2606426000000015,"Father Delahunty Terrace, Old Callan Rd, Walkinslough, Kilkenny, Ireland",,ROOFTOP,South-East (IE),7001.0,Kilkenny No. 1 Urban,0.4486160641515648,1.4133132084604387
23/04/2010,"12 Father Delahunty Terrace, Kilkenny",Kilkenny,110000.0,No,Second-Hand Dwelling house /Apartment,,ChIJs78fqIQwXUgRFhm7LiSosLk,"https://maps.googleapis.com/maps/api/geocode/json?address=12+Father+Delahunty+Terrace,+Kilkenny,+Ireland&key=AIzaSyA1vJtESoYOSSuM_yTI1j1jpPGpxx_VGyk",52.6465146,-7.2606426000000015,"Father Delahunty Terrace, Old Callan Rd, Walkinslough, Kilkenny, Ireland",,ROOFTOP,South-East (IE),7001.0,Kilkenny No. 1 Urban,0.4486160641515648,1.4133132084604387
23/04/2010,"22 Oakhill, Castlecomer",Kilkenny,140000.0,No,Second-Hand Dwelling house /Apartment,,ChIJ12h0zUg-XUgRYOcxl6nHAAo,"https://maps.googleapis.com/maps/api/geocode/json?address=22+Oakhill,+Castlecomer,+Kilkenny,+Ireland&key=AIzaSyA1vJtESoYOSSuM_yTI1j1jpPGpxx_VGyk",52.80546700000001,-7.209545400000001,"Castlecomer, Co. Kilkenny, Ireland",,APPROXIMATE,South-East (IE),7026.0,Castlecomer,0.1879501412930429,16.942070784397426
23/04/2010,"55 Rathview Park, Ferrybank",Kilkenny,325000.0,No,Second-Hand Dwelling house /Apartment,,ChIJQQIGF-bGQkgRpjxlcZoMJGU,"https://maps.googleapis.com/maps/api/geocode/json?address=55+Rathview+Park,+Ferrybank,+Kilkenny,+Ireland&key=AIzaSyA1vJtESoYOSSuM_yTI1j1jpPGpxx_VGyk",52.26029060000001,-7.0748669999999985,"55 Rathview Park, Ferrybank, Waterford, Co. Kilkenny, X91 W2V4, Ireland",X91 W2V4,ROOFTOP,South-East (IE),7106.0,Kilculliheen,0.7643290270361229,29.662121773730306
23/04/2010,"Premises @ Carrickshock, Hugginstown, Kilkenny",Kilkenny,130000.0,No,Second-Hand Dwelling house /Apartment,,ChIJwYIkWWvNQkgR8AYyl6nHAAo,"https://maps.googleapis.com/maps/api/geocode/json?address=Premises+@+Carrickshock,+Hugginstown,+Kilkenny,+Ireland&key=AIzaSyA1vJtESoYOSSuM_yTI1j1jpPGpxx_VGyk",52.4519025,-7.251225199999999,"Kyleva, Hugginstown, Co. Kilkenny, Ireland",,APPROXIMATE,South-East (IE),7061.0,Aghaviller,3.8383447215902695,10.510263814444826
24/04/2010,"Ossory Hill, Johnswell Road, Kilkenny",Kilkenny,345000.0,No,Second-Hand Dwelling house /Apartment,,ChIJO7ynqWM4XUgRvXbVouM0dwI,"https://maps.googleapis.com/maps/api/geocode/json?address=Ossory+Hill,+Johnswell+Road,+Kilkenny,+Ireland&key=AIzaSyA1vJtESoYOSSuM_yTI1j1jpPGpxx_VGyk",52.6999522,-7.1374327000000015,"Ossoryhill, Clara, Co. Kilkenny, Ireland",,APPROXIMATE,South-East (IE),7055.0,Rathcoole,6.1610692378051795,8.754480245241881
26/04/2010,"1 Nuenna Court, Freshford",Kilkenny,117000.0,No,Second-Hand Dwelling house /Apartment,,ChIJ87UZA38jXUgRrMgD4bYt_p0,"https://maps.googleapis.com/maps/api/geocode/json?address=1+Nuenna+Court,+Freshford,+Kilkenny,+Ireland&key=AIzaSyA1vJtESoYOSSuM_yTI1j1jpPGpxx_VGyk",52.7322128,-7.405508099999999,"Nuenna Court, Freshford Lots, Freshford, Co. Kilkenny, Ireland",,ROOFTOP,South-East (IE),7047.0,Freshford,0.5023274345012894,13.900334656427646
27/04/2010,"Lir Cottage, Ballyhimmin, Castlecomer",Kilkenny,100000.0,No,Second-Hand Dwelling house /Apartment,,ChIJzVXS71A-XUgRQlrHGajHACY,"https://maps.googleapis.com/maps/api/geocode/json?address=Lir+Cottage,+Ballyhimmin,+Castlecomer,+Kilkenny,+Ireland&key=AIzaSyA1vJtESoYOSSuM_yTI1j1jpPGpxx_VGyk",52.79244540000001,-7.2189130000000015,"Ballyhimmin, Co. Kilkenny, Ireland",,APPROXIMATE,South-East (IE),7026.0,Castlecomer,1.2173449993584506,15.427738525970259
28/04/2010,"Ennisnag, Stoneyford",Kilkenny,235000.0,Yes,New Dwelling house /Apartment,greater than 125 sq metres,ChIJGfG5jcMzXUgRQhHAGajHACY,"https://maps.googleapis.com/maps/api/geocode/json?address=Ennisnag,+Stoneyford,+Kilkenny,+Ireland&key=AIzaSyA1vJtESoYOSSuM_yTI1j1jpPGpxx_VGyk",52.55321439999999,-7.2355098999999985,"Ennisnag, Co. Kilkenny, Ireland",,APPROXIMATE,South-East (IE),7070.0,Ennisnag,5.146812934658669,6.734613339630116
29/04/2010,"21 Glendine Court, Kilkenny",Kilkenny,350000.0,No,Second-Hand Dwelling house /Apartment,,ChIJ43Hh7xQ6XUgRLhLcwzm4n3w,"https://maps.googleapis.com/maps/api/geocode/json?address=21+Glendine+Court,+Kilkenny,+Ireland&key=AIzaSyA1vJtESoYOSSuM_yTI1j1jpPGpxx_VGyk",52.67067309999999,-7.249450999999999,"Dunsda, 21 Glendine Ct, Glendine, Kilkenny, R95 C95X, Ireland",R95 C95X,ROOFTOP,South-East (IE),7050.0,Kilkenny Rural,0.2336350757965624,1.8374022381682318
29/04/2010,"Ballintlea, Mullinavat",Kilkenny,120000.0,No,Second-Hand Dwelling house /Apartment,,ChIJt9l86EnJQkgRJXhGzH5odIM,"https://maps.googleapis.com/maps/api/geocode/json?address=Ballintlea,+Mullinavat,+Kilkenny,+Ireland&key=AIzaSyA1vJtESoYOSSuM_yTI1j1jpPGpxx_VGyk",52.3793028,-7.1407605,"Ballintlea, New Chapel, Co. Kilkenny, Ireland",,APPROXIMATE,South-East (IE),7103.0,Kilbeacon,0.7052811977122805,16.00265247279992
29/04/2010,"Ballyallog, Tullogher",Kilkenny,255000.0,No,Second-Hand Dwelling house /Apartment,,ChIJAROtNXPKQkgRUltTu6fHACY,"https://maps.googleapis.com/maps/api/geocode/json?address=Ballyallog,+Tullogher,+Kilkenny,+Ireland&key=AIzaSyA1vJtESoYOSSuM_yTI1j1jpPGpxx_VGyk",52.42963,-7.05542,"Cooleen, Tullogher, Co. Kilkenny, Ireland",,APPROXIMATE,South-East (IE),7036.0,Listerlin,5.3995573367226255,12.177815442758927
03/05/2010,"44 Hebron Park, Kilkenny",Kilkenny,100000.0,No,Second-Hand Dwelling house /Apartment,,ChIJvUGXTAQ6XUgRqW5rZBjcDhA,"https://maps.googleapis.com/maps/api/geocode/json?address=44+Hebron+Park,+Kilkenny,+Ireland&key=AIzaSyA1vJtESoYOSSuM_yTI1j1jpPGpxx_VGyk",52.660772800000004,-7.231837599999999,"44 Hebron Park, Garrincreen, Kilkenny, R95 K1C5, Ireland",R95 K1C5,ROOFTOP,South-East (IE),7050.0,Kilkenny Rural,0.3709672719128204,1.0477389892564417
03/05/2010,"62 Ardilea, Lovers Lane, Kilkenny",Kilkenny,146017.0,Yes,New Dwelling house /Apartment,greater than or equal to 38 sq metres and less than 125 sq metres,ChIJL76MaQ06XUgR1lFVWL0Fyi4,"https://maps.googleapis.com/maps/api/geocode/json?address=62+Ardilea,+Lovers+Lane,+Kilkenny,+Ireland&key=AIzaSyA1vJtESoYOSSuM_yTI1j1jpPGpxx_VGyk",52.6624615,-7.248002599999999,"62 Ardilea, Castlecomer Rd, Newpark Lower, Kilkenny, R95 YC44, Ireland",R95 YC44,ROOFTOP,South-East (IE),7050.0,Kilkenny Rural,0.29936087958197943,0.9291268525863912
04/05/2010,"12/13 Castlecomer Rd, Kilkenny",Kilkenny,60000.0,No,Second-Hand Dwelling house /Apartment,,ChIJv1YFcgs6XUgRQx-xnWFjC1s,"https://maps.googleapis.com/maps/api/geocode/json?address=12/13+Castlecomer+Rd,+Kilkenny,+Ireland&key=AIzaSyA1vJtESoYOSSuM_yTI1j1jpPGpxx_VGyk",52.6571527,-7.2458157000000005,"12-13 Castlecomer Rd, Pennefatherslot, Kilkenny, R95 F598, Ireland",R95 F598,ROOFTOP,South-East (IE),7002.0,Kilkenny No. 2 Urban,0.01163480347493608,0.3220928334153513
04/05/2010,"21 Marble Court, Paulstown",Kilkenny,190000.0,No,Second-Hand Dwelling house /Apartment,,ChIJBW10NBdGXUgRXgoK8nZnlCA,"https://maps.googleapis.com/maps/api/geocode/json?address=21+Marble+Court,+Paulstown,+Kilkenny,+Ireland&key=AIzaSyA1vJtESoYOSSuM_yTI1j1jpPGpxx_VGyk",52.67862599999999,-7.0239579,"21 Marble Ct, Paulstown, Co. Kilkenny, R95 F447, Ireland",R95 F447,ROOFTOP,South-East (IE),7054.0,Paulstown,0.17360698476885128,15.04262906164353
05/05/2010,"9 Donaguile Heights, Castlecomer",Kilkenny,148000.0,No,Second-Hand Dwelling house /Apartment,,ChIJHyeRvkg-XUgR9HE3vG9REkM,"https://maps.googleapis.com/maps/api/geocode/json?address=9+Donaguile+Heights,+Castlecomer,+Kilkenny,+Ireland&key=AIzaSyA1vJtESoYOSSuM_yTI1j1jpPGpxx_VGyk",52.801062800000004,-7.2149198000000005,"9 Donaguile Heights, Glebe, Castlecomer, Co. Kilkenny, R95 T9Y9, Ireland",R95 T9Y9,ROOFTOP,South-East (IE),7026.0,Castlecomer,0.3337967507002376,16.410406326252733
05/05/2010,"Garrandagh, Main Street, Mullinavat",Kilkenny,110000.0,No,Second-Hand Dwelling house /Apartment,,ChIJY05358LOQkgRsIgxl6nHAAo,"https://maps.googleapis.com/maps/api/geocode/json?address=Garrandagh,+Main+Street,+Mullinavat,+Kilkenny,+Ireland&key=AIzaSyA1vJtESoYOSSuM_yTI1j1jpPGpxx_VGyk",52.369164700000006,-7.170877799999999,"Mullinavat, Co. Kilkenny, Ireland",,APPROXIMATE,South-East (IE),7107.0,Killahy,0.0504193945597504,17.183310565199914
06/05/2010,"9 Togher Crescent, Urlingford",Kilkenny,155000.0,No,Second-Hand Dwelling house /Apartment,,ChIJdYI4rlLfXEgRLl_ROCEFiuI,"https://maps.googleapis.com/maps/api/geocode/json?address=9+Togher+Crescent,+Urlingford,+Kilkenny,+Ireland&key=AIzaSyA1vJtESoYOSSuM_yTI1j1jpPGpxx_VGyk",52.71788000000001,-7.5871039000000025,"9 Togher Cres, Urlingford, Co. Kilkenny, E41 EK54, Ireland",E41 EK54,ROOFTOP,South-East (IE),7098.0,Urlingford,0.032161575189870645,24.177684772453503
07/05/2010,"Westcourt North, Callan",Kilkenny,70000.0,No,Second-Hand Dwelling house /Apartment,,ChIJX7k1dasuXUgRMl4WKjd8uzE,"https://maps.googleapis.com/maps/api/geocode/json?address=Westcourt+North,+Callan,+Kilkenny,+Ireland&key=AIzaSyA1vJtESoYOSSuM_yTI1j1jpPGpxx_VGyk",52.559676399999994,-7.415360699999999,"Westcourt North, Geraldine, Co. Kilkenny, Ireland",,APPROXIMATE,South-East (IE),7004.0,Callan Rural,2.4294321785560014,15.640781182573294
10/05/2010,"35 Greenoaks, Rockshire Rd., Ferrybank",Kilkenny,175500.0,No,Second-Hand Dwelling house /Apartment,,ChIJs5sq04jGQkgR_nX8chsJspw,"https://maps.googleapis.com/maps/api/geocode/json?address=35+Greenoaks,+Rockshire+Rd.,+Ferrybank,+Kilkenny,+Ireland&key=AIzaSyA1vJtESoYOSSuM_yTI1j1jpPGpxx_VGyk",52.2704223,-7.103240200000001,"35 Rockshire Rd, Greenoaks, Ferrybank, Waterford, Co. Kilkenny, X91 Y0X8, Ireland",X91 Y0X8,ROOFTOP,South-East (IE),7106.0,Kilculliheen,0.3551503132678653,28.275606693153385
10/05/2010,"Filbuckstown, Mooncoin",Kilkenny,195000.0,No,Second-Hand Dwelling house /Apartment,,ChIJ5aRDWKPaQkgRQIkxl6nHAAo,"https://maps.googleapis.com/maps/api/geocode/json?address=Filbuckstown,+Mooncoin,+Kilkenny,+Ireland&key=AIzaSyA1vJtESoYOSSuM_yTI1j1jpPGpxx_VGyk",52.291237,-7.250934299999999,"Filbuckstown, Mooncoin, Co. Kilkenny, Ireland",,APPROXIMATE,South-East (IE),7110.0,Portnascully,0.403831924714452,26.696579186979108
11/05/2010,"119 Ashfield East, New Orchard, Kilkenny",Kilkenny,172000.0,No,Second-Hand Dwelling house /Apartment,,ChIJIzXbfRw6XUgRFH6uZq58ze4,"https://maps.googleapis.com/maps/api/geocode/json?address=119+Ashfield+East,+New+Orchard,+Kilkenny,+Ireland&key=AIzaSyA1vJtESoYOSSuM_yTI1j1jpPGpxx_VGyk",52.667355900000004,-7.2297300999999985,"119 Ashfield E, Charterschool Land, Kilkenny, R95 D2F8, Ireland",R95 D2F8,ROOFTOP,South-East (IE),7050.0,Kilkenny Rural,0.4065847687888992,1.7014893918952532
11/05/2010,"12 Golf Links Road, Kilkenny",Kilkenny,140000.0,No,Second-Hand Dwelling house /Apartment,,ChIJ-7HbFA46XUgRLBIo0BrIgnU,"https://maps.googleapis.com/maps/api/geocode/json?address=12+Golf+Links+Road,+Kilkenny,+Ireland&key=AIzaSyA1vJtESoYOSSuM_yTI1j1jpPGpxx_VGyk",52.6625671,-7.241382400000001,"12 Golf Links Rd, Newpark Upper, Kilkenny, R95 Y9NY, Ireland",R95 Y9NY,ROOFTOP,South-East (IE),7050.0,Kilkenny Rural,0.24174611422909906,0.903649441415334
11/05/2010,"Listrolin, Mullinavat",Kilkenny,175000.0,Yes,New Dwelling house /Apartment,greater than or equal to 38 sq metres and less than 125 sq metres,ChIJtWXx1UjOQkgRUulSu6fHACY,"https://maps.googleapis.com/maps/api/geocode/json?address=Listrolin,+Mullinavat,+Kilkenny,+Ireland&key=AIzaSyA1vJtESoYOSSuM_yTI1j1jpPGpxx_VGyk",52.3606602,-7.2273163999999985,"Listrolin, Co. Kilkenny, Ireland",,APPROXIMATE,South-East (IE),7021.0,Tubbrid,3.9121371586393656,18.82710121695282
14/05/2010,"28 Station House, Macdonagh Junction",Kilkenny,142731.0,Yes,New Dwelling house /Apartment,greater than or equal to 38 sq metres and less than 125 sq metres,ChIJrbfM_Qo6XUgRYr_jhQvr2tE,"https://maps.googleapis.com/maps/api/geocode/json?address=28+Station+House,+Macdonagh+Junction,+Kilkenny,+Ireland&key=AIzaSyA1vJtESoYOSSuM_yTI1j1jpPGpxx_VGyk",52.655396100000004,-7.2450439000000015,"Macdonagh Junction, Kilkenny, Ireland",,APPROXIMATE,South-East (IE),7002.0,Kilkenny No. 2 Urban,0.04662148734290215,0.1230258518967378
18/05/2010,"68 The Paddocks, Kells Road, Kilkenny",Kilkenny,182500.0,No,Second-Hand Dwelling house /Apartment,,ChIJM0ophJAwXUgR5e-LfybV0RU,"https://maps.googleapis.com/maps/api/geocode/json?address=68+The+Paddocks,+Kells+Road,+Kilkenny,+Ireland&key=AIzaSyA1vJtESoYOSSuM_yTI1j1jpPGpxx_VGyk",52.6411059,-7.2541822,"68 Kells Rd, The Paddocks, Cashel, Kilkenny, R95 FK4A, Ireland",R95 FK4A,ROOFTOP,South-East (IE),7050.0,Kilkenny Rural,0.6147607644882805,1.62191675104563
18/05/2010,"Ballinaboola Cross, Maddoxtown",Kilkenny,215000.0,No,Second-Hand Dwelling house /Apartment,,ChIJ9d0TSkE2XUgRsz00TQ5oPh4,"https://maps.googleapis.com/maps/api/geocode/json?address=Ballinaboola+Cross,+Maddoxtown,+Kilkenny,+Ireland&key=AIzaSyA1vJtESoYOSSuM_yTI1j1jpPGpxx_VGyk",52.6005696,-7.128436,"Ballynaboley, Co. Kilkenny, Ireland",,APPROXIMATE,South-East (IE),7064.0,Bennettsbridge,3.8158215476109136,8.71093187955261
19/05/2010,"Ballyhale, Kilkenny",Kilkenny,195000.0,Yes,New Dwelling house /Apartment,greater than 125 sq metres,ChIJt5lMyMDMQkgR0NUxl6nHAAo,"https://maps.googleapis.com/maps/api/geocode/json?address=Ballyhale,+Kilkenny,+Ireland&key=AIzaSyA1vJtESoYOSSuM_yTI1j1jpPGpxx_VGyk",52.466657,-7.2002407999999996,"Ballyhale, Co. Kilkenny, Ireland",,APPROXIMATE,South-East (IE),7062.0,Ballyhale,0.08100477397727697,7.166028021052622
19/05/2010,"Danesrath Lodge, Danesrath, Knocktopher",Kilkenny,700000.0,No,Second-Hand Dwelling house /Apartment,,ChIJj2aHkUMzXUgRBsu4gU2LfWM,"https://maps.googleapis.com/maps/api/geocode/json?address=Danesrath+Lodge,+Danesrath,+Knocktopher,+Kilkenny,+Ireland&key=AIzaSyA1vJtESoYOSSuM_yTI1j1jpPGpxx_VGyk",52.5009172,-7.1983048,"Danesrath Lodge, Danesrath, Knocktopher, Co. Kilkenny, Ireland",,ROOFTOP,South-East (IE),7076.0,Jerpoint Church,1.9855494873917776,4.140295202855513
20/05/2010,"3 Mayfield Road, The Beeches, Ballyrobin Ferrybank",Kilkenny,212910.0,Yes,New Dwelling house /Apartment,greater than or equal to 38 sq metres and less than 125 sq metres,ChIJcbR3U2LGQkgRElvHGajHACY,"https://maps.googleapis.com/maps/api/geocode/json?address=3+Mayfield+Road,+The+Beeches,+Ballyrobin+Ferrybank,+Kilkenny,+Ireland&key=AIzaSyA1vJtESoYOSSuM_yTI1j1jpPGpxx_VGyk",52.2783734,-7.1105984,"Ballyrobin, Co. Kilkenny, Ireland",,APPROXIMATE,South-East (IE),7106.0,Kilculliheen,0.8929601272522054,27.344428758205762
20/05/2010,"5 Rosemount Avenue, Artane",Kilkenny,340000.0,No,Second-Hand Dwelling house /Apartment,,ChIJRUkSTL8PZ0gRH78ep9RPKO4,"https://maps.googleapis.com/maps/api/geocode/json?address=5+Rosemount+Avenue,+Artane,+Kilkenny,+Ireland&key=AIzaSyA1vJtESoYOSSuM_yTI1j1jpPGpxx_VGyk",53.3802542,-6.1985918,"85 Rosemount Ave, Northside, Dublin 5, D05 EV82, Ireland",D05 EV82,ROOFTOP,Dublin,2065.0,Harmonstown B,86.51441994082933,106.7891440594787
21/05/2010,"12 Arbourmount, Rockshire, Ferrybank",Kilkenny,290749.0,Yes,New Dwelling house /Apartment,greater than 125 sq metres,ChIJ6xxMtIjGQkgRxzoDEDLuiRw,"https://maps.googleapis.com/maps/api/geocode/json?address=12+Arbourmount,+Rockshire,+Ferrybank,+Kilkenny,+Ireland&key=AIzaSyA1vJtESoYOSSuM_yTI1j1jpPGpxx_VGyk",52.270560100000004,-7.104595699999999,"12 Rockshire Rd, Arbourmount, Ferrybank, Waterford, Co. Kilkenny, X91 T6WA, Ireland",X91 T6WA,ROOFTOP,South-East (IE),7106.0,Kilculliheen,0.2894653510607396,28.25037254000336
24/05/2010,"41 Father Murphy Square, Kilkenny",Kilkenny,135000.0,No,Second-Hand Dwelling house /Apartment,,ChIJ-7C374IwXUgRsHbfwsnk5ig,"https://maps.googleapis.com/maps/api/geocode/json?address=41+Father+Murphy+Square,+Kilkenny,+Ireland&key=AIzaSyA1vJtESoYOSSuM_yTI1j1jpPGpxx_VGyk",52.6498892,-7.2630649000000025,"41 Father Murphy Square, Lyons, Kilkenny, R95 X6AK, Ireland",R95 X6AK,ROOFTOP,South-East (IE),7001.0,Kilkenny No. 1 Urban,0.5937886314625238,1.3685882522093131
26/05/2010,"Archersfield House, Castle Road",Kilkenny,595000.0,No,Second-Hand Dwelling house /Apartment,,ChIJn9KSiKEwXUgRR8iLOxrV5Hk,"https://maps.googleapis.com/maps/api/geocode/json?address=Archersfield+House,+Castle+Road,+Kilkenny,+Ireland&key=AIzaSyA1vJtESoYOSSuM_yTI1j1jpPGpxx_VGyk",52.647796299999996,-7.243611199999999,"Archersfield House, Bennettsbridge Rd, Dukesmeadows, Kilkenny, Ireland",,ROOFTOP,South-East (IE),7002.0,Kilkenny No. 2 Urban,0.22361465941506967,0.7299142408820648
26/05/2010,"Ullid, Kilmacow, Kilkenny",Kilkenny,112000.0,No,Second-Hand Dwelling house /Apartment,,ChIJkREto47PQkgRxKtQWcCAtJQ,"https://maps.googleapis.com/maps/api/geocode/json?address=Ullid,+Kilmacow,+Kilkenny,+Ireland&key=AIzaSyA1vJtESoYOSSuM_yTI1j1jpPGpxx_VGyk",52.3167907,-7.206201999999997,"Ullid, Co. Kilkenny, Ireland",,APPROXIMATE,South-East (IE),7113.0,Ullid,2.0831610012119226,23.269600976453084
27/05/2010,"10A Burgess Court, Kells",Kilkenny,333000.0,No,Second-Hand Dwelling house /Apartment,,ChIJVSS_A0IyXUgR_7_rnhS9bxE,"https://maps.googleapis.com/maps/api/geocode/json?address=10A+Burgess+Court,+Kells,+Kilkenny,+Ireland&key=AIzaSyA1vJtESoYOSSuM_yTI1j1jpPGpxx_VGyk",52.5382292,-7.272388900000001,"10A Burgess Ct, Kellsborough, Kells, Co. Kilkenny, R95 AE80, Ireland",R95 AE80,ROOFTOP,South-East (IE),7009.0,Kells,6.970129559315024,8.506305460847727
31/05/2010,"6 Ardilea, Lover'S Lane, Castlecomer Road, Kilkenny",Kilkenny,300000.0,No,Second-Hand Dwelling house /Apartment,,ChIJEdkxRw06XUgR1_hOaul1if4,"https://maps.googleapis.com/maps/api/geocode/json?address=6+Ardilea,+Lover'S+Lane,+Castlecomer+Road,+Kilkenny,+Ireland&key=AIzaSyA1vJtESoYOSSuM_yTI1j1jpPGpxx_VGyk",52.6622316,-7.248576299999999,"6 Ardilea, Castlecomer Rd, Newpark Lower, Kilkenny, R95 X2P8, Ireland",R95 X2P8,ROOFTOP,South-East (IE),7002.0,Kilkenny No. 2 Urban,0.2932022321491864,0.9166634422551806
31/05/2010,"61 Chapelgate, Kilmacow",Kilkenny,198085.0,Yes,New Dwelling house /Apartment,greater than or equal to 38 sq metres and less than 125 sq metres,ChIJNbC3Gn7PQkgR1pONVx62ju0,"https://maps.googleapis.com/maps/api/geocode/json?address=61+Chapelgate,+Kilmacow,+Kilkenny,+Ireland&key=AIzaSyA1vJtESoYOSSuM_yTI1j1jpPGpxx_VGyk",52.31442389999999,-7.1804384999999975,"61 Chapelgate, Narrabaun South, Kilmacow, Co. Kilkenny, X91 E7K8, Ireland",X91 E7K8,ROOFTOP,South-East (IE),7113.0,Ullid,0.3808327852113668,23.30571310944556
01/06/2010,"Monassa, Callan",Kilkenny,250000.0,Yes,New Dwelling house /Apartment,greater than or equal to 38 sq metres and less than 125 sq metres,ChIJWTHKDx8tXUgRvH4SXfH1gMg,"https://maps.googleapis.com/maps/api/geocode/json?address=Monassa,+Callan,+Kilkenny,+Ireland&key=AIzaSyA1vJtESoYOSSuM_yTI1j1jpPGpxx_VGyk",52.496739,-7.3407657,"Monassa, Co. Kilkenny, Ireland",,APPROXIMATE,South-East (IE),7013.0,Mallardstown,5.5467921562284515,13.29746454451036
01/06/2010,"Pidgeon Park, Danesfort",Kilkenny,165000.0,No,Second-Hand Dwelling house /Apartment,,ChIJpQ3Oi6gwXUgRYBWH4x2tOJs,"https://maps.googleapis.com/maps/api/geocode/json?address=Pidgeon+Park,+Danesfort,+Kilkenny,+Ireland&key=AIzaSyA1vJtESoYOSSuM_yTI1j1jpPGpxx_VGyk",52.650592700000004,-7.231252099999999,"Shandon Park, Leggetsrath West, Kilkenny, Ireland",,GEOMETRIC_CENTER,South-East (IE),7050.0,Kilkenny Rural,0.031529449522353536,0.9205924719760644
02/06/2010,"38 Collaire Court, Callan",Kilkenny,155000.0,No,Second-Hand Dwelling house /Apartment,,ChIJ-apOQCQsXUgRqZH1l6E4-rc,"https://maps.googleapis.com/maps/api/geocode/json?address=38+Collaire+Court,+Callan,+Kilkenny,+Ireland&key=AIzaSyA1vJtESoYOSSuM_yTI1j1jpPGpxx_VGyk",52.5517968,-7.3793478000000015,"38 Collaire Ct, Moanamought Commons, Callan, Co. Kilkenny, R95 W292, Ireland",R95 W292,ROOFTOP,South-East (IE),7004.0,Callan Rural,1.180861727334169,14.612935389746854
03/06/2010,"2 Lintown View, Lintown Hall, Johnswell Road",Kilkenny,120000.0,No,Second-Hand Dwelling house /Apartment,,ChIJD2LW_A46XUgRhTkINBloVoA,"https://maps.googleapis.com/maps/api/geocode/json?address=2+Lintown+View,+Lintown+Hall,+Johnswell+Road,+Kilkenny,+Ireland&key=AIzaSyA1vJtESoYOSSuM_yTI1j1jpPGpxx_VGyk",52.66064889999999,-7.239154099999999,"2 Lintown View, Lintown Hall, Johnswell Road, Kilkenny, R95 DD70, Ireland",R95 DD70,ROOFTOP,South-East (IE),7050.0,Kilkenny Rural,0.2749741003402638,0.7398218125757471
04/06/2010,"20 O'Loughlin Road, Kilkenny",Kilkenny,128000.0,No,Second-Hand Dwelling house /Apartment,,ChIJQfeK_Qg6XUgRedjD47phIxo,"https://maps.googleapis.com/maps/api/geocode/json?address=20+O'Loughlin+Road,+Kilkenny,+Ireland&key=AIzaSyA1vJtESoYOSSuM_yTI1j1jpPGpxx_VGyk",52.65643499999999,-7.2378022999999985,"20 O'loughlin Rd, Pennefatherslot, Kilkenny, R95 HPH2, Ireland",R95 HPH2,ROOFTOP,South-East (IE),7050.0,Kilkenny Rural,0.13737881905618352,0.4349452535604093
04/06/2010,"Ash Cottage, Clashwilliam, Gowran",Kilkenny,135000.0,No,Second-Hand Dwelling house /Apartment,,ChIJ7yeffzZIXUgRwccZkG06YXk,"https://maps.googleapis.com/maps/api/geocode/json?address=Ash+Cottage,+Clashwilliam,+Gowran,+Kilkenny,+Ireland&key=AIzaSyA1vJtESoYOSSuM_yTI1j1jpPGpxx_VGyk",52.62559399999999,-7.076055,"Ash Cottage, Clashwilliam Upper, Gowran, Co. Kilkenny, Ireland",,ROOFTOP,South-East (IE),7048.0,Gowran,0.4669182989224289,11.739718239582555
04/06/2010,"Narabane, Kilmacow, Kilkenny",Kilkenny,127000.0,No,Second-Hand Dwelling house /Apartment,,ChIJR3PBwH3PQkgRIIkxl6nHAAo,"https://maps.googleapis.com/maps/api/geocode/json?address=Narabane,+Kilmacow,+Kilkenny,+Ireland&key=AIzaSyA1vJtESoYOSSuM_yTI1j1jpPGpxx_VGyk",52.312357299999995,-7.176911700000002,"Narrabaun South, Kilmacow, Co. Kilkenny, Ireland",,APPROXIMATE,South-East (IE),7113.0,Ullid,0.0577154141737464,23.51428172688919
07/06/2010,"11  The Meadows, Callan",Kilkenny,145000.0,No,Second-Hand Dwelling house /Apartment,,ChIJabyHhSIsXUgRsOcxl6nHAAo,"https://maps.googleapis.com/maps/api/geocode/json?address=11+The+Meadows,+Callan,+Kilkenny,+Ireland&key=AIzaSyA1vJtESoYOSSuM_yTI1j1jpPGpxx_VGyk",52.5448213,-7.3920331999999975,"Callan South, Callan, Co. Kilkenny, Ireland",,APPROXIMATE,South-East (IE),7005.0,Callan Urban,0.1460235878680179,15.755756177001293
08/06/2010,"174 Robertshill, Circular Road",Kilkenny,160000.0,No,Second-Hand Dwelling house /Apartment,,EiMxNzQgUm9iZXJ0cyBIaWxsLCBLaWxrZW5ueSwgSXJlbGFuZCIbEhkKFAoSCfsbmKWDMF1IEXcv-jfMz3DZEK4B,"https://maps.googleapis.com/maps/api/geocode/json?address=174+Robertshill,+Circular+Road,+Kilkenny,+Ireland&key=AIzaSyA1vJtESoYOSSuM_yTI1j1jpPGpxx_VGyk",52.6484446,-7.264072299999999,"174 Roberts Hill, Lyons, Kilkenny, Ireland",,RANGE_INTERPOLATED,South-East (IE),7001.0,Kilkenny No. 1 Urban,0.7091440137388776,1.4955792101431271
09/06/2010,"Tinnacouse, Skeoughvosteen",Kilkenny,255000.0,No,Second-Hand Dwelling house /Apartment,,ChIJ-4opNVBJXUgRLUFGOZHvZKA,"https://maps.googleapis.com/maps/api/geocode/json?address=Tinnacouse,+Skeoughvosteen,+Kilkenny,+Ireland&key=AIzaSyA1vJtESoYOSSuM_yTI1j1jpPGpxx_VGyk",52.591824100000004,-6.9911205,"Tomnahaha, Co. Kilkenny, Ireland",,GEOMETRIC_CENTER,South-East (IE),7082.0,Powerstown,4.225895888670572,13.11636531557317
11/06/2010,"3 Cherrywood, Castletown, Celbridge",Kilkenny,305000.0,No,Second-Hand Dwelling house /Apartment,,ChIJV6SC4aVxZ0gRMm7dSQBlDB4,"https://maps.googleapis.com/maps/api/geocode/json?address=3+Cherrywood,+Castletown,+Celbridge,+Kilkenny,+Ireland&key=AIzaSyA1vJtESoYOSSuM_yTI1j1jpPGpxx_VGyk",53.34714899999999,-6.535125099999999,"3 Cherrywood, Castletown, Celbridge, Co. Kildare, W23 TD66, Ireland",W23 TD66,ROOFTOP,Mid-East,6034.0,Celbridge,68.51332803683613,90.46103170746215
11/06/2010,"52A Windgap Hill, Maudlin Street, Kilkenny",Kilkenny,145000.0,No,Second-Hand Dwelling house /Apartment,,ChIJm2fOmaAwXUgRXd_-X97ma0E,"https://maps.googleapis.com/maps/api/geocode/json?address=52A+Windgap+Hill,+Maudlin+Street,+Kilkenny,+Ireland&key=AIzaSyA1vJtESoYOSSuM_yTI1j1jpPGpxx_VGyk",52.65238829999999,-7.2424436000000005,"Windgap Hill, Maudlin St, Highhays, Kilkenny, Ireland",,ROOFTOP,South-East (IE),7002.0,Kilkenny No. 2 Urban,0.2524693025764337,0.2283601342502691
11/06/2010,"Moneenroe, Castlecomer",Kilkenny,65000.0,No,Second-Hand Dwelling house /Apartment,,ChIJyz3zElQVXUgRMHLfN6nHABg,"https://maps.googleapis.com/maps/api/geocode/json?address=Moneenroe,+Castlecomer,+Kilkenny,+Ireland&key=AIzaSyA1vJtESoYOSSuM_yTI1j1jpPGpxx_VGyk",52.8350506,-7.1728770000000015,"Moneenroe, Co. Kilkenny, Ireland",,APPROXIMATE,South-East (IE),7030.0,Moneenroe,1.1862443095211648,20.633149810578207
14/06/2010,"Smithstown, Castlecomer",Kilkenny,230000.0,No,Second-Hand Dwelling house /Apartment,,ChIJi7yYS6U_XUgR4gq7GajHACY,"https://maps.googleapis.com/maps/api/geocode/json?address=Smithstown,+Castlecomer,+Kilkenny,+Ireland&key=AIzaSyA1vJtESoYOSSuM_yTI1j1jpPGpxx_VGyk",52.79617170000001,-7.1824804,"Smithstown, Co. Kilkenny, Ireland",,APPROXIMATE,South-East (IE),7030.0,Moneenroe,1.9712389027439443,16.280681267306015
16/06/2010,"3 Manor Walk, Rosehill, Kilkenny",Kilkenny,280000.0,No,Second-Hand Dwelling house /Apartment,,ChIJIZxv748wXUgR_fbMevglCrU,"https://maps.googleapis.com/maps/api/geocode/json?address=3+Manor+Walk,+Rosehill,+Kilkenny,+Ireland&key=AIzaSyA1vJtESoYOSSuM_yTI1j1jpPGpxx_VGyk",52.640404000000004,-7.2588887999999985,"3 Manor Walk, Kells Road, Rose Hill, Co. Kilkenny, R95 N6D8, Ireland",R95 N6D8,ROOFTOP,South-East (IE),7050.0,Kilkenny Rural,0.7673356843287643,1.84310522573593
16/06/2010,"63 Newpark, Kilkenny",Kilkenny,130000.0,No,Second-Hand Dwelling house /Apartment,,ChIJoeR8vA06XUgROxQdejrQvz4,"https://maps.googleapis.com/maps/api/geocode/json?address=63+Newpark,+Kilkenny,+Ireland&key=AIzaSyA1vJtESoYOSSuM_yTI1j1jpPGpxx_VGyk",52.66196979999999,-7.2451558,"63 Newpark Cl, Newpark Lower, Kilkenny, R95 K7D4, Ireland",R95 K7D4,ROOFTOP,South-East (IE),7050.0,Kilkenny Rural,0.17760588645996264,0.8327489650164518
17/06/2010,"72 Richview, Castlecomer Road, Kilkenny",Kilkenny,375000.0,No,Second-Hand Dwelling house /Apartment,,Eh43MiBSaWNodmlldywgS2lsa2VubnksIElyZWxhbmQiGhIYChQKEgnv3Ji3azpdSBFk0_7oJ0gYBxBI,"https://maps.googleapis.com/maps/api/geocode/json?address=72+Richview,+Castlecomer+Road,+Kilkenny,+Ireland&key=AIzaSyA1vJtESoYOSSuM_yTI1j1jpPGpxx_VGyk",52.6703869,-7.2572619000000005,"72 Richview, Dunmore, Kilkenny, Ireland",,RANGE_INTERPOLATED,South-East (IE),7050.0,Kilkenny Rural,0.33385490027747583,1.9825975656091763
21/06/2010,"2 Brookfield, Ballyhale",Kilkenny,155000.0,Yes,New Dwelling house /Apartment,greater than or equal to 38 sq metres and less than 125 sq metres,ChIJt5lMyMDMQkgR0NUxl6nHAAo,"https://maps.googleapis.com/maps/api/geocode/json?address=2+Brookfield,+Ballyhale,+Kilkenny,+Ireland&key=AIzaSyA1vJtESoYOSSuM_yTI1j1jpPGpxx_VGyk",52.466657,-7.2002407999999996,"Ballyhale, Co. Kilkenny, Ireland",,APPROXIMATE,South-East (IE),7062.0,Ballyhale,0.08100477397727697,7.166028021052622
23/06/2010,"Kiljames, Thomastown, Kilkenny",Kilkenny,249000.0,No,Second-Hand Dwelling house /Apartment,,ChIJaTlUlfk0XUgRgNYxl6nHAAo,"https://maps.googleapis.com/maps/api/geocode/json?address=Kiljames,+Thomastown,+Kilkenny,+Ireland&key=AIzaSyA1vJtESoYOSSuM_yTI1j1jpPGpxx_VGyk",52.5270825,-7.1388210999999995,"Thomastown, Co. Kilkenny, Ireland",,APPROXIMATE,South-East (IE),7084.0,Thomastown,0.18783919993760406,0.8051037955451833
24/06/2010,"Graigueswood, Freshford",Kilkenny,196000.0,No,Second-Hand Dwelling house /Apartment,,ChIJTerKEXIjXUgRDGdlsOTScUA,"https://maps.googleapis.com/maps/api/geocode/json?address=Graigueswood,+Freshford,+Kilkenny,+Ireland&key=AIzaSyA1vJtESoYOSSuM_yTI1j1jpPGpxx_VGyk",52.74623370000001,-7.399522200000002,"Graigueswood, Freshford, Co. Kilkenny, Ireland",,GEOMETRIC_CENTER,South-East (IE),7088.0,Balleen,1.5292558479481368,14.627883353227075
24/06/2010,"Rossmore, Callan",Kilkenny,303000.0,No,Second-Hand Dwelling house /Apartment,,ChIJT5HuCyMpXUgR6uqyzNFlDyI,"https://maps.googleapis.com/maps/api/geocode/json?address=Rossmore,+Callan,+Kilkenny,+Ireland&key=AIzaSyA1vJtESoYOSSuM_yTI1j1jpPGpxx_VGyk",52.5883524,-7.4492391000000024,"Rossmore, Co. Kilkenny, Ireland",,APPROXIMATE,South-East (IE),7014.0,Scotsborough,6.342954164249319,15.673449332014256
25/06/2010,"17 Rath Ullord, Bonnettsrath Road, New Orchard",Kilkenny,273128.0,Yes,New Dwelling house /Apartment,greater than 125 sq metres,ChIJ19s3rEk7XUgR7A0gYY8eXkI,"https://maps.googleapis.com/maps/api/geocode/json?address=17+Rath+Ullord,+Bonnettsrath+Road,+New+Orchard,+Kilkenny,+Ireland&key=AIzaSyA1vJtESoYOSSuM_yTI1j1jpPGpxx_VGyk",52.670033,-7.233320599999999,"Neworchard, New Orchard, Co. Kilkenny, Ireland",,GEOMETRIC_CENTER,South-East (IE),7050.0,Kilkenny Rural,0.7549636284450604,1.854799367537476
25/06/2010,"Barnafea, Paulstown",Kilkenny,178000.0,Yes,New Dwelling house /Apartment,greater than 125 sq metres,ChIJ9SwZYnJHXUgRWn2qU9_AMjI,"https://maps.googleapis.com/maps/api/geocode/json?address=Barnafea,+Paulstown,+Kilkenny,+Ireland&key=AIzaSyA1vJtESoYOSSuM_yTI1j1jpPGpxx_VGyk",52.712238899999996,-7.1003023,"Baurnafea, Co. Kilkenny, Ireland",,APPROXIMATE,South-East (IE),7059.0,Tiscoffin,5.649766236227879,11.591440335980534
25/06/2010,"No. 13 Roselawn, Rosehill, Kells Road Kilkenny",Kilkenny,356652.0,Yes,New Dwelling house /Apartment,greater than 125 sq metres,Eh8xMyBSb3NlIExhd24sIEtpbGtlbm55LCBJcmVsYW5kIhoSGAoUChIJeVCeWIUwXUgRtYQc2uJFro0QDQ,"https://maps.googleapis.com/maps/api/geocode/json?address=No.+13+Roselawn,+Rosehill,+Kells+Road+Kilkenny,+Ireland&key=AIzaSyA1vJtESoYOSSuM_yTI1j1jpPGpxx_VGyk",52.64128349999999,-7.2599386,"13 Rose Lawn, Maidenhill, Kilkenny, Ireland",,RANGE_INTERPOLATED,South-East (IE),7050.0,Kilkenny Rural,0.7173813721725569,1.8023806168393728
29/06/2010,"10 Clonmel Road, Callan",Kilkenny,90000.0,No,Second-Hand Dwelling house /Apartment,,ChIJyztTBxQsXUgRmd-91Eyi7fg,"https://maps.googleapis.com/maps/api/geocode/json?address=10+Clonmel+Road,+Callan,+Kilkenny,+Ireland&key=AIzaSyA1vJtESoYOSSuM_yTI1j1jpPGpxx_VGyk",52.5413995,-7.392375099999999,"10 Clonmel Rd, Callan South, Callan, Co. Kilkenny, R95 XP7X, Ireland",R95 XP7X,ROOFTOP,South-East (IE),7005.0,Callan Urban,0.16259830253917426,16.066528001853428
29/06/2010,"62 Seville Lawns, Callan Road, Kilkenny",Kilkenny,285000.0,Yes,New Dwelling house /Apartment,greater than 125 sq metres,ChIJixB4J4gwXUgR_Y-RYBUgE1c,"https://maps.googleapis.com/maps/api/geocode/json?address=62+Seville+Lawns,+Callan+Road,+Kilkenny,+Ireland&key=AIzaSyA1vJtESoYOSSuM_yTI1j1jpPGpxx_VGyk",52.63866179999999,-7.2715266000000005,"62 Seville Lawns, Margaret's Fields, Callan Road, Co. Kilkenny, R95 Y8K1, Ireland",R95 Y8K1,ROOFTOP,South-East (IE),7050.0,Kilkenny Rural,1.4783398285995104,2.541273073728059
29/06/2010,"Part Of Lands In Townland Of Gowran, The Mill House, Mill Road, Gowran",Kilkenny,350000.0,No,Second-Hand Dwelling house /Apartment,,ChIJhzInZkpIXUgRb6QxE6zibek,"https://maps.googleapis.com/maps/api/geocode/json?address=Part+Of+Lands+In+Townland+Of+Gowran,+The+Mill+House,+Mill+Road,+Gowran,+Kilkenny,+Ireland&key=AIzaSyA1vJtESoYOSSuM_yTI1j1jpPGpxx_VGyk",52.62504999999999,-7.0677600000000025,"Mill Rd, Co. Kilkenny, Ireland",,GEOMETRIC_CENTER,South-East (IE),7048.0,Gowran,0.3984842210798795,12.29533377579524
30/06/2010,"11 Rath Ullard, Bonnettsrath Road, Kilkenny",Kilkenny,215859.0,Yes,New Dwelling house /Apartment,greater than 125 sq metres,ChIJ19s3rEk7XUgR7A0gYY8eXkI,"https://maps.googleapis.com/maps/api/geocode/json?address=11+Rath+Ullard,+Bonnettsrath+Road,+Kilkenny,+Ireland&key=AIzaSyA1vJtESoYOSSuM_yTI1j1jpPGpxx_VGyk",52.670033,-7.233320599999999,"Neworchard, New Orchard, Co. Kilkenny, Ireland",,GEOMETRIC_CENTER,South-East (IE),7050.0,Kilkenny Rural,0.7549636284450604,1.854799367537476
30/06/2010,"15 Archer'S Court, Loughboy, Kilkenny",Kilkenny,200000.0,No,Second-Hand Dwelling house /Apartment,,ChIJ_0I_IL0wXUgRxchMwFk6DZI,"https://maps.googleapis.com/maps/api/geocode/json?address=15+Archer'S+Court,+Loughboy,+Kilkenny,+Ireland&key=AIzaSyA1vJtESoYOSSuM_yTI1j1jpPGpxx_VGyk",52.641142200000004,-7.240805000000001,"15 Archers Ct, Gallowshill, Kilkenny, R95 KA9R, Ireland",R95 KA9R,ROOFTOP,South-East (IE),7050.0,Kilkenny Rural,0.1914815723380085,1.4803240173522023
30/06/2010,"15 Archers Court, Loughboy, Kilkenny",Kilkenny,200000.0,No,Second-Hand Dwelling house /Apartment,,ChIJ_0I_IL0wXUgRxchMwFk6DZI,"https://maps.googleapis.com/maps/api/geocode/json?address=15+Archers+Court,+Loughboy,+Kilkenny,+Ireland&key=AIzaSyA1vJtESoYOSSuM_yTI1j1jpPGpxx_VGyk",52.641142200000004,-7.240805000000001,"15 Archers Ct, Gallowshill, Kilkenny, R95 KA9R, Ireland",R95 KA9R,ROOFTOP,South-East (IE),7050.0,Kilkenny Rural,0.1914815723380085,1.4803240173522023
30/06/2010,"Castlegardens, Castle Road, Kilkenny",Kilkenny,730000.0,No,Second-Hand Dwelling house /Apartment,,EjtDYXN0bGUgR2FyZGVucyAmIENhc3RsZSBSZCwgRHVrZXNtZWFkb3dzLCBLaWxrZW5ueSwgSXJlbGFuZCJmImQKFAoSCfH3CV6fMF1IEa9DT-YWwQ37EhQKEgnx9wlenzBdSBGvQ0_mFsEN-xoUChIJvzMPa58wXUgRHnDhtyQIfHIaFAoSCXHaT-ShMF1IEcbQac2aTnwqIgoNWo1hHxVhQa77,"https://maps.googleapis.com/maps/api/geocode/json?address=Castlegardens,+Castle+Road,+Kilkenny,+Ireland&key=AIzaSyA1vJtESoYOSSuM_yTI1j1jpPGpxx_VGyk",52.64868739999999,-7.2466079,"Castle Gardens & Castle Rd, Dukesmeadows, Kilkenny, Ireland",,GEOMETRIC_CENTER,South-East (IE),7002.0,Kilkenny No. 2 Urban,0.2403582724037808,0.6522812864343687
30/06/2010,"Corluddy, Carrigeen",Kilkenny,80000.0,No,Second-Hand Dwelling house /Apartment,,ChIJnZkL2ifFQkgRajX23RgA5Cg,"https://maps.googleapis.com/maps/api/geocode/json?address=Corluddy,+Carrigeen,+Kilkenny,+Ireland&key=AIzaSyA1vJtESoYOSSuM_yTI1j1jpPGpxx_VGyk",52.27088999999999,-7.2159900000000015,"Corluddy, Carrigeen, Co. Kilkenny, Ireland",,APPROXIMATE,South-East (IE),7110.0,Portnascully,3.680376614625224,28.415498787838487
30/06/2010,"No7 St Francis Terrace, Kilkenny",Kilkenny,129995.0,No,Second-Hand Dwelling house /Apartment,,ChIJcTuOI4MwXUgRz0fxk3RQJRk,"https://maps.googleapis.com/maps/api/geocode/json?address=No7+St+Francis+Terrace,+Kilkenny,+Ireland&key=AIzaSyA1vJtESoYOSSuM_yTI1j1jpPGpxx_VGyk",52.64890329999999,-7.2616826,"St Francis Terrace, Lyons, Kilkenny, Ireland",,GEOMETRIC_CENTER,South-East (IE),7001.0,Kilkenny No. 1 Urban,0.5768760605850173,1.328559251547682
01/07/2010,"Coolshane, Inistogue",Kilkenny,100000.0,No,Second-Hand Dwelling house /Apartment,,ChIJ9xjVOIzKQkgRMHCKUvjtNbM,"https://maps.googleapis.com/maps/api/geocode/json?address=Coolshane,+Inistogue,+Kilkenny,+Ireland&key=AIzaSyA1vJtESoYOSSuM_yTI1j1jpPGpxx_VGyk",52.4545348,-7.0781464000000005,"Ballyshane, Co. Kilkenny, Ireland",,APPROXIMATE,South-East (IE),7075.0,Inistioge,3.865168807859976,9.011298283931037
02/07/2010,"16 Friary Walk, Callan",Kilkenny,197000.0,No,Second-Hand Dwelling house /Apartment,,ChIJqedTmCMsXUgRce_fW0v5Fhc,"https://maps.googleapis.com/maps/api/geocode/json?address=16+Friary+Walk,+Callan,+Kilkenny,+Ireland&key=AIzaSyA1vJtESoYOSSuM_yTI1j1jpPGpxx_VGyk",52.55092990000001,-7.3825519,"16 Friary Walk, Clashacollare, Callan, Co. Kilkenny, R95 AY18, Ireland",R95 AY18,ROOFTOP,South-East (IE),7004.0,Callan Rural,0.9715025856512568,14.823931042591955
02/07/2010,"18 The Grange, Dunningstown Road, Kilkenny",Kilkenny,317900.0,Yes,New Dwelling house /Apartment,greater than 125 sq metres,ChIJ275no2U6XUgRvt2TgDRnYtU,"https://maps.googleapis.com/maps/api/geocode/json?address=18+The+Grange,+Dunningstown+Road,+Kilkenny,+Ireland&key=AIzaSyA1vJtESoYOSSuM_yTI1j1jpPGpxx_VGyk",52.66555129999999,-7.2668396999999985,"18 The Grange, Dunningstown Road, Kilkenny, Ireland",,ROOFTOP,South-East (IE),7050.0,Kilkenny Rural,0.3051381752742349,1.9694954261955648
02/07/2010,"2 Hillside View, Castlecomer",Kilkenny,83000.0,No,Second-Hand Dwelling house /Apartment,,ChIJAQO4TE8-XUgRLioJy7jgJrQ,"https://maps.googleapis.com/maps/api/geocode/json?address=2+Hillside+View,+Castlecomer,+Kilkenny,+Ireland&key=AIzaSyA1vJtESoYOSSuM_yTI1j1jpPGpxx_VGyk",52.79988470000001,-7.2147888999999985,"2 Hillside View, Glebe, Castlecomer, Co. Kilkenny, R95 K5N2, Ireland",R95 K5N2,ROOFTOP,South-East (IE),7026.0,Castlecomer,0.3897027883929485,16.281328464014074
02/07/2010,"4 Brockton Drive, Hollybrook, Ferrybank",Kilkenny,208000.0,No,Second-Hand Dwelling house /Apartment,,ChIJpSiN8IbGQkgRgUy1JCzeIuw,"https://maps.googleapis.com/maps/api/geocode/json?address=4+Brockton+Drive,+Hollybrook,+Ferrybank,+Kilkenny,+Ireland&key=AIzaSyA1vJtESoYOSSuM_yTI1j1jpPGpxx_VGyk",52.271901299999996,-7.1104721999999985,"4 Brockton Dr, Ferrybank, Waterford, Co. Kilkenny, X91 AP8A, Ireland",X91 AP8A,ROOFTOP,South-East (IE),7106.0,Kilculliheen,0.17586462689822466,28.06191633910521
02/07/2010,"No. 1 The Mews, ' Ayrefield', Granges Road",Kilkenny,308500.0,No,Second-Hand Dwelling house /Apartment,,Eh1HcmFuZ2VzIFJkLCBLaWxrZW5ueSwgSXJlbGFuZCIuKiwKFAoSCXGM3kl3Ol1IEeisJNBoEiRZEhQKEglx9gQLejpdSBG24e1dIyuQCw,"https://maps.googleapis.com/maps/api/geocode/json?address=No.+1+The+Mews,+'+Ayrefield',+Granges+Road,+Kilkenny,+Ireland&key=AIzaSyA1vJtESoYOSSuM_yTI1j1jpPGpxx_VGyk",52.659869799999996,-7.2624499999999985,"Granges Rd, Kilkenny, Ireland",,GEOMETRIC_CENTER,South-East (IE),7001.0,Kilkenny No. 1 Urban,0.5257862805868884,1.3770849285019653
05/07/2010,"35 The Paddocks, Kells Road, Kilkenny",Kilkenny,236500.0,No,Second-Hand Dwelling house /Apartment,,ChIJd2-8qZAwXUgRLCXBWQSnwEI,"https://maps.googleapis.com/maps/api/geocode/json?address=35+The+Paddocks,+Kells+Road,+Kilkenny,+Ireland&key=AIzaSyA1vJtESoYOSSuM_yTI1j1jpPGpxx_VGyk",52.6415956,-7.251948400000002,"35 Kells Rd, The Paddocks, Cashel, Kilkenny, R95 N2VY, Ireland",R95 N2VY,ROOFTOP,South-East (IE),7050.0,Kilkenny Rural,0.5185616458843979,1.5139266408631364
05/07/2010,"9 Mayfield, Kells Road, Kilkenny",Kilkenny,236500.0,No,Second-Hand Dwelling house /Apartment,,ChIJBWjSjZkwXUgRoITLFm-FFTs,"https://maps.googleapis.com/maps/api/geocode/json?address=9+Mayfield,+Kells+Road,+Kilkenny,+Ireland&key=AIzaSyA1vJtESoYOSSuM_yTI1j1jpPGpxx_VGyk",52.6434157,-7.2510863999999975,"9 Kells Rd, Mayfield, Cashel, Kilkenny, R95 KX3W, Ireland",R95 KX3W,ROOFTOP,South-East (IE),7050.0,Kilkenny Rural,0.4081309766414935,1.303956080351662
08/07/2010,"12 Rothe Terrace, Kennyswell Street, Kilkenny",Kilkenny,130000.0,No,Second-Hand Dwelling house /Apartment,,ChIJvbP0kng6XUgRXNTLB8LpIsA,"https://maps.googleapis.com/maps/api/geocode/json?address=12+Rothe+Terrace,+Kennyswell+Street,+Kilkenny,+Ireland&key=AIzaSyA1vJtESoYOSSuM_yTI1j1jpPGpxx_VGyk",52.6527934,-7.265810099999999,"Rothe Terrace, Crokershill, Kilkenny, Ireland",,ROOFTOP,South-East (IE),7001.0,Kilkenny No. 1 Urban,0.5876539054717178,1.4705316724957749
09/07/2010,"5 The Heath, Liffey Hall, Newbridge",Kilkenny,255000.0,No,Second-Hand Dwelling house /Apartment,,ChIJhUp3ANx_XUgR4DKGOCpyBVY,"https://maps.googleapis.com/maps/api/geocode/json?address=5+The+Heath,+Liffey+Hall,+Newbridge,+Kilkenny,+Ireland&key=AIzaSyA1vJtESoYOSSuM_yTI1j1jpPGpxx_VGyk",53.1699384,-6.7969851,"5 The Heath, Liffey Hall, Newbridge, Co. Kildare, W12 AV62, Ireland",W12 AV62,ROOFTOP,Mid-East,6078.0,Morristownbiller,42.289337285355465,64.67941125855616
12/07/2010,"The Cottage, Old Golf Links Road, Newpark",Kilkenny,70000.0,No,Second-Hand Dwelling house /Apartment,,ChIJ5xk6iBk9XUgRJofElkCJWeI,"https://maps.googleapis.com/maps/api/geocode/json?address=The+Cottage,+Old+Golf+Links+Road,+Newpark,+Kilkenny,+Ireland&key=AIzaSyA1vJtESoYOSSuM_yTI1j1jpPGpxx_VGyk",52.6643414,-7.2504928999999985,"Castlecomer Rd, Newpark Lower, Kilkenny, R95 KP63, Ireland",R95 KP63,GEOMETRIC_CENTER,South-East (IE),7002.0,Kilkenny No. 2 Urban,0.04556674988548018,1.1816948031010328
14/07/2010,"5 Fairgreen, Thomastown",Kilkenny,176000.0,No,Second-Hand Dwelling house /Apartment,,ChIJV5g1jrchXUgRxVgybUv7IO0,"https://maps.googleapis.com/maps/api/geocode/json?address=5+Fairgreen,+Thomastown,+Kilkenny,+Ireland&key=AIzaSyA1vJtESoYOSSuM_yTI1j1jpPGpxx_VGyk",52.784319999999994,-7.522310000000001,"Glashare, Fair Green, Co. Kilkenny, Ireland",,APPROXIMATE,South-East (IE),7093.0,Glashare,4.618424747944374,23.66471033957424
14/07/2010,"8 Bianconi Close, Banagher Court, Piltown",Kilkenny,145000.0,No,Second-Hand Dwelling house /Apartment,,ChIJRZj5wBjRQkgRWtpv-vNh04c,"https://maps.googleapis.com/maps/api/geocode/json?address=8+Bianconi+Close,+Banagher+Court,+Piltown,+Kilkenny,+Ireland&key=AIzaSyA1vJtESoYOSSuM_yTI1j1jpPGpxx_VGyk",52.3526665,-7.3318208999999985,"8 Banagher Court, Bianconi Cl, Banagher, Piltown, Co. Kilkenny, E32 EY90, Ireland",E32 EY90,ROOFTOP,South-East (IE),7019.0,Pilltown,0.1656644098924924,22.642829081278023
14/07/2010,"Garrandarragh, Mullinavat",Kilkenny,140000.0,No,Second-Hand Dwelling house /Apartment,,ChIJneag4cPOQkgRUcUCgjqfPrI,"https://maps.googleapis.com/maps/api/geocode/json?address=Garrandarragh,+Mullinavat,+Kilkenny,+Ireland&key=AIzaSyA1vJtESoYOSSuM_yTI1j1jpPGpxx_VGyk",52.3724616,-7.170611299999999,"Garrandarragh, Ballinacooley, Co. Kilkenny, Ireland",,APPROXIMATE,South-East (IE),7107.0,Killahy,0.41748451243579227,16.816397734822296
16/07/2010,"Newlane, Coolcullen, Castlecomer",Kilkenny,80000.0,No,Second-Hand Dwelling house /Apartment,,ChIJd_RFRsNAXUgRclrHGajHACY,"https://maps.googleapis.com/maps/api/geocode/json?address=Newlane,+Coolcullen,+Castlecomer,+Kilkenny,+Ireland&key=AIzaSyA1vJtESoYOSSuM_yTI1j1jpPGpxx_VGyk",52.7554451,-7.1086838000000006,"Coolcullen, Co. Kilkenny, Ireland",,APPROXIMATE,South-East (IE),7031.0,Mothell,7.55247899229018,14.440625804823195
16/07/2010,"No.2 Mayfield Avenue, The Beeches, Ballyrobin, Ferrybank",Kilkenny,205000.0,Yes,New Dwelling house /Apartment,greater than or equal to 38 sq metres and less than 125 sq metres,ChIJv_v-KJowXUgRYSDqaMfM34E,"https://maps.googleapis.com/maps/api/geocode/json?address=No.2+Mayfield+Avenue,+The+Beeches,+Ballyrobin,+Ferrybank,+Kilkenny,+Ireland&key=AIzaSyA1vJtESoYOSSuM_yTI1j1jpPGpxx_VGyk",52.64388080000001,-7.2521162,"2 Kells Rd, Mayfield, Cashel, Kilkenny, R95 TVT6, Ireland",R95 TVT6,ROOFTOP,South-East (IE),7050.0,Kilkenny Rural,0.33129006526697546,1.2832349948973834
19/07/2010,"25 Burrells Walk, College Park  Callan Road, Kilkenny",Kilkenny,148898.67,Yes,New Dwelling house /Apartment,greater than or equal to 38 sq metres and less than 125 sq metres,ChIJa-742IcwXUgRFEpulyrUjuA,"https://maps.googleapis.com/maps/api/geocode/json?address=25+Burrells+Walk,+College+Park+Callan+Road,+Kilkenny,+Ireland&key=AIzaSyA1vJtESoYOSSuM_yTI1j1jpPGpxx_VGyk",52.640773100000004,-7.269641900000001,"25 Burrell's Walk, Wetland, Callan Road, Co. Kilkenny, R95 X9F7, Ireland",R95 X9F7,ROOFTOP,South-East (IE),7050.0,Kilkenny Rural,1.2407342918507187,2.2889723089920064
19/07/2010,"Owning, Piltown",Kilkenny,170000.0,No,Second-Hand Dwelling house /Apartment,,ChIJs0hUuB7RQkgRwNkxl6nHAAo,"https://maps.googleapis.com/maps/api/geocode/json?address=Owning,+Piltown,+Kilkenny,+Ireland&key=AIzaSyA1vJtESoYOSSuM_yTI1j1jpPGpxx_VGyk",52.3506545,-7.3249945000000025,"Banagher, Piltown, Co. Kilkenny, Ireland",,APPROXIMATE,South-East (IE),7019.0,Pilltown,0.10460819592014918,22.582886559186893
20/07/2010,"24 The Paddocks, Kells Road",Kilkenny,200000.0,No,Second-Hand Dwelling house /Apartment,,ChIJF6p0OZowXUgRnFp3g-bSh4o,"https://maps.googleapis.com/maps/api/geocode/json?address=24+The+Paddocks,+Kells+Road,+Kilkenny,+Ireland&key=AIzaSyA1vJtESoYOSSuM_yTI1j1jpPGpxx_VGyk",52.64347050000001,-7.2531921000000015,"24 Kells Rd, The Paddocks, Cashel, Kilkenny, R95 PCC8, Ireland",R95 PCC8,ROOFTOP,South-East (IE),7050.0,Kilkenny Rural,0.3558015300774871,1.3558473803066269
22/07/2010,"54 Beechlawns, Johnswell Road, Kilkenny",Kilkenny,220000.0,No,Second-Hand Dwelling house /Apartment,,ChIJ1fN1ABA6XUgRUoeqct6fmQ4,"https://maps.googleapis.com/maps/api/geocode/json?address=54+Beechlawns,+Johnswell+Road,+Kilkenny,+Ireland&key=AIzaSyA1vJtESoYOSSuM_yTI1j1jpPGpxx_VGyk",52.66426679999999,-7.2363312,"54 Beechlawns, Newpark Upper, Kilkenny, R95 E3Y9, Ireland",R95 E3Y9,ROOFTOP,South-East (IE),7050.0,Kilkenny Rural,0.17385687133698266,1.1848776448192089
22/07/2010,"No6 Cherrymount, Parcnagowan",Kilkenny,256000.0,No,Second-Hand Dwelling house /Apartment,,ChIJl1wBAZQwXUgRpZh-BYBSp2g,"https://maps.googleapis.com/maps/api/geocode/json?address=No6+Cherrymount,+Parcnagowan,+Kilkenny,+Ireland&key=AIzaSyA1vJtESoYOSSuM_yTI1j1jpPGpxx_VGyk",52.63630449999999,-7.249642799999997,"6 Cherrymount, Parcnagowan, Kilkenny, R95 E8K7, Ireland",R95 E8K7,ROOFTOP,South-East (IE),7050.0,Kilkenny Rural,0.6122878810933411,2.0422243264497206
23/07/2010,"56 Chapelgate, Kilmacow",Kilkenny,157708.0,Yes,New Dwelling house /Apartment,greater than or equal to 38 sq metres and less than 125 sq metres,ChIJew-sAn7PQkgRobj-_lKVliM,"https://maps.googleapis.com/maps/api/geocode/json?address=56+Chapelgate,+Kilmacow,+Kilkenny,+Ireland&key=AIzaSyA1vJtESoYOSSuM_yTI1j1jpPGpxx_VGyk",52.3138673,-7.180226999999999,"56 Chapelgate, Narrabaun South, Kilmacow, Co. Kilkenny, X91 Y3V1, Ireland",X91 Y3V1,ROOFTOP,South-East (IE),7113.0,Ullid,0.3300677223201295,23.366070396870818
26/07/2010,"9 The Sycamores, Freshford Road, Kilkenny",Kilkenny,215000.0,No,Second-Hand Dwelling house /Apartment,,ChIJ22JivG86XUgRrVLaiaOr5KE,"https://maps.googleapis.com/maps/api/geocode/json?address=9+The+Sycamores,+Freshford+Road,+Kilkenny,+Ireland&key=AIzaSyA1vJtESoYOSSuM_yTI1j1jpPGpxx_VGyk",52.6644078,-7.262279899999998,"9 Freshford Road, The Sycamores, Jamespark, Kilkenny, R95 TRF3, Ireland",R95 TRF3,ROOFTOP,South-East (IE),7050.0,Kilkenny Rural,0.03309317752254848,1.6527537934250225
28/07/2010,"'Kilcrenagh', Grogan, Davidstown, Slieverue",Kilkenny,323000.0,No,Second-Hand Dwelling house /Apartment,,ChIJyQDK9njIQkgRcr6zJnVFLFk,"https://maps.googleapis.com/maps/api/geocode/json?address='Kilcrenagh',+Grogan,+Davidstown,+Slieverue,+Kilkenny,+Ireland&key=AIzaSyA1vJtESoYOSSuM_yTI1j1jpPGpxx_VGyk",52.322379,-7.0680960000000015,"Kilcrenagh, Davidstown, Slieverue, Co. Kilkenny, Ireland",,ROOFTOP,South-East (IE),7100.0,Ballincrea,4.213320082907528,22.99090415980759
28/07/2010,"10 Collins Park, Callan",Kilkenny,85000.0,No,Second-Hand Dwelling house /Apartment,,ChIJ5zH9axYsXUgR7ePb-mVk1eE,"https://maps.googleapis.com/maps/api/geocode/json?address=10+Collins+Park,+Callan,+Kilkenny,+Ireland&key=AIzaSyA1vJtESoYOSSuM_yTI1j1jpPGpxx_VGyk",52.543055700000004,-7.388043700000001,"10 Collins Park, Callan South, Callan, Co. Kilkenny, R95 X4V6, Ireland",R95 X4V6,ROOFTOP,South-East (IE),7005.0,Callan Urban,0.19973298442609988,15.740384231564635
28/07/2010,"17 Nore Terrace, Kilkenny",Kilkenny,160000.0,No,Second-Hand Dwelling house /Apartment,,ChIJ1_fNhKAwXUgRgJEEamujQ9s,"https://maps.googleapis.com/maps/api/geocode/json?address=17+Nore+Terrace,+Kilkenny,+Ireland&key=AIzaSyA1vJtESoYOSSuM_yTI1j1jpPGpxx_VGyk",52.65256249999999,-7.242832999999999,"17 Nore Terrace, Highhays, Kilkenny, R95 TC5R, Ireland",R95 TC5R,ROOFTOP,South-East (IE),7002.0,Kilkenny No. 2 Urban,0.22429042220307271,0.20329365613368627
28/07/2010,"Borrisbeg, Urlingford",Kilkenny,225000.0,No,Second-Hand Dwelling house /Apartment,,ChIJTcpa7K0gXUgRwvhRu6fHACY,"https://maps.googleapis.com/maps/api/geocode/json?address=Borrisbeg,+Urlingford,+Kilkenny,+Ireland&key=AIzaSyA1vJtESoYOSSuM_yTI1j1jpPGpxx_VGyk",52.7186446,-7.5640917000000005,"Borrisbeg, Co. Kilkenny, Ireland",,APPROXIMATE,South-East (IE),7098.0,Urlingford,1.0838936903694585,22.724769960619554
29/07/2010,"20 Talbot Place, Lakeside, Kilkenny",Kilkenny,152500.0,No,Second-Hand Dwelling house /Apartment,,ChIJ3XJXRwk6XUgRrSUpsAIP1Bc,"https://maps.googleapis.com/maps/api/geocode/json?address=20+Talbot+Place,+Lakeside,+Kilkenny,+Ireland&key=AIzaSyA1vJtESoYOSSuM_yTI1j1jpPGpxx_VGyk",52.6576078,-7.239836299999999,"20 Talbot Pl, Cois Locha, Kilkenny, R95 A2T7, Ireland",R95 A2T7,ROOFTOP,South-East (IE),7050.0,Kilkenny Rural,0.18798201551280705,0.4214268889095147
29/07/2010,"64 Larchfield, Kilkenny",Kilkenny,110000.0,No,Second-Hand Dwelling house /Apartment,,ChIJARpWfJgwXUgRtpbdBv0kYIA,"https://maps.googleapis.com/maps/api/geocode/json?address=64+Larchfield,+Kilkenny,+Ireland&key=AIzaSyA1vJtESoYOSSuM_yTI1j1jpPGpxx_VGyk",52.64459549999999,-7.245731399999999,"64 Larchfield, Archerstreet Lot, Kilkenny, R95 Y72K, Ireland",R95 Y72K,ROOFTOP,South-East (IE),7050.0,Kilkenny Rural,0.1528799796110359,1.0914414881064272
29/07/2010,"Goslingstown, Tennypark, Callan Road",Kilkenny,170000.0,No,Second-Hand Dwelling house /Apartment,,ChIJ5YUg2kQwXUgRlGGwkdUtipo,"https://maps.googleapis.com/maps/api/geocode/json?address=Goslingstown,+Tennypark,+Callan+Road,+Kilkenny,+Ireland&key=AIzaSyA1vJtESoYOSSuM_yTI1j1jpPGpxx_VGyk",52.6214,-7.281989999999999,"Goslingstown, Tennypark, Co. Kilkenny, Ireland",,APPROXIMATE,South-East (IE),7049.0,Grange,0.012476300618924432,4.467567395587702
30/07/2010,"15 Springfields, Waterford Road, Kilkenny",Kilkenny,245000.0,No,Second-Hand Dwelling house /Apartment,,ChIJbw1Zb5EwXUgRnBSfiW4R4vk,"https://maps.googleapis.com/maps/api/geocode/json?address=15+Springfields,+Waterford+Road,+Kilkenny,+Ireland&key=AIzaSyA1vJtESoYOSSuM_yTI1j1jpPGpxx_VGyk",52.637013100000004,-7.252325699999999,"15 Springfields, Waterford Rd, Smithsland South, Kilkenny, R95 YKV0, Ireland",R95 YKV0,ROOFTOP,South-East (IE),7050.0,Kilkenny Rural,0.6819416568687579,2.00668692437375
03/08/2010,"Clone, Kilmoganny",Kilkenny,50000.0,No,Second-Hand Dwelling house /Apartment,,ChIJyTWcjEXFQkgRsIYRlog4aWg,"https://maps.googleapis.com/maps/api/geocode/json?address=Clone,+Kilmoganny,+Kilkenny,+Ireland&key=AIzaSyA1vJtESoYOSSuM_yTI1j1jpPGpxx_VGyk",52.29665,-7.222810000000001,"Ballincurra, Crawn, Co. Kilkenny, Ireland",,APPROXIMATE,South-East (IE),7109.0,Pollrone,2.2845962249733343,25.676824839125857
03/08/2010,"Corcoran House, Cootes Lane",Kilkenny,214600.0,No,Second-Hand Dwelling house /Apartment,,ChIJuz2PYZkwXUgRDldPRrjT7Qc,"https://maps.googleapis.com/maps/api/geocode/json?address=Corcoran+House,+Cootes+Lane,+Kilkenny,+Ireland&key=AIzaSyA1vJtESoYOSSuM_yTI1j1jpPGpxx_VGyk",52.645391000000004,-7.2523263999999985,"Corcoran House, Coote's Ln, Deansground, Kilkenny, Ireland",,ROOFTOP,South-East (IE),7001.0,Kilkenny No. 1 Urban,0.17824188942087474,1.1395772736626348
04/08/2010,Coolcullen,Kilkenny,45000.0,No,Second-Hand Dwelling house /Apartment,,ChIJd_RFRsNAXUgRclrHGajHACY,"https://maps.googleapis.com/maps/api/geocode/json?address=Coolcullen,+Kilkenny,+Ireland&key=AIzaSyA1vJtESoYOSSuM_yTI1j1jpPGpxx_VGyk",52.7554451,-7.1086838000000006,"Coolcullen, Co. Kilkenny, Ireland",,APPROXIMATE,South-East (IE),7031.0,Mothell,7.55247899229018,14.440625804823195
05/08/2010,"50 Glendine Heights, Castlecomer Road, Kilkenny",Kilkenny,220000.0,No,Second-Hand Dwelling house /Apartment,,ChIJ4Wchymo6XUgR7ehRo-kYfWw,"https://maps.googleapis.com/maps/api/geocode/json?address=50+Glendine+Heights,+Castlecomer+Road,+Kilkenny,+Ireland&key=AIzaSyA1vJtESoYOSSuM_yTI1j1jpPGpxx_VGyk",52.6724416,-7.2529379999999986,"50 Glendine Heights, Glendine, Kilkenny, R95 Y72C, Ireland",R95 Y72C,ROOFTOP,South-East (IE),7050.0,Kilkenny Rural,0.049453103463568834,2.0880539882701474
05/08/2010,"59 Ardilea, Lovers Lane, Castlecomer Road",Kilkenny,160000.0,No,Second-Hand Dwelling house /Apartment,,Eh01OSBBcmRpbGVhLCBLaWxrZW5ueSwgSXJlbGFuZCIaEhgKFAoSCavzrT8NOl1IEZaYSZS5t7V8EDs,"https://maps.googleapis.com/maps/api/geocode/json?address=59+Ardilea,+Lovers+Lane,+Castlecomer+Road,+Kilkenny,+Ireland&key=AIzaSyA1vJtESoYOSSuM_yTI1j1jpPGpxx_VGyk",52.6619003,-7.2480017000000005,"59 Ardilea, Newpark Lower, Kilkenny, Ireland",,RANGE_INTERPOLATED,South-East (IE),7050.0,Kilkenny Rural,0.3341386108064611,0.8694326651959506
05/08/2010,"Columcille, Thomastown",Kilkenny,468000.0,No,Second-Hand Dwelling house /Apartment,,ChIJaTlUlfk0XUgRgNYxl6nHAAo,"https://maps.googleapis.com/maps/api/geocode/json?address=Columcille,+Thomastown,+Kilkenny,+Ireland&key=AIzaSyA1vJtESoYOSSuM_yTI1j1jpPGpxx_VGyk",52.5270825,-7.1388210999999995,"Thomastown, Co. Kilkenny, Ireland",,APPROXIMATE,South-East (IE),7084.0,Thomastown,0.18783919993760406,0.8051037955451833
05/08/2010,"Milltown, Kilmacow",Kilkenny,138000.0,No,Second-Hand Dwelling house /Apartment,,ChIJZZP2Mp9OXUgRA0neUS2zEoQ,"https://maps.googleapis.com/maps/api/geocode/json?address=Milltown,+Kilmacow,+Kilkenny,+Ireland&key=AIzaSyA1vJtESoYOSSuM_yTI1j1jpPGpxx_VGyk",52.59059660000001,-6.9513886,"Milltown, Clashganny, Co. Kilkenny, Ireland",,APPROXIMATE,South-East (IE),7086.0,Ullard,5.200077617333154,15.314658014511698
06/08/2010,"65 The Avenue  The Weirview, Castlecomer Road, Kilkenny",Kilkenny,265000.0,No,Second-Hand Dwelling house /Apartment,,ChIJu7p9T0A6XUgRHgioDKh-eTM,"https://maps.googleapis.com/maps/api/geocode/json?address=65+The+Avenue+The+Weirview,+Castlecomer+Road,+Kilkenny,+Ireland&key=AIzaSyA1vJtESoYOSSuM_yTI1j1jpPGpxx_VGyk",52.6755171,-7.2559708,"65 The Avenue, The Weir View, Castlecomer Road, Co. Kilkenny, R95 C2Y1, Ireland",R95 C2Y1,ROOFTOP,South-East (IE),7050.0,Kilkenny Rural,0.3527440640984326,2.4762788051335733
11/08/2010,"68 Kilkenny Street, Castlecomer Road",Kilkenny,85000.0,No,Second-Hand Dwelling house /Apartment,,EiU2OCBLaWxrZW5ueSBTdCwgQ28uIEtpbGtlbm55LCBJcmVsYW5kIhoSGAoUChIJ04s49kk-XUgRflUs7qhxEhIQRA,"https://maps.googleapis.com/maps/api/geocode/json?address=68+Kilkenny+Street,+Castlecomer+Road,+Ireland&key=AIzaSyA1vJtESoYOSSuM_yTI1j1jpPGpxx_VGyk",52.80468399999999,-7.2102023000000015,"68 Kilkenny St, Castlecomer, Co. Kilkenny, Ireland",,RANGE_INTERPOLATED,South-East (IE),7026.0,Castlecomer,0.0929113454979706,16.849832929318367
11/08/2010,"No 60 Marble Crest, Kilkenny",Kilkenny,160000.0,No,Second-Hand Dwelling house /Apartment,,ChIJ2zWMfLswXUgRItxnc45pZtY,"https://maps.googleapis.com/maps/api/geocode/json?address=No+60+Marble+Crest,+Kilkenny,+Ireland&key=AIzaSyA1vJtESoYOSSuM_yTI1j1jpPGpxx_VGyk",52.6404875,-7.2367595,"60 Marble Crest, Gallowshill, Kilkenny, R95 DHN8, Ireland",R95 DHN8,ROOFTOP,South-East (IE),7050.0,Kilkenny Rural,0.2243393206290596,1.6065430369029663
12/08/2010,"24 The Paddocks, Gowran",Kilkenny,240000.0,Yes,New Dwelling house /Apartment,greater than 125 sq metres,ChIJF6p0OZowXUgRnFp3g-bSh4o,"https://maps.googleapis.com/maps/api/geocode/json?address=24+The+Paddocks,+Gowran,+Kilkenny,+Ireland&key=AIzaSyA1vJtESoYOSSuM_yTI1j1jpPGpxx_VGyk",52.64347050000001,-7.2531921000000015,"24 Kells Rd, The Paddocks, Cashel, Kilkenny, R95 PCC8, Ireland",R95 PCC8,ROOFTOP,South-East (IE),7050.0,Kilkenny Rural,0.3558015300774871,1.3558473803066269
12/08/2010,"Kilmurry House, Thomastown",Kilkenny,1845000.0,No,Second-Hand Dwelling house /Apartment,,ChIJ3_SWZLs1XUgRYV3ISv5k2_k,"https://maps.googleapis.com/maps/api/geocode/json?address=Kilmurry+House,+Thomastown,+Kilkenny,+Ireland&key=AIzaSyA1vJtESoYOSSuM_yTI1j1jpPGpxx_VGyk",52.5446052,-7.1150169000000005,"Kilmurry House, Kilmurry, Thomastown, Co. Kilkenny, Ireland",,ROOFTOP,South-East (IE),7084.0,Thomastown,2.6461636709983645,3.301814782222929
13/08/2010,"70 The Fairways, Kilkenny",Kilkenny,160000.0,No,Second-Hand Dwelling house /Apartment,,ChIJQ5eoIRA6XUgRHYsIiuT1WAk,"https://maps.googleapis.com/maps/api/geocode/json?address=70+The+Fairways,+Kilkenny,+Ireland&key=AIzaSyA1vJtESoYOSSuM_yTI1j1jpPGpxx_VGyk",52.6642144,-7.238356199999999,"70 The Fairways, Newpark Upper, Kilkenny, R95 XVP7, Ireland",R95 XVP7,ROOFTOP,South-East (IE),7050.0,Kilkenny Rural,0.18374664152243367,1.1302933411401266
18/08/2010,"Park Lodge, Park View Drive, Granges Road, Kilkenny",Kilkenny,370000.0,No,Second-Hand Dwelling house /Apartment,,ChIJAwbHRGU6XUgR5rc9JgI9VNQ,"https://maps.googleapis.com/maps/api/geocode/json?address=Park+Lodge,+Park+View+Drive,+Granges+Road,+Kilkenny,+Ireland&key=AIzaSyA1vJtESoYOSSuM_yTI1j1jpPGpxx_VGyk",52.663308799999996,-7.2650515,"Park Lodge, Parkview Dr, Jamespark, Kilkenny, Ireland",,ROOFTOP,South-East (IE),7050.0,Kilkenny Rural,0.2283049925704384,1.723261679747809
20/08/2010,"10 Circular Road, Kilkenny",Kilkenny,162000.0,No,Second-Hand Dwelling house /Apartment,,ChIJSUGw-YQwXUgRBh45omHDKi4,"https://maps.googleapis.com/maps/api/geocode/json?address=10+Circular+Road,+Kilkenny,+Ireland&key=AIzaSyA1vJtESoYOSSuM_yTI1j1jpPGpxx_VGyk",52.6443277,-7.2622227000000015,"10 Circular Rd, Cnoc Na Rós, Sugarloafhill, Kilkenny, R95 AYH7, Ireland",R95 AYH7,ROOFTOP,South-East (IE),7001.0,Kilkenny No. 1 Urban,0.6113805921037174,1.6521991862922638
20/08/2010,"20 Beechlawns, Johnswell Road, Kilkenny",Kilkenny,176000.0,No,Second-Hand Dwelling house /Apartment,,ChIJnQc78Q86XUgRbq2Vjg7EOpA,"https://maps.googleapis.com/maps/api/geocode/json?address=20+Beechlawns,+Johnswell+Road,+Kilkenny,+Ireland&key=AIzaSyA1vJtESoYOSSuM_yTI1j1jpPGpxx_VGyk",52.66324729999999,-7.2366663,"20 Beechlawns, Newpark Upper, Kilkenny, R95 V2K7, Ireland",R95 V2K7,ROOFTOP,South-East (IE),7050.0,Kilkenny Rural,0.05946316128446452,1.072467123654118
20/08/2010,"38 White Castle, Knocktopher",Kilkenny,216250.0,Yes,New Dwelling house /Apartment,greater than or equal to 38 sq metres and less than 125 sq metres,ChIJbVu4PTIzXUgR6046BTF7kdA,"https://maps.googleapis.com/maps/api/geocode/json?address=38+White+Castle,+Knocktopher,+Kilkenny,+Ireland&key=AIzaSyA1vJtESoYOSSuM_yTI1j1jpPGpxx_VGyk",52.4873973,-7.215906199999999,"38 White's Castle, Whitescastle Lower, Knocktopher, Co. Kilkenny, R95 PK16, Ireland",R95 PK16,ROOFTOP,South-East (IE),7080.0,Knocktopher,0.15480236198452071,6.014225469047951
20/08/2010,"4 Seville Lawns, Margaretsfield, Callan Road",Kilkenny,210000.0,Yes,New Dwelling house /Apartment,greater than 125 sq metres,ChIJgaGMKIgwXUgR6KG2tObihFQ,"https://maps.googleapis.com/maps/api/geocode/json?address=4+Seville+Lawns,+Margaretsfield,+Callan+Road,+Kilkenny,+Ireland&key=AIzaSyA1vJtESoYOSSuM_yTI1j1jpPGpxx_VGyk",52.6384272,-7.271268000000001,"4 Seville Lawns, Margaret's Fields, Callan Road, Co. Kilkenny, R95 C7R9, Ireland",R95 C7R9,ROOFTOP,South-East (IE),7050.0,Kilkenny Rural,1.4803545359956845,2.54671829298033
20/08/2010,"4A Rathullard, Bonnettsrath Rd, New Orchard",Kilkenny,280000.0,Yes,New Dwelling house /Apartment,greater than or equal to 38 sq metres and less than 125 sq metres,ChIJ19s3rEk7XUgR7A0gYY8eXkI,"https://maps.googleapis.com/maps/api/geocode/json?address=4A+Rathullard,+Bonnettsrath+Rd,+New+Orchard,+Kilkenny,+Ireland&key=AIzaSyA1vJtESoYOSSuM_yTI1j1jpPGpxx_VGyk",52.670033,-7.233320599999999,"Neworchard, New Orchard, Co. Kilkenny, Ireland",,GEOMETRIC_CENTER,South-East (IE),7050.0,Kilkenny Rural,0.7549636284450604,1.854799367537476
23/08/2010,"5 Oldtown, Kells Road, Kilkenny",Kilkenny,690000.0,No,Second-Hand Dwelling house /Apartment,,ChIJz9gxeisUZ0gRzue08Al_sLE,"https://maps.googleapis.com/maps/api/geocode/json?address=5+Oldtown,+Kells+Road,+Kilkenny,+Ireland&key=AIzaSyA1vJtESoYOSSuM_yTI1j1jpPGpxx_VGyk",53.52461339999999,-6.3159712999999975,"5, Westpalstown, Oldtown, Co. Dublin, A45 DK07, Ireland",A45 DK07,ROOFTOP,Dublin,4018.0,Clonmethan,93.01052780837982,114.91075294297968
23/08/2010,"54 Riverview, Ardnore, Kilkenny",Kilkenny,172000.0,No,Second-Hand Dwelling house /Apartment,,ChIJXxCtoLwwXUgRR_oB6jl4Y8U,"https://maps.googleapis.com/maps/api/geocode/json?address=54+Riverview,+Ardnore,+Kilkenny,+Ireland&key=AIzaSyA1vJtESoYOSSuM_yTI1j1jpPGpxx_VGyk",52.64158320000001,-7.237441500000001,"54 Riverview, Gallowshill, Kilkenny, R95 Y1KK, Ireland",R95 Y1KK,ROOFTOP,South-East (IE),7050.0,Kilkenny Rural,0.2815301410097222,1.4767005274720006
24/08/2010,"25 The Weir, Castlecomer Road, Kilkenny",Kilkenny,400000.0,No,Second-Hand Dwelling house /Apartment,,ChIJr0YHZWo6XUgRorn37RPxYcs,"https://maps.googleapis.com/maps/api/geocode/json?address=25+The+Weir,+Castlecomer+Road,+Kilkenny,+Ireland&key=AIzaSyA1vJtESoYOSSuM_yTI1j1jpPGpxx_VGyk",52.6728113,-7.256809499999999,"25 The Weir, Castlecomer Rd, Bleach Green, Kilkenny, R95 C7X8, Ireland",R95 C7X8,ROOFTOP,South-East (IE),7050.0,Kilkenny Rural,0.21408420036036013,2.2149580572955743
25/08/2010,"16  Baun, Ballyfoyle Road, Kilkenny",Kilkenny,320000.0,Yes,New Dwelling house /Apartment,greater than 125 sq metres,ChIJZ41fcDk6XUgRItZSu6fHACY,"https://maps.googleapis.com/maps/api/geocode/json?address=16+Baun,+Ballyfoyle+Road,+Kilkenny,+Ireland&key=AIzaSyA1vJtESoYOSSuM_yTI1j1jpPGpxx_VGyk",52.6827755,-7.253284099999999,"Baun, Co. Kilkenny, Ireland",,APPROXIMATE,South-East (IE),7046.0,Dunmore,1.123494167707494,3.2078190086074763
25/08/2010,"77 Marble Crest, Ardmore",Kilkenny,214000.0,No,Second-Hand Dwelling house /Apartment,,ChIJ1xGsFbswXUgRTwK4H1YLXu0,"https://maps.googleapis.com/maps/api/geocode/json?address=77+Marble+Crest,+Ardmore,+Kilkenny,+Ireland&key=AIzaSyA1vJtESoYOSSuM_yTI1j1jpPGpxx_VGyk",52.64125379999999,-7.2352130999999975,"77 Marble Crest, Gallowshill, Kilkenny, R95 TP8Y, Ireland",R95 TP8Y,ROOFTOP,South-East (IE),7050.0,Kilkenny Rural,0.35235321908362,1.5587504774635648
26/08/2010,"41 Friary Walk, Callan",Kilkenny,205000.0,No,Second-Hand Dwelling house /Apartment,,ChIJf-K6CiMsXUgR85CSj3E6w1o,"https://maps.googleapis.com/maps/api/geocode/json?address=41+Friary+Walk,+Callan,+Kilkenny,+Ireland&key=AIzaSyA1vJtESoYOSSuM_yTI1j1jpPGpxx_VGyk",52.5503455,-7.3826569000000015,"41 Friary Walk, Clashacollare, Callan, Co. Kilkenny, R95 PW97, Ireland",R95 PW97,ROOFTOP,South-East (IE),7004.0,Callan Rural,0.9146357393947644,14.878933819794348
26/08/2010,"Corluddy, Carrigeen",Kilkenny,60000.0,No,Second-Hand Dwelling house /Apartment,,ChIJnZkL2ifFQkgRajX23RgA5Cg,"https://maps.googleapis.com/maps/api/geocode/json?address=Corluddy,+Carrigeen,+Kilkenny,+Ireland&key=AIzaSyA1vJtESoYOSSuM_yTI1j1jpPGpxx_VGyk",52.27088999999999,-7.2159900000000015,"Corluddy, Carrigeen, Co. Kilkenny, Ireland",,APPROXIMATE,South-East (IE),7110.0,Portnascully,3.680376614625224,28.415498787838487
27/08/2010,"3 The Fairways, New Orchard",Kilkenny,178500.0,No,Second-Hand Dwelling house /Apartment,,ChIJ-3v2QRA6XUgR_zqfQ4Stkj0,"https://maps.googleapis.com/maps/api/geocode/json?address=3+The+Fairways,+New+Orchard,+Kilkenny,+Ireland&key=AIzaSyA1vJtESoYOSSuM_yTI1j1jpPGpxx_VGyk",52.6656875,-7.2385809000000005,"3 The Fairways, Newpark Upper, Kilkenny, R95 TC9P, Ireland",R95 TC9P,ROOFTOP,South-East (IE),7050.0,Kilkenny Rural,0.3410730484161745,1.2831487173890304
27/08/2010,"49 Berkeley Lawns, Thomastown",Kilkenny,148000.0,No,Second-Hand Dwelling house /Apartment,,ChIJaTlUlfk0XUgRgNYxl6nHAAo,"https://maps.googleapis.com/maps/api/geocode/json?address=49+Berkeley+Lawns,+Thomastown,+Kilkenny,+Ireland&key=AIzaSyA1vJtESoYOSSuM_yTI1j1jpPGpxx_VGyk",52.5270825,-7.1388210999999995,"Thomastown, Co. Kilkenny, Ireland",,APPROXIMATE,South-East (IE),7084.0,Thomastown,0.18783919993760406,0.8051037955451833
27/08/2010,"Apt.58 Ardilea, Lovers Lane, Castlecomer Road Kilkenny",Kilkenny,155000.0,Yes,New Dwelling house /Apartment,greater than or equal to 38 sq metres and less than 125 sq metres,Eh01OCBBcmRpbGVhLCBLaWxrZW5ueSwgSXJlbGFuZCIaEhgKFAoSCavzrT8NOl1IEZeYSZS5t7V8EDo,"https://maps.googleapis.com/maps/api/geocode/json?address=Apt.58+Ardilea,+Lovers+Lane,+Castlecomer+Road+Kilkenny,+Ireland&key=AIzaSyA1vJtESoYOSSuM_yTI1j1jpPGpxx_VGyk",52.66208169999999,-7.248234000000001,"58 Ardilea, Newpark Lower, Kilkenny, Ireland",,RANGE_INTERPOLATED,South-East (IE),7050.0,Kilkenny Rural,0.320472790793064,0.8934549045927346
27/08/2010,"Ballygorteen  Paulstown, Ballygorteen, Paulstown",Kilkenny,36000.0,No,Second-Hand Dwelling house /Apartment,,ChIJg5VaHQZHXUgRV4wlP6I8Iwg,"https://maps.googleapis.com/maps/api/geocode/json?address=Ballygorteen+Paulstown,+Ballygorteen,+Paulstown,+Kilkenny,+Ireland&key=AIzaSyA1vJtESoYOSSuM_yTI1j1jpPGpxx_VGyk",52.7081684,-7.0781192,"Ballygorteen, Boherbuí, Co. Kilkenny, Ireland",,APPROXIMATE,South-East (IE),7059.0,Tiscoffin,4.253369005024022,12.643437504375695
27/08/2010,"Property @ Kilkeasey, Knocktopher",Kilkenny,217500.0,No,Second-Hand Dwelling house /Apartment,,ChIJq5tT7HY6XUgRc4egiizKN4E,"https://maps.googleapis.com/maps/api/geocode/json?address=Property+@+Kilkeasey,+Knocktopher,+Kilkenny,+Ireland&key=AIzaSyA1vJtESoYOSSuM_yTI1j1jpPGpxx_VGyk",52.65567460000001,-7.257093500000001,"9 Dean St, Gardens, Kilkenny, Ireland",,ROOFTOP,South-East (IE),7001.0,Kilkenny No. 1 Urban,0.06360650150804054,0.8840900812777788
