date_of_sale,address,county,price,vat_exclusive,property_description,property_size,place_id,geocoding_url,latitude,longitude,formatted_address,eircode,accuracy,region,electoral_district_id,electoral_district,bus_distance,train_distance
03/01/2010,"134 Ashewood Walk, Summerhill Lane, Portlaoise",Laois,185000.0,Yes,New Dwelling house /Apartment,greater than or equal to 38 sq metres and less than 125 sq metres,ChIJVWFOc68NXUgRykgewEfrSgk,"https://maps.googleapis.com/maps/api/geocode/json?address=134+Ashewood+Walk,+Summerhill+Lane,+Portlaoise,+Laois,+Ireland&key=AIzaSyDRZ-wdfFwQPJfje5ImWN_78508dkyk8H4",53.0295704,-7.272656499999999,"134 Summerhill Ln, Ashewood Walk, Summerhill, Portlaoise, Co. Laois, R32 C52X, Ireland",R32 C52X,ROOFTOP,Midland,08071,Portlaoighise (Maryborough) Rural,0.5249748725584478,2.051625928055017
06/01/2010,"19 Rahin Road, Ballylinan",Laois,130000.0,No,Second-Hand Dwelling house /Apartment,,ChIJiTzfMOtuXUgRP9PUHHGl7y4,"https://maps.googleapis.com/maps/api/geocode/json?address=19+Rahin+Road,+Ballylinan,+Laois,+Ireland&key=AIzaSyDRZ-wdfFwQPJfje5ImWN_78508dkyk8H4",52.9485998,-7.043141299999999,"Gemini's, 19 Rahin Rd, Ballylynan, Co. Laois, R14 EV77, Ireland",R14 EV77,ROOFTOP,Midland,08029,Ballylynan,0.5191810460717091,19.845020707744734
06/01/2010,"No 3 Walnut Close, Foxburrow, Portlaoise",Laois,120000.0,Yes,New Dwelling house /Apartment,greater than or equal to 38 sq metres and less than 125 sq metres,ChIJs4bCvKsNXUgRSFngrBMwNKg,"https://maps.googleapis.com/maps/api/geocode/json?address=No+3+Walnut+Close,+Foxburrow,+Portlaoise,+Laois,+Ireland&key=AIzaSyDRZ-wdfFwQPJfje5ImWN_78508dkyk8H4",53.0357999,-7.269223599999999,"Walnut Close, Ballymooney, Portlaoise, Co. Laois, Ireland",,ROOFTOP,Midland,08071,Portlaoighise (Maryborough) Rural,0.36667852411519697,2.1322998238975743
11/01/2010,"22 Bruach Na Habhann, Maganey, Killeen",Laois,140000.0,Yes,New Dwelling house /Apartment,greater than or equal to 38 sq metres and less than 125 sq metres,EjQyMiBCcnVhY2ggTmEgaEFiaGFubiwgUG9ydGxhb2lzZSwgQ28uIExhb2lzLCBJcmVsYW5kIhoSGAoUChIJ92v9QjIMXUgRjCh0_ykUXp8QFg,"https://maps.googleapis.com/maps/api/geocode/json?address=22+Bruach+Na+Habhann,+Maganey,+Killeen,+Laois,+Ireland&key=AIzaSyDRZ-wdfFwQPJfje5ImWN_78508dkyk8H4",53.0405075,-7.3059717000000015,"22 Bruach Na hAbhann, Borris Little, Portlaoise, Co. Laois, Ireland",,RANGE_INTERPOLATED,Midland,08071,Portlaoighise (Maryborough) Rural,0.1800683406991009,0.4877800005325713
12/01/2010,"2 Arlington Estate, Portarlington",Laois,105000.0,No,Second-Hand Dwelling house /Apartment,,ChIJWxX_mXF1XUgRYJAxl6nHAAo,"https://maps.googleapis.com/maps/api/geocode/json?address=2+Arlington+Estate,+Portarlington,+Laois,+Ireland&key=AIzaSyDRZ-wdfFwQPJfje5ImWN_78508dkyk8H4",53.16121099999999,-7.187757299999999,"Portarlington, Co. Laois, Ireland",,APPROXIMATE,Midland,08070,Portarlington South,0.1197574977711084,1.699566177841051
14/01/2010,"Glosna House, Ballylehane Lower, Ballylinan Via Athy",Laois,330000.0,No,Second-Hand Dwelling house /Apartment,,ChIJbS06Pu1rXUgRl5e6aet4ses,"https://maps.googleapis.com/maps/api/geocode/json?address=Glosna+House,+Ballylehane+Lower,+Ballylinan+Via+Athy,+Laois,+Ireland&key=AIzaSyDRZ-wdfFwQPJfje5ImWN_78508dkyk8H4",52.9083657,-7.088023100000001,"Glosna House, Kilcruise, Glosna, Co. Laois, Ireland",,ROOFTOP,Midland,08091,Ballylehane,2.398074253995294,20.16911211653016
15/01/2010,"13 Ashley Gardens, Borris Road, Portlaoise",Laois,247000.0,No,Second-Hand Dwelling house /Apartment,,ChIJ94sR3FAMXUgRRLk8v-Y3SRI,"https://maps.googleapis.com/maps/api/geocode/json?address=13+Ashley+Gardens,+Borris+Road,+Portlaoise,+Laois,+Ireland&key=AIzaSyDRZ-wdfFwQPJfje5ImWN_78508dkyk8H4",53.0473613,-7.2757466000000015,"13 Ashley Gardens, Ballyroan, Portlaoise, Co. Laois, R32 FYH9, Ireland",R32 FYH9,ROOFTOP,Midland,08071,Portlaoighise (Maryborough) Rural,0.29338728087020904,2.063820623192812
15/01/2010,"1, The Hermitage, Portloaise",Laois,186000.0,No,Second-Hand Dwelling house /Apartment,,ChIJh6-UA1oMXUgRFI5Zc4UZkM4,"https://maps.googleapis.com/maps/api/geocode/json?address=1,+The+Hermitage,+Portloaise,+Laois,+Ireland&key=AIzaSyDRZ-wdfFwQPJfje5ImWN_78508dkyk8H4",53.05010619999999,-7.2754407999999975,"1 The Hermitage, Ratheven, Portlaoise, Co. Laois, R32 NWY1, Ireland",R32 NWY1,ROOFTOP,Midland,08071,Portlaoighise (Maryborough) Rural,0.008994162057046468,2.263111221616648
18/01/2010,"39 The Hermitage, Borris Little, Portlaois",Laois,180000.0,No,Second-Hand Dwelling house /Apartment,,ChIJAyvs0lsMXUgR4PnZTOfUXsg,"https://maps.googleapis.com/maps/api/geocode/json?address=39+The+Hermitage,+Borris+Little,+Portlaois,+Laois,+Ireland&key=AIzaSyDRZ-wdfFwQPJfje5ImWN_78508dkyk8H4",53.0524363,-7.276451400000001,"39 The Hermitage, Ratheven, Portlaoise, Co. Laois, R32 P79E, Ireland",R32 P79E,ROOFTOP,Midland,08071,Portlaoighise (Maryborough) Rural,0.2734184814467375,2.389487198903683
20/01/2010,"Clonanny, Portarlington",Laois,330000.0,No,Second-Hand Dwelling house /Apartment,,ChIJlwPb1GR2XUgR9pa03ySzRcQ,"https://maps.googleapis.com/maps/api/geocode/json?address=Clonanny,+Portarlington,+Laois,+Ireland&key=AIzaSyDRZ-wdfFwQPJfje5ImWN_78508dkyk8H4",53.14366310000001,-7.1099590999999975,"Clonanny, Coole, Co. Laois, Ireland",,APPROXIMATE,Midland,08060,Kilmullen,2.8016769082893287,4.745834154226001
21/01/2010,"19 Quigley Park, Rathdowney",Laois,140000.0,No,Second-Hand Dwelling house /Apartment,,ChIJ94Aj2zAeXUgRVuOZ9ntnQGQ,"https://maps.googleapis.com/maps/api/geocode/json?address=19+Quigley+Park,+Rathdowney,+Laois,+Ireland&key=AIzaSyDRZ-wdfFwQPJfje5ImWN_78508dkyk8H4",52.855071,-7.5916485,"19 Quigley Park, Rathdowney, Co. Laois, R32 F8C3, Ireland",R32 F8C3,ROOFTOP,Midland,08026,Rathdowney,0.5480357611264381,5.051860003727778
21/01/2010,"9 Patrick Street, Mountmellick",Laois,225000.0,No,Second-Hand Dwelling house /Apartment,,ChIJYUeaddILXUgRvw2c-NJ6rSw,"https://maps.googleapis.com/maps/api/geocode/json?address=9+Patrick+Street,+Mountmellick,+Laois,+Ireland&key=AIzaSyDRZ-wdfFwQPJfje5ImWN_78508dkyk8H4",53.11823339999999,-7.328799900000001,"9 Patrick St, Townparks, Mountmellick, Co. Laois, R32 K066, Ireland",R32 K066,ROOFTOP,Midland,08066,Mountmellick Urban,0.034970068640423034,9.210559881983055
21/01/2010,"Main Street, Abbeyleix",Laois,115000.0,No,Second-Hand Dwelling house /Apartment,,ChIJERrH49YQXUgRlX-4O-D11nA,"https://maps.googleapis.com/maps/api/geocode/json?address=Main+Street,+Abbeyleix,+Laois,+Ireland&key=AIzaSyDRZ-wdfFwQPJfje5ImWN_78508dkyk8H4",52.9126662,-7.349406300000001,"Main St, Knocknamoe, Abbeyleix, Co. Laois, Ireland",,GEOMETRIC_CENTER,Midland,08001,Abbeyleix,0.16089693778042752,14.148979218490874
22/01/2010,"133 Ashewood Walk, Summerhill Lane, Portlaoise",Laois,185000.0,Yes,New Dwelling house /Apartment,greater than or equal to 38 sq metres and less than 125 sq metres,ChIJr1qndK8NXUgR645B8q1_cwM,"https://maps.googleapis.com/maps/api/geocode/json?address=133+Ashewood+Walk,+Summerhill+Lane,+Portlaoise,+Laois,+Ireland&key=AIzaSyDRZ-wdfFwQPJfje5ImWN_78508dkyk8H4",53.0295318,-7.2727201,"133 Summerhill Ln, Ashewood Walk, Summerhill, Portlaoise, Co. Laois, R32 E28H, Ireland",R32 E28H,ROOFTOP,Midland,08071,Portlaoighise (Maryborough) Rural,0.5283273031191817,2.04930424299607
22/01/2010,"5 Davitt Court, Mountmellick",Laois,132000.0,No,Second-Hand Dwelling house /Apartment,,ChIJBww7n8gLXUgR6jrQK-yU6zY,"https://maps.googleapis.com/maps/api/geocode/json?address=5+Davitt+Court,+Mountmellick,+Laois,+Ireland&key=AIzaSyDRZ-wdfFwQPJfje5ImWN_78508dkyk8H4",53.11219759999999,-7.3180939,"5 Davitt Ct, Ballycullenbeg, Mountmellick, Co. Laois, R32 Y7P1, Ireland",R32 Y7P1,ROOFTOP,Midland,08066,Mountmellick Urban,0.4952830247098283,8.429687610927385
25/01/2010,"30 Patrick Street, Mountmellick",Laois,400000.0,No,Second-Hand Dwelling house /Apartment,,ChIJLZbTCtILXUgRw_RLfkJ-Rus,"https://maps.googleapis.com/maps/api/geocode/json?address=30+Patrick+Street,+Mountmellick,+Laois,+Ireland&key=AIzaSyDRZ-wdfFwQPJfje5ImWN_78508dkyk8H4",53.11799920000001,-7.328871500000001,"30 Patrick St, Townparks, Mountmellick, Co. Laois, R32 NX68, Ireland",R32 NX68,ROOFTOP,Midland,08066,Mountmellick Urban,0.04887533461939135,9.18598466253466
25/01/2010,"Cappagh North, Portlaoise",Laois,368000.0,No,Second-Hand Dwelling house /Apartment,,ChIJ1WbrvrgOXUgRSIH0UYIsNFc,"https://maps.googleapis.com/maps/api/geocode/json?address=Cappagh+North,+Portlaoise,+Laois,+Ireland&key=AIzaSyDRZ-wdfFwQPJfje5ImWN_78508dkyk8H4",53.0598245,-7.342477400000001,"Cappagh North, Co. Laois, Ireland",,APPROXIMATE,Midland,08044,Borris,1.7723737813954499,3.732911759563697
28/01/2010,"24 Bruach Na Habhann, Killeen, Maganey",Laois,133000.0,Yes,New Dwelling house /Apartment,greater than or equal to 38 sq metres and less than 125 sq metres,ChIJo6GDM5ZoXUgRJuG8HWphRwA,"https://maps.googleapis.com/maps/api/geocode/json?address=24+Bruach+Na+Habhann,+Killeen,+Maganey,+Laois,+Ireland&key=AIzaSyDRZ-wdfFwQPJfje5ImWN_78508dkyk8H4",52.90539370000001,-6.966277099999999,"24 Bruach Na Habhainn, Killeen, Maganey, Co. Laois, R93 A2X2, Ireland",R93 A2X2,ROOFTOP,Midland,08032,Killabban,3.9105665188170606,26.751083977894698
28/01/2010,"7 Mel Street, Kilminchy, Portlaoise",Laois,182000.0,No,Second-Hand Dwelling house /Apartment,,ChIJC1XfKv8MXUgRbrKs-AJisNA,"https://maps.googleapis.com/maps/api/geocode/json?address=7+Mel+Street,+Kilminchy,+Portlaoise,+Laois,+Ireland&key=AIzaSyDRZ-wdfFwQPJfje5ImWN_78508dkyk8H4",53.0449588,-7.263310799999997,"7 Mell St, Kilminchy, Portlaoise, Co. Laois, R32 N4C9, Ireland",R32 N4C9,ROOFTOP,Midland,08071,Portlaoighise (Maryborough) Rural,0.09272077513845876,2.6942869974747072
29/01/2010,"30 Castlelea View, Portarlington",Laois,160000.0,Yes,New Dwelling house /Apartment,greater than or equal to 38 sq metres and less than 125 sq metres,ChIJHUYvdnN1XUgRjMrcEl_FUTI,"https://maps.googleapis.com/maps/api/geocode/json?address=30+Castlelea+View,+Portarlington,+Laois,+Ireland&key=AIzaSyDRZ-wdfFwQPJfje5ImWN_78508dkyk8H4",53.1548464,-7.1904413000000025,"30 Castlelea View, Cooltederry, Lansdowne, Co. Laois, R32 D2E6, Ireland",R32 D2E6,ROOFTOP,Midland,08070,Portarlington South,0.4441766386690488,1.1092630605318543
02/02/2010,"No 45 Boughlone Way, Bellingham, Portlaoise",Laois,180000.0,Yes,New Dwelling house /Apartment,greater than or equal to 38 sq metres and less than 125 sq metres,ChIJKdenaXwOXUgRgKo_cSkhtEA,"https://maps.googleapis.com/maps/api/geocode/json?address=No+45+Boughlone+Way,+Bellingham,+Portlaoise,+Laois,+Ireland&key=AIzaSyDRZ-wdfFwQPJfje5ImWN_78508dkyk8H4",53.0313625,-7.329156999999999,"45 Boughlone Way, Bellingham, Portlaoise, Co. Laois, R32 V09A, Ireland",R32 V09A,ROOFTOP,Midland,08051,Clondarrig,1.280357242366961,1.952290114333976
04/02/2010,"12 Cherrybrook, Foxburrow, Portlaoise",Laois,290748.0,Yes,New Dwelling house /Apartment,greater than 125 sq metres,ChIJOzgyoasNXUgRy2jy9Yn3iJ0,"https://maps.googleapis.com/maps/api/geocode/json?address=12+Cherrybrook,+Foxburrow,+Portlaoise,+Laois,+Ireland&key=AIzaSyDRZ-wdfFwQPJfje5ImWN_78508dkyk8H4",53.0363387,-7.2692343999999975,"12 Cherrybrook, Ballymooney, Portlaoise, Co. Laois, R32 D25Y, Ireland",R32 D25Y,ROOFTOP,Midland,08071,Portlaoighise (Maryborough) Rural,0.3970109908231545,2.1302230878341417
04/02/2010,"No 4 Millview, Ridge Road, Portlaoise",Laois,97000.0,No,Second-Hand Dwelling house /Apartment,,EihSaWRnZSBSZCwgUG9ydGxhb2lzZSwgQ28uIExhb2lzLCBJcmVsYW5kIi4qLAoUChIJk80o9jMMXUgReIRHgIIz9B0SFAoSCQdOSUs1DF1IEdB0MZepxwAK,"https://maps.googleapis.com/maps/api/geocode/json?address=No+4+Millview,+Ridge+Road,+Portlaoise,+Laois,+Ireland&key=AIzaSyDRZ-wdfFwQPJfje5ImWN_78508dkyk8H4",53.04212800000001,-7.302061,"Ridge Rd, Portlaoise, Co. Laois, Ireland",,GEOMETRIC_CENTER,Midland,08071,Portlaoighise (Maryborough) Rural,0.4880175630903889,0.5635737077777748
05/02/2010,"4 Radharc Na Sleibhte, Mountrath",Laois,205000.0,Yes,New Dwelling house /Apartment,greater than or equal to 38 sq metres and less than 125 sq metres,ChIJk0MSXTsFXUgR7LsiTPH8_yo,"https://maps.googleapis.com/maps/api/geocode/json?address=4+Radharc+Na+Sleibhte,+Mountrath,+Laois,+Ireland&key=AIzaSyDRZ-wdfFwQPJfje5ImWN_78508dkyk8H4",52.99950519999999,-7.4654884999999975,"4 Radharc Na Sleibhte, Mountrath, Co. Laois, R32 Y8D6, Ireland",R32 Y8D6,ROOFTOP,Midland,08067,Mountrath,0.678338050002376,11.737527224919074
08/02/2010,"12 Woodlawn Villas, Portlaoise",Laois,152500.0,No,Second-Hand Dwelling house /Apartment,,ChIJp3M8JDMMXUgRhy9CYvFqwv8,"https://maps.googleapis.com/maps/api/geocode/json?address=12+Woodlawn+Villas,+Portlaoise,+Laois,+Ireland&key=AIzaSyDRZ-wdfFwQPJfje5ImWN_78508dkyk8H4",53.03807809999999,-7.303250099999999,"12 Woodlawn Villas, Moneyballytyrrell, Portlaoise, Co. Laois, R32 PT6X, Ireland",R32 PT6X,ROOFTOP,Midland,08072,Portlaoighise (Maryborough) Urban,0.17943842567522078,0.16494923600626954
10/02/2010,"31 The Garden Village, Portlaoise",Laois,125000.0,No,Second-Hand Dwelling house /Apartment,,ChIJl-GWnCUMXUgRvboHNPBq6lY,"https://maps.googleapis.com/maps/api/geocode/json?address=31+The+Garden+Village,+Portlaoise,+Laois,+Ireland&key=AIzaSyDRZ-wdfFwQPJfje5ImWN_78508dkyk8H4",53.0480907,-7.3139053,"31 The Garden Village, Gorteen, Portlaoise, Co. Laois, R32 VWC5, Ireland",R32 VWC5,ROOFTOP,Midland,08071,Portlaoighise (Maryborough) Rural,0.13540389520782195,1.482231232967196
10/02/2010,"Forest, Mountmellick",Laois,122000.0,No,Second-Hand Dwelling house /Apartment,,ChIJzwF4UowJXUgR4otSu6fHACY,"https://maps.googleapis.com/maps/api/geocode/json?address=Forest,+Mountmellick,+Laois,+Ireland&key=AIzaSyDRZ-wdfFwQPJfje5ImWN_78508dkyk8H4",53.1472774,-7.355650099999999,"Forest Upper, Co. Laois, Ireland",,APPROXIMATE,Midland,08057,Graigue,2.8680306061500387,11.606936349115456
11/02/2010,"The Dangans, Mountmellick",Laois,100000.0,No,Second-Hand Dwelling house /Apartment,,ChIJaSoTyBsLXUgRh0H4SpS_PQ8,"https://maps.googleapis.com/maps/api/geocode/json?address=The+Dangans,+Mountmellick,+Laois,+Ireland&key=AIzaSyDRZ-wdfFwQPJfje5ImWN_78508dkyk8H4",53.11812629999999,-7.263875,"Dangans, Rock, Co. Laois, Ireland",,APPROXIMATE,Midland,08054,Dangans,3.9300232721537336,6.314396010991085
12/02/2010,"Main Street, Portarlington",Laois,40000.0,No,Second-Hand Dwelling house /Apartment,,ChIJnaErZHZ1XUgRCMAkG4qBEMA,"https://maps.googleapis.com/maps/api/geocode/json?address=Main+Street,+Portarlington,+Laois,+Ireland&key=AIzaSyDRZ-wdfFwQPJfje5ImWN_78508dkyk8H4",53.1583721,-7.186744499999999,"Main St, Portarlington, Co. Laois, Ireland",,GEOMETRIC_CENTER,Midland,08070,Portarlington South,0.07332243375205348,1.3768379446009469
12/02/2010,"No 10 Clonboyne Close, Bellingham, Portlaoise",Laois,215000.0,Yes,New Dwelling house /Apartment,greater than or equal to 38 sq metres and less than 125 sq metres,ChIJeRtyDHwOXUgRkO30OjsAQ1k,"https://maps.googleapis.com/maps/api/geocode/json?address=No+10+Clonboyne+Close,+Bellingham,+Portlaoise,+Laois,+Ireland&key=AIzaSyDRZ-wdfFwQPJfje5ImWN_78508dkyk8H4",53.030614,-7.3280477,"10 Clonboyne Cl, Bellingham, Portlaoise, Co. Laois, R32 YP0A, Ireland",R32 YP0A,ROOFTOP,Midland,08051,Clondarrig,1.1972051043320984,1.9114503133856455
12/02/2010,"No 18 Rankins Wood, Portlaoise",Laois,228000.0,No,Second-Hand Dwelling house /Apartment,,ChIJ8YvIBcoNXUgRLpOO5mfR3yo,"https://maps.googleapis.com/maps/api/geocode/json?address=No+18+Rankins+Wood,+Portlaoise,+Laois,+Ireland&key=AIzaSyDRZ-wdfFwQPJfje5ImWN_78508dkyk8H4",53.03298390000001,-7.292322299999999,"18 Rankin's Wood, Beladd, Portlaoise, Co. Laois, R32 D6Y6, Ireland",R32 D6Y6,ROOFTOP,Midland,08072,Portlaoighise (Maryborough) Urban,0.19058347000752432,0.7043887719134386
12/02/2010,"Sweetview, Heath Cottage, Abbeyleix",Laois,150000.0,No,Second-Hand Dwelling house /Apartment,,ChIJU45xJswQXUgRXq9JRH5Qlls,"https://maps.googleapis.com/maps/api/geocode/json?address=Sweetview,+Heath+Cottage,+Abbeyleix,+Laois,+Ireland&key=AIzaSyDRZ-wdfFwQPJfje5ImWN_78508dkyk8H4",52.90908220000001,-7.362251199999997,"Heath Cottage, Ballacolla Rd, Knocknamoe, Abbeyleix, Co. Laois, Ireland",,ROOFTOP,Midland,08001,Abbeyleix,0.8311991992028599,14.752800565682044
15/02/2010,"20 Russell Close, Ballylynan",Laois,158589.8,Yes,New Dwelling house /Apartment,greater than or equal to 38 sq metres and less than 125 sq metres,ChIJpe1M3L9uXUgRbpXPpnm9tbk,"https://maps.googleapis.com/maps/api/geocode/json?address=20+Russell+Close,+Ballylynan,+Laois,+Ireland&key=AIzaSyDRZ-wdfFwQPJfje5ImWN_78508dkyk8H4",52.9444171,-7.0447235,"20 Russell Close, Ballylynan, Gracefield Manor, Co. Laois, R14 NR79, Ireland",R14 NR79,ROOFTOP,Midland,08029,Ballylynan,0.20015586461175688,19.98798469506388
15/02/2010,"6 Green Road, Portlaoise",Laois,60000.0,No,Second-Hand Dwelling house /Apartment,,Eio2IEdyZWVuIFJkLCBQb3J0bGFvaXNlLCBDby4gTGFvaXMsIElyZWxhbmQiGhIYChQKEgkvUISFLQxdSBHtwB_65CGLqBAG,"https://maps.googleapis.com/maps/api/geocode/json?address=6+Green+Road,+Portlaoise,+Laois,+Ireland&key=AIzaSyDRZ-wdfFwQPJfje5ImWN_78508dkyk8H4",53.04022970000001,-7.3085417,"6 Green Rd, Borris Little, Portlaoise, Co. Laois, Ireland",,RANGE_INTERPOLATED,Midland,08071,Portlaoighise (Maryborough) Rural,0.14421971465573405,0.5907232313687599
16/02/2010,"6 Millbrook, Portlaoise",Laois,110000.0,No,Second-Hand Dwelling house /Apartment,,ChIJ14A0PMsNXUgR_M3Mruwp39M,"https://maps.googleapis.com/maps/api/geocode/json?address=6+Millbrook,+Portlaoise,+Laois,+Ireland&key=AIzaSyDRZ-wdfFwQPJfje5ImWN_78508dkyk8H4",53.0363593,-7.2973459,"6 Millbrook, Moneyballytyrrell, Portlaoise, Co. Laois, R32 D7NK, Ireland",R32 D7NK,ROOFTOP,Midland,08072,Portlaoighise (Maryborough) Urban,0.033439382115854795,0.25043578725544186
18/02/2010,"6 Bramley Court, Potlaoise",Laois,120000.0,No,Second-Hand Dwelling house /Apartment,,ChIJkbnj9i4MXUgRkalusIUyggY,"https://maps.googleapis.com/maps/api/geocode/json?address=6+Bramley+Court,+Potlaoise,+Laois,+Ireland&key=AIzaSyDRZ-wdfFwQPJfje5ImWN_78508dkyk8H4",53.0438321,-7.3126906000000025,"6 Bramley Ct, Maryborough, Portlaoise, Co. Laois, R32 K5A4, Ireland",R32 K5A4,ROOFTOP,Midland,08071,Portlaoighise (Maryborough) Rural,0.1672563360209403,1.0638381791601599
19/02/2010,"Derrykearn, Abbeyleix",Laois,285000.0,No,Second-Hand Dwelling house /Apartment,,ChIJ8UAz_IoQXUgRt5i2sfdYs8w,"https://maps.googleapis.com/maps/api/geocode/json?address=Derrykearn,+Abbeyleix,+Laois,+Ireland&key=AIzaSyDRZ-wdfFwQPJfje5ImWN_78508dkyk8H4",52.94509350000001,-7.384692599999997,"Derrykearn, Green Road, Co. Laois, Ireland",,APPROXIMATE,Midland,08025,Raheen,2.508819811325881,11.606197200203484
22/02/2010,"156 The Hermitage, Portlaoise",Laois,215000.0,No,Second-Hand Dwelling house /Apartment,,ChIJPf_nhlkMXUgRv2GRrQK71Ok,"https://maps.googleapis.com/maps/api/geocode/json?address=156+The+Hermitage,+Portlaoise,+Laois,+Ireland&key=AIzaSyDRZ-wdfFwQPJfje5ImWN_78508dkyk8H4",53.051772,-7.275216800000001,"156 The Hermitage, Ratheven, Portlaoise, Co. Laois, R32 WDX5, Ireland",R32 WDX5,ROOFTOP,Midland,08071,Portlaoighise (Maryborough) Rural,0.19348112172163812,2.396934175131053
24/02/2010,"8 Station Grove, Portarlington",Laois,204000.0,No,Second-Hand Dwelling house /Apartment,,ChIJNajugQl1XUgRdqp6qq101nc,"https://maps.googleapis.com/maps/api/geocode/json?address=8+Station+Grove,+Portarlington,+Laois,+Ireland&key=AIzaSyDRZ-wdfFwQPJfje5ImWN_78508dkyk8H4",53.14689620000001,-7.1835612000000015,"8 Station Grove, Cooltederry, Portarlington, Co. Laois, R32 V0Y9, Ireland",R32 V0Y9,ROOFTOP,Midland,08070,Portarlington South,0.07881495212335504,0.13887445133810986
25/02/2010,"No 72 Clonrooske Abbey, Portlaoise",Laois,159000.0,Yes,New Dwelling house /Apartment,greater than 125 sq metres,ChIJZRm02icMXUgRb2i1O22TsV8,"https://maps.googleapis.com/maps/api/geocode/json?address=No+72+Clonrooske+Abbey,+Portlaoise,+Laois,+Ireland&key=AIzaSyDRZ-wdfFwQPJfje5ImWN_78508dkyk8H4",53.04750720000001,-7.321441600000001,"72 Clonroosk Abbey, Maryborough, Portlaoise, Co. Laois, R32 N82T, Ireland",R32 N82T,ROOFTOP,Midland,08051,Clondarrig,0.3364927055852542,1.7710466214695602
25/02/2010,"Upper Main St, Portarlington",Laois,70000.0,No,Second-Hand Dwelling house /Apartment,,ChIJnaErZHZ1XUgRCMAkG4qBEMA,"https://maps.googleapis.com/maps/api/geocode/json?address=Upper+Main+St,+Portarlington,+Laois,+Ireland&key=AIzaSyDRZ-wdfFwQPJfje5ImWN_78508dkyk8H4",53.1583721,-7.186744499999999,"Main St, Portarlington, Co. Laois, Ireland",,GEOMETRIC_CENTER,Midland,08070,Portarlington South,0.07332243375205348,1.3768379446009469
26/02/2010,"18 The Close, Graigovern Lodge, Ballybrittas",Laois,200000.0,Yes,New Dwelling house /Apartment,greater than or equal to 38 sq metres and less than 125 sq metres,EicxOCBHcmFpZ2F2ZXJuIExvZGdlLCBDby4gTGFvaXMsIElyZWxhbmQiGhIYChQKEgkjLhf8F3RdSBHVjDyNZT0nUhAS,"https://maps.googleapis.com/maps/api/geocode/json?address=18+The+Close,+Graigovern+Lodge,+Ballybrittas,+Laois,+Ireland&key=AIzaSyDRZ-wdfFwQPJfje5ImWN_78508dkyk8H4",53.1130317,-7.1274715,"18 Graigavern Lodge, Graigavern, Co. Laois, Ireland",,RANGE_INTERPOLATED,Midland,08058,Jamestown,0.6743206715647958,5.116977535136809
26/02/2010,"43 Railway Mews, Portarlington",Laois,155000.0,No,Second-Hand Dwelling house /Apartment,,ChIJyzdWM6F1XUgR4ksIKTLlNI8,"https://maps.googleapis.com/maps/api/geocode/json?address=43+Railway+Mews,+Portarlington,+Laois,+Ireland&key=AIzaSyDRZ-wdfFwQPJfje5ImWN_78508dkyk8H4",53.1476939,-7.175432799999999,"43 Railway Mews, Bracklone, Portarlington, Co. Laois, R32 T278, Ireland",R32 T278,ROOFTOP,Midland,08070,Portarlington South,0.4412909437287516,0.4131011259117493
26/02/2010,"75 Woodgrove, Portlaoise",Laois,122500.0,No,Second-Hand Dwelling house /Apartment,,ChIJZ2gj2ygMXUgRlswaL_17f78,"https://maps.googleapis.com/maps/api/geocode/json?address=75+Woodgrove,+Portlaoise,+Laois,+Ireland&key=AIzaSyDRZ-wdfFwQPJfje5ImWN_78508dkyk8H4",53.04500789999999,-7.317409,"75 Woodgrove, Ballyfin Rd, Maryborough, Portlaoise, Co. Laois, R32 P5DW, Ireland",R32 P5DW,ROOFTOP,Midland,08071,Portlaoighise (Maryborough) Rural,0.2515583985927214,1.3855694339585702
01/03/2010,"Barnashrone, Mountmellick",Laois,140000.0,No,Second-Hand Dwelling house /Apartment,,ChIJEZZ2XTYJXUgRfk4X53LwO-8,"https://maps.googleapis.com/maps/api/geocode/json?address=Barnashrone,+Mountmellick,+Laois,+Ireland&key=AIzaSyDRZ-wdfFwQPJfje5ImWN_78508dkyk8H4",53.0834,-7.3649,"Omoresforest, Barnashrone, Co. Laois, Ireland",,APPROXIMATE,Midland,08069,O'More's Forest,4.19001964847995,6.674575777871463
01/03/2010,"Main Street, Mountrath",Laois,15000.0,No,Second-Hand Dwelling house /Apartment,,EhtNYWluIFN0LCBDby4gTGFvaXMsIElyZWxhbmQiLiosChQKEgnDKyArIgVdSBFVD6LWS7TokBIUChIJIzIPSiEFXUgRwIQxl6nHAAo,"https://maps.googleapis.com/maps/api/geocode/json?address=Main+Street,+Mountrath,+Laois,+Ireland&key=AIzaSyDRZ-wdfFwQPJfje5ImWN_78508dkyk8H4",53.001801,-7.4747164,"Main St, Co. Laois, Ireland",,GEOMETRIC_CENTER,Midland,08067,Mountrath,0.20770475365719374,12.232304734469961
02/03/2010,"Mc Donnells Pub, Graveyard St., Ballinakill",Laois,120000.0,No,Second-Hand Dwelling house /Apartment,,ChIJW8eutvIWXUgR4H0xl6nHAAo,"https://maps.googleapis.com/maps/api/geocode/json?address=Mc+Donnells+Pub,+Graveyard+St.,+Ballinakill,+Laois,+Ireland&key=AIzaSyDRZ-wdfFwQPJfje5ImWN_78508dkyk8H4",52.87500770000001,-7.308575299999997,"Ballinakill, Co. Laois, Ireland",,APPROXIMATE,Midland,08003,Ballinakill,0.04271342945027951,17.96957016594418
04/03/2010,"Dobbins, Main Street, Stradbally",Laois,253333.0,No,Second-Hand Dwelling house /Apartment,,ChIJzTUkG4hyXUgRoNAxl6nHAAo,"https://maps.googleapis.com/maps/api/geocode/json?address=Dobbins,+Main+Street,+Stradbally,+Laois,+Ireland&key=AIzaSyDRZ-wdfFwQPJfje5ImWN_78508dkyk8H4",53.01579830000001,-7.1494716,"Stradbally, Co. Laois, Ireland",,APPROXIMATE,Midland,08036,Stradbally,0.016021889268798026,10.400744314615894
05/03/2010,"15 Lake Drive, Kilminchy, Portlaoise",Laois,140000.0,No,Second-Hand Dwelling house /Apartment,,ChIJRSQKP1YMXUgRVDh4N6s7YM0,"https://maps.googleapis.com/maps/api/geocode/json?address=15+Lake+Drive,+Kilminchy,+Portlaoise,+Laois,+Ireland&key=AIzaSyDRZ-wdfFwQPJfje5ImWN_78508dkyk8H4",53.0462249,-7.268602799999999,"15 Lake Dr, Kilminchy, Portlaoise, Co. Laois, R32 XV8R, Ireland",R32 XV8R,ROOFTOP,Midland,08071,Portlaoighise (Maryborough) Rural,0.34884032808534793,2.41984488601798
05/03/2010,"Carrigan Street, Durrow",Laois,58000.0,No,Second-Hand Dwelling house /Apartment,,ChIJF2LqhCQYXUgRsyM-vfDM8Xw,"https://maps.googleapis.com/maps/api/geocode/json?address=Carrigan+Street,+Durrow,+Laois,+Ireland&key=AIzaSyDRZ-wdfFwQPJfje5ImWN_78508dkyk8H4",52.84320409999999,-7.393761500000001,"Carrigan St, Durrow Townparks, Co. Laois, Ireland",,GEOMETRIC_CENTER,Midland,08017,Durrow,0.3178528870205661,15.357344283269056
09/03/2010,"73 De Vesci Court, Fairgreen, Mountmellick",Laois,50000.0,No,Second-Hand Dwelling house /Apartment,,ChIJc9_XBScMXUgRgef4WWOi2pg,"https://maps.googleapis.com/maps/api/geocode/json?address=73+De+Vesci+Court,+Fairgreen,+Mountmellick,+Laois,+Ireland&key=AIzaSyDRZ-wdfFwQPJfje5ImWN_78508dkyk8H4",53.0498771,-7.3215769,"73 De Vesci Ct, Gorteen, Fairgreen, Co. Laois, R32 VY63, Ireland",R32 VY63,ROOFTOP,Midland,08044,Borris,0.08319570197849968,1.9602086872052504
10/03/2010,"130 Whitefields, Portarlington",Laois,155000.0,No,Second-Hand Dwelling house /Apartment,,ChIJhyj9qgx1XUgREI3OA9srPa4,"https://maps.googleapis.com/maps/api/geocode/json?address=130+Whitefields,+Portarlington,+Laois,+Ireland&key=AIzaSyDRZ-wdfFwQPJfje5ImWN_78508dkyk8H4",53.1521369,-7.1887786999999985,"130 Whitefields, Cooltederry, Portarlington, Co. Laois, R32 E027, Ireland",R32 E027,ROOFTOP,Midland,08070,Portarlington South,0.5805290910676283,0.7973589144519596
11/03/2010,"No 70 Clonroosk Abbey, Portlaoise",Laois,159000.0,Yes,New Dwelling house /Apartment,greater than 125 sq metres,ChIJN1vdxCcMXUgROSbDGr_OZu4,"https://maps.googleapis.com/maps/api/geocode/json?address=No+70+Clonroosk+Abbey,+Portlaoise,+Laois,+Ireland&key=AIzaSyDRZ-wdfFwQPJfje5ImWN_78508dkyk8H4",53.0475956,-7.321649099999999,"70 Clonroosk Abbey, Maryborough, Portlaoise, Co. Laois, R32 D21R, Ireland",R32 D21R,ROOFTOP,Midland,08051,Clondarrig,0.3284481050422129,1.787970598197764
11/03/2010,"No 8 Clonboyne Close, Bellingham, Portlaoise",Laois,180000.0,Yes,New Dwelling house /Apartment,greater than or equal to 38 sq metres and less than 125 sq metres,ChIJue4yc3wOXUgReXxWsz-_Yr0,"https://maps.googleapis.com/maps/api/geocode/json?address=No+8+Clonboyne+Close,+Bellingham,+Portlaoise,+Laois,+Ireland&key=AIzaSyDRZ-wdfFwQPJfje5ImWN_78508dkyk8H4",53.03067429999999,-7.328379200000001,"8 Clonboyne Cl, Bellingham, Portlaoise, Co. Laois, R32 TN9X, Ireland",R32 TN9X,ROOFTOP,Midland,08051,Clondarrig,1.2198689834005594,1.9296088404660687
12/03/2010,"14 Summerhill, Stradbally Road, Portlaoise",Laois,230000.0,No,Second-Hand Dwelling house /Apartment,,ChIJ98bEgbENXUgR2r0yARDhf7Q,"https://maps.googleapis.com/maps/api/geocode/json?address=14+Summerhill,+Stradbally+Road,+Portlaoise,+Laois,+Ireland&key=AIzaSyDRZ-wdfFwQPJfje5ImWN_78508dkyk8H4",53.0329044,-7.281077999999999,"14 Summerhill, Stradbally Rd, Beladd, Portlaoise, Co. Laois, R32 D2WC, Ireland",R32 D2WC,ROOFTOP,Midland,08071,Portlaoighise (Maryborough) Rural,0.25762257913632386,1.3964954469532986
12/03/2010,"Cullenagh, Portlaoise",Laois,380000.0,Yes,New Dwelling house /Apartment,greater than 125 sq metres,ChIJ2YVwVU8SXUgRufiMozwLjwo,"https://maps.googleapis.com/maps/api/geocode/json?address=Cullenagh,+Portlaoise,+Laois,+Ireland&key=AIzaSyDRZ-wdfFwQPJfje5ImWN_78508dkyk8H4",52.9648186,-7.2647866,"Cullenagh, Co. Laois, Ireland",,APPROXIMATE,Midland,08013,Cullenagh,3.1244672067305133,8.334889190869365
19/03/2010,"Courtwood, Vicarstown",Laois,127000.0,No,Second-Hand Dwelling house /Apartment,,ChIJZ0wPVjlxXUgRDom06pUP3JI,"https://maps.googleapis.com/maps/api/geocode/json?address=Courtwood,+Vicarstown,+Laois,+Ireland&key=AIzaSyDRZ-wdfFwQPJfje5ImWN_78508dkyk8H4",53.0800944,-7.0752485,"Courtwood, Co. Laois, Ireland",,APPROXIMATE,Midland,08075,Sallyford,5.2019025935618375,10.175279588478924
22/03/2010,"17 Aghnaharna, Stradbally Road, Portlaoise",Laois,222000.0,No,Second-Hand Dwelling house /Apartment,,ChIJuecrvrENXUgRs0oRpiDy2Ak,"https://maps.googleapis.com/maps/api/geocode/json?address=17+Aghnaharna,+Stradbally+Road,+Portlaoise,+Laois,+Ireland&key=AIzaSyDRZ-wdfFwQPJfje5ImWN_78508dkyk8H4",53.0318706,-7.2793382,"17 Aghnaharna Dr, Stradbally Rd, Summerhill, Portlaoise, Co. Laois, R32 XCV9, Ireland",R32 XCV9,ROOFTOP,Midland,08071,Portlaoighise (Maryborough) Rural,0.4204300785341758,1.542841662433453
22/03/2010,"2 Marion Court, Clonminam, Portlaoise",Laois,175000.0,No,Second-Hand Dwelling house /Apartment,,ChIJn8DLFdENXUgRYw7RwATLJEk,"https://maps.googleapis.com/maps/api/geocode/json?address=2+Marion+Court,+Clonminam,+Portlaoise,+Laois,+Ireland&key=AIzaSyDRZ-wdfFwQPJfje5ImWN_78508dkyk8H4",53.0297208,-7.3101973,"Marian Avenue Portlaoise, Clonminam, Portlaoise, Co. Laois, Ireland",,GEOMETRIC_CENTER,Midland,08071,Portlaoighise (Maryborough) Rural,6.715236023249823e-06,0.9695003347768022
22/03/2010,"28 Castlelea View, Portarlington",Laois,97500.0,Yes,New Dwelling house /Apartment,greater than or equal to 38 sq metres and less than 125 sq metres,ChIJh_QOdXN1XUgR65Q0wWhvf58,"https://maps.googleapis.com/maps/api/geocode/json?address=28+Castlelea+View,+Portarlington,+Laois,+Ireland&key=AIzaSyDRZ-wdfFwQPJfje5ImWN_78508dkyk8H4",53.15473420000001,-7.190845599999999,"28 Castlelea View, Cooltederry, Lansdowne, Co. Laois, R32 D2R0, Ireland",R32 D2R0,ROOFTOP,Midland,08070,Portarlington South,0.4717734111646289,1.1132756051623414
25/03/2010,"16 Broomville, Dublin Road, Portlaois",Laois,168000.0,No,Second-Hand Dwelling house /Apartment,,ChIJs0ydjlIMXUgRqRwJmUfd17Q,"https://maps.googleapis.com/maps/api/geocode/json?address=16+Broomville,+Dublin+Road,+Portlaois,+Laois,+Ireland&key=AIzaSyDRZ-wdfFwQPJfje5ImWN_78508dkyk8H4",53.04093229999999,-7.2784071,"16 Broomville, Ballyroan, Portlaoise, Co. Laois, R32 F43W, Ireland",R32 F43W,ROOFTOP,Midland,08071,Portlaoighise (Maryborough) Rural,0.26571974437444723,1.5947520970803368
25/03/2010,"Droughill, Portarlington",Laois,200000.0,No,Second-Hand Dwelling house /Apartment,,ChIJn8ZBn4J1XUgROTb-C4EfmUM,"https://maps.googleapis.com/maps/api/geocode/json?address=Droughill,+Portarlington,+Laois,+Ireland&key=AIzaSyDRZ-wdfFwQPJfje5ImWN_78508dkyk8H4",53.16577660000001,-7.187895399999999,"Droughill, Co. Laois, Ireland",,APPROXIMATE,Midland,08070,Portarlington South,0.45670182173195506,2.1977658843361896
25/03/2010,"No 9 Boughlone Way, Bellingham, Portlaoise",Laois,280000.0,Yes,New Dwelling house /Apartment,greater than 125 sq metres,ChIJ0dWhRHwOXUgR0FaoVL3EC6s,"https://maps.googleapis.com/maps/api/geocode/json?address=No+9+Boughlone+Way,+Bellingham,+Portlaoise,+Laois,+Ireland&key=AIzaSyDRZ-wdfFwQPJfje5ImWN_78508dkyk8H4",53.0318498,-7.329461,"9 Boughlone Way, Bellingham, Portlaoise, Co. Laois, R32 RTX2, Ireland",R32 RTX2,ROOFTOP,Midland,08051,Clondarrig,1.309191523914944,1.9550321155950832
26/03/2010,"36 Clondarrig Court, Bellingham, Portlaoise",Laois,220000.0,Yes,New Dwelling house /Apartment,greater than or equal to 38 sq metres and less than 125 sq metres,ChIJXStIG3wOXUgRKbRBQNgoAnk,"https://maps.googleapis.com/maps/api/geocode/json?address=36+Clondarrig+Court,+Bellingham,+Portlaoise,+Laois,+Ireland&key=AIzaSyDRZ-wdfFwQPJfje5ImWN_78508dkyk8H4",53.0309922,-7.3272325,"36 Clondarrig Ct, Bellingham, Portlaoise, Co. Laois, R32 RY7Y, Ireland",R32 RY7Y,ROOFTOP,Midland,08051,Clondarrig,1.1472882814262202,1.84530167392331
26/03/2010,"82 Rossvale, Portlaoise",Laois,112000.0,No,Second-Hand Dwelling house /Apartment,,ChIJpbVOhi8MXUgRBUpOtuxqlj4,"https://maps.googleapis.com/maps/api/geocode/json?address=82+Rossvale,+Portlaoise,+Laois,+Ireland&key=AIzaSyDRZ-wdfFwQPJfje5ImWN_78508dkyk8H4",53.04720500000001,-7.312548700000002,"82 Mountmellick Rd, Rossvale, Gorteen, Portlaoise, Co. Laois, R32 P4AT, Ireland",R32 P4AT,ROOFTOP,Midland,08071,Portlaoighise (Maryborough) Rural,0.2052422131237204,1.349887052628223
26/03/2010,"Lea Road, Portalington",Laois,178000.0,No,Second-Hand Dwelling house /Apartment,,ChIJWxX_mXF1XUgRYJAxl6nHAAo,"https://maps.googleapis.com/maps/api/geocode/json?address=Lea+Road,+Portalington,+Laois,+Ireland&key=AIzaSyDRZ-wdfFwQPJfje5ImWN_78508dkyk8H4",53.16121099999999,-7.187757299999999,"Portarlington, Co. Laois, Ireland",,APPROXIMATE,Midland,08070,Portarlington South,0.1197574977711084,1.699566177841051
26/03/2010,"No 25 Boughlone Way, Bellingham, Portlaoise",Laois,205000.0,Yes,New Dwelling house /Apartment,greater than or equal to 38 sq metres and less than 125 sq metres,ChIJo0-NOnwOXUgR_pcpT0hWYV0,"https://maps.googleapis.com/maps/api/geocode/json?address=No+25+Boughlone+Way,+Bellingham,+Portlaoise,+Laois,+Ireland&key=AIzaSyDRZ-wdfFwQPJfje5ImWN_78508dkyk8H4",53.03218560000001,-7.328051599999998,"25 Boughlone Way, Bellingham, Portlaoise, Co. Laois, R32 PHD3, Ireland",R32 PHD3,ROOFTOP,Midland,08051,Clondarrig,1.2244022290658179,1.8539738893279691
29/03/2010,"28 Maryborough Crescent, Portlaoise",Laois,187000.0,Yes,New Dwelling house /Apartment,greater than or equal to 38 sq metres and less than 125 sq metres,ChIJsdlG7U0MXUgRcddwbeqYd8k,"https://maps.googleapis.com/maps/api/geocode/json?address=28+Maryborough+Crescent,+Portlaoise,+Laois,+Ireland&key=AIzaSyDRZ-wdfFwQPJfje5ImWN_78508dkyk8H4",53.04263779999999,-7.2811655,"28 Maryborough Cres, Ballyroan, Portlaoise, Co. Laois, R32 ENY7, Ireland",R32 ENY7,ROOFTOP,Midland,08071,Portlaoighise (Maryborough) Rural,0.364000993202904,1.4898980412673204
30/03/2010,"Broomville Gardens, Portlaoise",Laois,205000.0,No,Second-Hand Dwelling house /Apartment,,ChIJH6xKgVIMXUgRX7IgBkRhpnQ,"https://maps.googleapis.com/maps/api/geocode/json?address=Broomville+Gardens,+Portlaoise,+Laois,+Ireland&key=AIzaSyDRZ-wdfFwQPJfje5ImWN_78508dkyk8H4",53.0410902,-7.279509300000001,"Broomville, Ballyroan, Portlaoise, Co. Laois, Ireland",,GEOMETRIC_CENTER,Midland,08071,Portlaoighise (Maryborough) Rural,0.3102811027610777,1.5302591465237367
30/03/2010,"Manor Road, Mountmellick",Laois,107500.0,No,Second-Hand Dwelling house /Apartment,,ChIJzTSWXS4MXUgRGw0qHUWRRaY,"https://maps.googleapis.com/maps/api/geocode/json?address=Manor+Road,+Mountmellick,+Laois,+Ireland&key=AIzaSyDRZ-wdfFwQPJfje5ImWN_78508dkyk8H4",53.043474,-7.3118206999999975,"Mountmellick Rd, Maryborough, Portlaoise, Co. Laois, Ireland",,GEOMETRIC_CENTER,Midland,08071,Portlaoighise (Maryborough) Rural,0.1473581582160828,0.9946220825110316
31/03/2010,"11 The Glebe, Rathdowney",Laois,123348.02,Yes,New Dwelling house /Apartment,greater than or equal to 38 sq metres and less than 125 sq metres,ChIJ0d02vCUeXUgR9n1_IV256O0,"https://maps.googleapis.com/maps/api/geocode/json?address=11+The+Glebe,+Rathdowney,+Laois,+Ireland&key=AIzaSyDRZ-wdfFwQPJfje5ImWN_78508dkyk8H4",52.857963100000006,-7.603164100000001,"11, The Glebe, Rathdowney, Co. Laois, R32 A2V3, Ireland",R32 A2V3,ROOFTOP,Midland,08087,Rathsaran,1.3492083912752548,4.670036432592577
31/03/2010,"No 4 Kilteal Avenue, Dublin Road, Portlaoise",Laois,575000.0,No,Second-Hand Dwelling house /Apartment,,ChIJkRr-VU0MXUgReo1FVvUCUjM,"https://maps.googleapis.com/maps/api/geocode/json?address=No+4+Kilteal+Avenue,+Dublin+Road,+Portlaoise,+Laois,+Ireland&key=AIzaSyDRZ-wdfFwQPJfje5ImWN_78508dkyk8H4",53.03838320000001,-7.278144900000001,"Dublin Rd, Portlaoise, Co. Laois, Ireland",,GEOMETRIC_CENTER,Midland,08071,Portlaoighise (Maryborough) Rural,0.04425258254137682,1.548411060782224
01/04/2010,"1 The Glebe, Rathdowney",Laois,218000.0,Yes,New Dwelling house /Apartment,greater than 125 sq metres,ChIJLYHbySUeXUgRwnKBgUpWtaA,"https://maps.googleapis.com/maps/api/geocode/json?address=1+The+Glebe,+Rathdowney,+Laois,+Ireland&key=AIzaSyDRZ-wdfFwQPJfje5ImWN_78508dkyk8H4",52.8586207,-7.603918199999999,"1, The Glebe, Rathdowney, Co. Laois, R32 T6D0, Ireland",R32 T6D0,ROOFTOP,Midland,08087,Rathsaran,1.4152386058399262,4.597124890657715
01/04/2010,"1 The Glebe, Rathdowney",Laois,218000.0,Yes,New Dwelling house /Apartment,greater than 125 sq metres,ChIJLYHbySUeXUgRwnKBgUpWtaA,"https://maps.googleapis.com/maps/api/geocode/json?address=1+The+Glebe,+Rathdowney,+Laois,+Ireland&key=AIzaSyDRZ-wdfFwQPJfje5ImWN_78508dkyk8H4",52.8586207,-7.603918199999999,"1, The Glebe, Rathdowney, Co. Laois, R32 T6D0, Ireland",R32 T6D0,ROOFTOP,Midland,08087,Rathsaran,1.4152386058399262,4.597124890657715
01/04/2010,"27 Boughlone Way, Bellingham, Portlaoise",Laois,178000.0,Yes,New Dwelling house /Apartment,greater than or equal to 38 sq metres and less than 125 sq metres,ChIJQ55QOnwOXUgR2W1V0US7-E0,"https://maps.googleapis.com/maps/api/geocode/json?address=27+Boughlone+Way,+Bellingham,+Portlaoise,+Laois,+Ireland&key=AIzaSyDRZ-wdfFwQPJfje5ImWN_78508dkyk8H4",53.0321375,-7.3281239,"27 Boughlone Way, Bellingham, Portlaoise, Co. Laois, R32 Y9NX, Ireland",R32 Y9NX,ROOFTOP,Midland,08051,Clondarrig,1.2279345801242585,1.86015039990592
01/04/2010,"98 Laurel Drive, Esker Hills, Portlaoise",Laois,225000.0,Yes,New Dwelling house /Apartment,greater than 125 sq metres,ChIJJTVCbzYMXUgR16GM1yjjgV0,"https://maps.googleapis.com/maps/api/geocode/json?address=98+Laurel+Drive,+Esker+Hills,+Portlaoise,+Laois,+Ireland&key=AIzaSyDRZ-wdfFwQPJfje5ImWN_78508dkyk8H4",53.0438775,-7.2972670000000015,"98 Laurel Dr, Esker Hills, Portlaoise, Co. Laois, R32 V0DR, Ireland",R32 V0DR,ROOFTOP,Midland,08071,Portlaoighise (Maryborough) Rural,0.7301991248718578,0.8062330300535927
07/04/2010,"2 Rathevan Close, Rathevan Estate, Portlaoise",Laois,117000.0,No,Second-Hand Dwelling house /Apartment,,ChIJwV5OcFcMXUgRbwVYbPe0IG0,"https://maps.googleapis.com/maps/api/geocode/json?address=2+Rathevan+Close,+Rathevan+Estate,+Portlaoise,+Laois,+Ireland&key=AIzaSyDRZ-wdfFwQPJfje5ImWN_78508dkyk8H4",53.04907579999999,-7.271999399999999,"2 Rathevan Cl, Ratheven, Portlaoise, Co. Laois, R32 AK72, Ireland",R32 AK72,ROOFTOP,Midland,08071,Portlaoighise (Maryborough) Rural,0.25898214367851835,2.3781505307768063
08/04/2010,"10 Clonboyne Close, Bellingham, Portlaoise",Laois,315000.0,Yes,New Dwelling house /Apartment,greater than 125 sq metres,ChIJeRtyDHwOXUgRkO30OjsAQ1k,"https://maps.googleapis.com/maps/api/geocode/json?address=10+Clonboyne+Close,+Bellingham,+Portlaoise,+Laois,+Ireland&key=AIzaSyDRZ-wdfFwQPJfje5ImWN_78508dkyk8H4",53.030614,-7.3280477,"10 Clonboyne Cl, Bellingham, Portlaoise, Co. Laois, R32 YP0A, Ireland",R32 YP0A,ROOFTOP,Midland,08051,Clondarrig,1.1972051043320984,1.9114503133856455
08/04/2010,"3 The Avenue, Graigavern Lodge, Ballybrittas",Laois,215000.0,No,Second-Hand Dwelling house /Apartment,,ChIJgToCziJ0XUgR2zAIsMuyuZA,"https://maps.googleapis.com/maps/api/geocode/json?address=3+The+Avenue,+Graigavern+Lodge,+Ballybrittas,+Laois,+Ireland&key=AIzaSyDRZ-wdfFwQPJfje5ImWN_78508dkyk8H4",53.11312059999999,-7.127255399999999,"Graigavern Lodge, Graigavern, Co. Laois, Ireland",,GEOMETRIC_CENTER,Midland,08058,Jamestown,0.6918108255801094,5.119990375007832
09/04/2010,"8 Castlelea View, Portarlington",Laois,155000.0,Yes,New Dwelling house /Apartment,greater than or equal to 38 sq metres and less than 125 sq metres,ChIJ3busrHN1XUgRHVsYR7HbZyY,"https://maps.googleapis.com/maps/api/geocode/json?address=8+Castlelea+View,+Portarlington,+Laois,+Ireland&key=AIzaSyDRZ-wdfFwQPJfje5ImWN_78508dkyk8H4",53.155085,-7.192889900000001,"8 Castlelea View, Cooltederry, Lansdowne, Co. Laois, R32 C3X7, Ireland",R32 C3X7,ROOFTOP,Midland,08070,Portarlington South,0.5529390311979685,1.2243322010281252
13/04/2010,"9 Lansdowne Close, Portarlington",Laois,145000.0,Yes,New Dwelling house /Apartment,greater than 125 sq metres,ChIJle4PG3N1XUgRdl94YI1ObPw,"https://maps.googleapis.com/maps/api/geocode/json?address=9+Lansdowne+Close,+Portarlington,+Laois,+Ireland&key=AIzaSyDRZ-wdfFwQPJfje5ImWN_78508dkyk8H4",53.1539695,-7.191995800000001,"9 Lansdowne Cl, Cooltederry, Lansdowne, Co. Laois, R32 C9Y2, Ireland",R32 C9Y2,ROOFTOP,Midland,08070,Portarlington South,0.5862602234198381,1.0900595910646471
13/04/2010,"Cullenagh, Portlaois",Laois,230000.0,No,Second-Hand Dwelling house /Apartment,,ChIJ2YVwVU8SXUgRufiMozwLjwo,"https://maps.googleapis.com/maps/api/geocode/json?address=Cullenagh,+Portlaois,+Laois,+Ireland&key=AIzaSyDRZ-wdfFwQPJfje5ImWN_78508dkyk8H4",52.9648186,-7.2647866,"Cullenagh, Co. Laois, Ireland",,APPROXIMATE,Midland,08013,Cullenagh,3.1244672067305133,8.334889190869365
15/04/2010,"30A The Downs, Portlaoise",Laois,170000.0,No,Second-Hand Dwelling house /Apartment,,ChIJTaN4EbYNXUgRQT3Q5x3pX3U,"https://maps.googleapis.com/maps/api/geocode/json?address=30A+The+Downs,+Portlaoise,+Laois,+Ireland&key=AIzaSyDRZ-wdfFwQPJfje5ImWN_78508dkyk8H4",53.0317263,-7.2901542,"30A Stradbally Rd, The Downs, Beladd, Portlaoise, Co. Laois, R32 HT9X, Ireland",R32 HT9X,ROOFTOP,Midland,08072,Portlaoighise (Maryborough) Urban,0.36497635730765615,0.9033738496630724
15/04/2010,"9 Lynden Court, Ballyfin Road",Laois,170000.0,No,Second-Hand Dwelling house /Apartment,,Eis5IEx5bmRlbiBDdCwgUG9ydGxhb2lzZSwgQ28uIExhb2lzLCBJcmVsYW5kIhoSGAoUChIJ2QEyLywMXUgRGZGjl8dVZzoQCQ,"https://maps.googleapis.com/maps/api/geocode/json?address=9+Lynden+Court,+Ballyfin+Road,+Laois,+Ireland&key=AIzaSyDRZ-wdfFwQPJfje5ImWN_78508dkyk8H4",53.0420384,-7.3127841999999985,"9 Lynden Ct, Maryborough, Portlaoise, Co. Laois, Ireland",,RANGE_INTERPOLATED,Midland,08071,Portlaoighise (Maryborough) Rural,0.14678330263628706,0.9384842358163944
16/04/2010,"16 Rossvale, Portlaoise",Laois,115000.0,No,Second-Hand Dwelling house /Apartment,,ChIJNSSGCS8MXUgRfhC2q0uyuSM,"https://maps.googleapis.com/maps/api/geocode/json?address=16+Rossvale,+Portlaoise,+Laois,+Ireland&key=AIzaSyDRZ-wdfFwQPJfje5ImWN_78508dkyk8H4",53.0456666,-7.3130527,"16 Mountmellick Rd, Rossvale, Maryborough, Portlaoise, Co. Laois, R32 EEP3, Ireland",R32 EEP3,ROOFTOP,Midland,08071,Portlaoighise (Maryborough) Rural,0.06452095103566996,1.2317268763877531
19/04/2010,"3 Lansdowne Close, Portarlington",Laois,155000.0,Yes,New Dwelling house /Apartment,greater than 125 sq metres,ChIJoxCVHnN1XUgRox2g7pfwOvI,"https://maps.googleapis.com/maps/api/geocode/json?address=3+Lansdowne+Close,+Portarlington,+Laois,+Ireland&key=AIzaSyDRZ-wdfFwQPJfje5ImWN_78508dkyk8H4",53.1536718,-7.192200400000001,"3 Lansdowne Cl, Cooltederry, Lansdowne, Co. Laois, R32 X2R9, Ireland",R32 X2R9,ROOFTOP,Midland,08070,Portarlington South,0.6197683484712028,1.073481521329602
20/04/2010,"Apartment 6 Block C, Parkside, Portlaoise",Laois,215815.0,Yes,New Dwelling house /Apartment,greater than or equal to 38 sq metres and less than 125 sq metres,ChIJ2Xocgc8NXUgRbv0QQNU3O2o,"https://maps.googleapis.com/maps/api/geocode/json?address=Apartment+6+Block+C,+Parkside,+Portlaoise,+Laois,+Ireland&key=AIzaSyDRZ-wdfFwQPJfje5ImWN_78508dkyk8H4",53.0266904,-7.3010265,"Parkside, Abbeyleix Rd, Kylekiproe, Portlaoise, Co. Laois, Ireland",,ROOFTOP,Midland,08071,Portlaoighise (Maryborough) Rural,0.04938165461422353,1.0909209765135002
20/04/2010,"Ballinclough Upper, Timahoe",Laois,522907.49,Yes,New Dwelling house /Apartment,greater than 125 sq metres,ChIJlbmbqbETXUgRYIqM5kqDOak,"https://maps.googleapis.com/maps/api/geocode/json?address=Ballinclough+Upper,+Timahoe,+Laois,+Ireland&key=AIzaSyDRZ-wdfFwQPJfje5ImWN_78508dkyk8H4",52.94574770000001,-7.2556341999999985,"Ballinaclogh Upper, Co. Laois, Ireland",,APPROXIMATE,Midland,08027,Timahoe,3.279590285078767,10.542848543967093
21/04/2010,"4 Castlerea View, Portarlington",Laois,132500.0,Yes,New Dwelling house /Apartment,greater than or equal to 38 sq metres and less than 125 sq metres,ChIJm6riUXJ1XUgR7r9EaOkvlQc,"https://maps.googleapis.com/maps/api/geocode/json?address=4+Castlerea+View,+Portarlington,+Laois,+Ireland&key=AIzaSyDRZ-wdfFwQPJfje5ImWN_78508dkyk8H4",53.15536299999999,-7.193467599999999,"4 Castlelea View, Cooltederry, Lansdowne, Co. Laois, R32 Y2A2, Ireland",R32 Y2A2,ROOFTOP,Midland,08070,Portarlington South,0.5704704842154946,1.272411535603429
21/04/2010,"No 6 Clondarrig Court, Bellingham, Portlaoise",Laois,245000.0,Yes,New Dwelling house /Apartment,greater than 125 sq metres,ChIJJ51zJHwOXUgR0DwGn5JKRsQ,"https://maps.googleapis.com/maps/api/geocode/json?address=No+6+Clondarrig+Court,+Bellingham,+Portlaoise,+Laois,+Ireland&key=AIzaSyDRZ-wdfFwQPJfje5ImWN_78508dkyk8H4",53.0319822,-7.3275166999999986,"6 Clondarrig Ct, Bellingham, Portlaoise, Co. Laois, R32 N44C, Ireland",R32 N44C,ROOFTOP,Midland,08051,Clondarrig,1.1845504188164009,1.8265118249741432
22/04/2010,"Rathleague, Portlaoise",Laois,175000.0,No,Second-Hand Dwelling house /Apartment,,ChIJYce6k5cNXUgRksNSu6fHACY,"https://maps.googleapis.com/maps/api/geocode/json?address=Rathleague,+Portlaoise,+Laois,+Ireland&key=AIzaSyDRZ-wdfFwQPJfje5ImWN_78508dkyk8H4",53.0177659,-7.275583599999999,"Rathleague, Co. Laois, Ireland",,APPROXIMATE,Midland,08071,Portlaoighise (Maryborough) Rural,0.5259332512596346,2.69282164616854
23/04/2010,"21 Triog Manor, Portlaoise",Laois,121000.0,No,Second-Hand Dwelling house /Apartment,,ChIJU_l8xjMMXUgR4t3rS6oHZ54,"https://maps.googleapis.com/maps/api/geocode/json?address=21+Triog+Manor,+Portlaoise,+Laois,+Ireland&key=AIzaSyDRZ-wdfFwQPJfje5ImWN_78508dkyk8H4",53.0415036,-7.3035924,"21 Triogue Manor, Borris Little, Portlaoise, Co. Laois, R32 XE7F, Ireland",R32 XE7F,ROOFTOP,Midland,08072,Portlaoighise (Maryborough) Urban,0.3662731732843787,0.5133088067908058
23/04/2010,"Rathmore Road, Stradbally",Laois,137000.0,No,Second-Hand Dwelling house /Apartment,,ChIJWzEnJPByXUgR0fYZzRoQ1tU,"https://maps.googleapis.com/maps/api/geocode/json?address=Rathmore+Road,+Stradbally,+Laois,+Ireland&key=AIzaSyDRZ-wdfFwQPJfje5ImWN_78508dkyk8H4",53.03532779999999,-7.163357,"Rathmore Rd, Co. Laois, Ireland",,GEOMETRIC_CENTER,Midland,08036,Stradbally,2.3476488752496683,9.212606324093377
29/04/2010,"34 Lansdowne Road, Portarlington",Laois,151983.0,Yes,New Dwelling house /Apartment,greater than 125 sq metres,ChIJrQ_EBXN1XUgRGvN1HsgAIIs,"https://maps.googleapis.com/maps/api/geocode/json?address=34+Lansdowne+Road,+Portarlington,+Laois,+Ireland&key=AIzaSyDRZ-wdfFwQPJfje5ImWN_78508dkyk8H4",53.1543799,-7.1919631000000015,"34 Lansdowne Rd, Cooltederry, Lansdowne, Co. Laois, R32 C6K0, Ireland",R32 C6K0,ROOFTOP,Midland,08070,Portarlington South,0.5525550946819908,1.1244757679386683
30/04/2010,"Clonin, Mountrath",Laois,320000.0,No,Second-Hand Dwelling house /Apartment,,ChIJew4EJWIDXUgRLtmyg4FaKNo,"https://maps.googleapis.com/maps/api/geocode/json?address=Clonin,+Mountrath,+Laois,+Ireland&key=AIzaSyDRZ-wdfFwQPJfje5ImWN_78508dkyk8H4",53.0069738,-7.5431051999999985,"Clonin, Co. Laois, Ireland",,APPROXIMATE,Midland,08052,Clonin,3.2628346784405045,12.496139557309524
30/04/2010,"No 28 The Beeches, Forest Park, Portlaoise",Laois,165000.0,No,Second-Hand Dwelling house /Apartment,,ChIJcdLfxU0MXUgRGIgmfQ8XRLw,"https://maps.googleapis.com/maps/api/geocode/json?address=No+28+The+Beeches,+Forest+Park,+Portlaoise,+Laois,+Ireland&key=AIzaSyDRZ-wdfFwQPJfje5ImWN_78508dkyk8H4",53.042826,-7.2827769999999985,"28 The Beeches, Forest Park, Portlaoise, Co. Laois, R32 EY4N, Ireland",R32 EY4N,ROOFTOP,Midland,08071,Portlaoighise (Maryborough) Rural,0.26460414965864604,1.401999046052267
06/05/2010,"73 Clonroosk Abbey, Portlaoise",Laois,137500.0,Yes,New Dwelling house /Apartment,greater than or equal to 38 sq metres and less than 125 sq metres,ChIJecig2icMXUgRP3yEoW8jcjw,"https://maps.googleapis.com/maps/api/geocode/json?address=73+Clonroosk+Abbey,+Portlaoise,+Laois,+Ireland&key=AIzaSyDRZ-wdfFwQPJfje5ImWN_78508dkyk8H4",53.0474663,-7.321349900000001,"73 Clonroosk Abbey, Maryborough, Portlaoise, Co. Laois, R32 TXV9, Ireland",R32 TXV9,ROOFTOP,Midland,08051,Clondarrig,0.3404613457936469,1.7634341707487446
06/05/2010,"88 Lough Gate, Portarlington",Laois,170000.0,No,Second-Hand Dwelling house /Apartment,,ChIJqUsLrqN1XUgRVKFDeC17rco,"https://maps.googleapis.com/maps/api/geocode/json?address=88+Lough+Gate,+Portarlington,+Laois,+Ireland&key=AIzaSyDRZ-wdfFwQPJfje5ImWN_78508dkyk8H4",53.15027480000001,-7.1711144,"88 Lough Gate, Bracklone, Portarlington, Co. Laois, R32 TY80, Ireland",R32 TY80,ROOFTOP,Midland,08070,Portarlington South,0.8271634821295039,0.8081607139975466
07/05/2010,"130 Heather Hill, Graigcullen",Laois,209750.0,No,Second-Hand Dwelling house /Apartment,,EigxMzAgSGVhdGhlciBIaWxsIEF2ZSwgQ28uIExhb2lzLCBJcmVsYW5kIhsSGQoUChIJ8_K8IR1oXUgRWRjgiE9c4K4QggE,"https://maps.googleapis.com/maps/api/geocode/json?address=130+Heather+Hill,+Graigcullen,+Laois,+Ireland&key=AIzaSyDRZ-wdfFwQPJfje5ImWN_78508dkyk8H4",52.84521949999999,-6.9493382,"130 Heather Hill Ave, Graigue, Co. Laois, Ireland",,RANGE_INTERPOLATED,Midland,08094,Graigue Rural,3.066260807114019,31.75814790518801
07/05/2010,"71 Clonroosk Abbey, Portlaoise",Laois,159995.0,Yes,New Dwelling house /Apartment,greater than or equal to 38 sq metres and less than 125 sq metres,ChIJXdkxxScMXUgRWOb2Tq_2CGU,"https://maps.googleapis.com/maps/api/geocode/json?address=71+Clonroosk+Abbey,+Portlaoise,+Laois,+Ireland&key=AIzaSyDRZ-wdfFwQPJfje5ImWN_78508dkyk8H4",53.04754910000001,-7.321529000000001,"71 Clonroosk Abbey, Maryborough, Portlaoise, Co. Laois, R32 C5KN, Ireland",R32 C5KN,ROOFTOP,Midland,08051,Clondarrig,0.33250693409698795,1.7785150098023457
07/05/2010,"No 42 Hawthorn Way, Esker Hills, Portlaoise",Laois,140000.0,Yes,New Dwelling house /Apartment,greater than 125 sq metres,ChIJbzuNizYMXUgRie91U4uYuNI,"https://maps.googleapis.com/maps/api/geocode/json?address=No+42+Hawthorn+Way,+Esker+Hills,+Portlaoise,+Laois,+Ireland&key=AIzaSyDRZ-wdfFwQPJfje5ImWN_78508dkyk8H4",53.0439547,-7.2986477,"42 Hawthorn Way, Esker Hills, Portlaoise, Co. Laois, R32 Y66C, Ireland",R32 Y66C,ROOFTOP,Midland,08071,Portlaoighise (Maryborough) Rural,0.7928316504433222,0.7875085511970582
10/05/2010,"Coote Street, Portlaoise",Laois,175000.0,No,Second-Hand Dwelling house /Apartment,,ChIJl6DFGc0NXUgR7oHRv37WaIw,"https://maps.googleapis.com/maps/api/geocode/json?address=Coote+Street,+Portlaoise,+Laois,+Ireland&key=AIzaSyDRZ-wdfFwQPJfje5ImWN_78508dkyk8H4",53.03570440000001,-7.304031599999999,"Coote St, Portlaoise, Co. Laois, Ireland",,GEOMETRIC_CENTER,Midland,08072,Portlaoighise (Maryborough) Urban,0.15748529388872107,0.2160655255788646
12/05/2010,"5 Castlelea View, Portarlington",Laois,160250.0,Yes,New Dwelling house /Apartment,greater than or equal to 38 sq metres and less than 125 sq metres,ChIJ-aczrXN1XUgR2PmsFC8g3cY,"https://maps.googleapis.com/maps/api/geocode/json?address=5+Castlelea+View,+Portarlington,+Laois,+Ireland&key=AIzaSyDRZ-wdfFwQPJfje5ImWN_78508dkyk8H4",53.1552821,-7.1929325,"5 Castlelea View, Cooltederry, Lansdowne, Co. Laois, R32 V0R9, Ireland",R32 V0R9,ROOFTOP,Midland,08070,Portarlington South,0.5438025629867906,1.2434689521021616
13/05/2010,"17 Pine Villa, Portlarlington",Laois,180000.0,No,Second-Hand Dwelling house /Apartment,,ChIJu0m0hnh1XUgRefup5E-e7N0,"https://maps.googleapis.com/maps/api/geocode/json?address=17+Pine+Villa,+Portlarlington,+Laois,+Ireland&key=AIzaSyDRZ-wdfFwQPJfje5ImWN_78508dkyk8H4",53.1662463,-7.185641299999999,"17 Pine Villa, Droughill, Portarlington, Co. Laois, R32 TW20, Ireland",R32 TW20,ROOFTOP,Midland,08070,Portarlington South,0.5557274763185982,2.2262474014825298
13/05/2010,"2 Everette House, Chantiere Gate, Portlaoise",Laois,129500.0,No,Second-Hand Dwelling house /Apartment,,ChIJ-2SKUawNXUgR878ygikCg9M,"https://maps.googleapis.com/maps/api/geocode/json?address=2+Everette+House,+Chantiere+Gate,+Portlaoise,+Laois,+Ireland&key=AIzaSyDRZ-wdfFwQPJfje5ImWN_78508dkyk8H4",53.0356659,-7.2743421,"5, Everette House, Chantiere Gate, Ballymooney, Portlaoise, Co. Laois, Ireland",,ROOFTOP,Midland,08071,Portlaoighise (Maryborough) Rural,0.15317284368519687,1.790937379737674
14/05/2010,"12 Highfield Meadows, Borris Road, Portlaoise",Laois,181500.0,No,Second-Hand Dwelling house /Apartment,,ChIJuZFI10sMXUgRtBt4XTDto1U,"https://maps.googleapis.com/maps/api/geocode/json?address=12+Highfield+Meadows,+Borris+Road,+Portlaoise,+Laois,+Ireland&key=AIzaSyDRZ-wdfFwQPJfje5ImWN_78508dkyk8H4",53.0430781,-7.2901368999999985,"12 Highfield Meadows, Moneyballytyrrell, Portlaoise, Co. Laois, R32 XHN6, Ireland",R32 XHN6,ROOFTOP,Midland,08071,Portlaoighise (Maryborough) Rural,0.3227591029755184,1.008154250714824
14/05/2010,"Springfield House, Ballacolla",Laois,242500.0,No,Second-Hand Dwelling house /Apartment,,ChIJ_yr-150ZXUgR0H4xl6nHAAo,"https://maps.googleapis.com/maps/api/geocode/json?address=Springfield+House,+Ballacolla,+Laois,+Ireland&key=AIzaSyDRZ-wdfFwQPJfje5ImWN_78508dkyk8H4",52.8826772,-7.446524399999999,"Park, Ballacolla, Co. Laois, Ireland",,APPROXIMATE,Midland,08023,Killermogh,0.0006046240315292015,10.617654976993123
18/05/2010,"1 Colliers Way, Kilminchy, Portlaoise",Laois,177800.0,No,Second-Hand Dwelling house /Apartment,,ChIJd0mRlFYMXUgRnYhM2vjieJY,"https://maps.googleapis.com/maps/api/geocode/json?address=1+Colliers+Way,+Kilminchy,+Portlaoise,+Laois,+Ireland&key=AIzaSyDRZ-wdfFwQPJfje5ImWN_78508dkyk8H4",53.0457468,-7.2717884,"1 Colliers Way, Kilminchy, Portlaoise, Co. Laois, R32 V4XT, Ireland",R32 V4XT,ROOFTOP,Midland,08071,Portlaoighise (Maryborough) Rural,0.5188890236845644,2.2045962447338785
18/05/2010,"39 Upper Beladd, Portlaoise",Laois,90000.0,No,Second-Hand Dwelling house /Apartment,,ChIJbRsj1K4NXUgRmp89kqblfMs,"https://maps.googleapis.com/maps/api/geocode/json?address=39+Upper+Beladd,+Portlaoise,+Laois,+Ireland&key=AIzaSyDRZ-wdfFwQPJfje5ImWN_78508dkyk8H4",53.0313203,-7.270490699999999,"39 Beladd Upper, Beladd, Portlaoise, Co. Laois, R32 DCR7, Ireland",R32 DCR7,ROOFTOP,Midland,08071,Portlaoighise (Maryborough) Rural,0.4070593471140657,2.1257484937245534
20/05/2010,"74 Rushall, Mountrath",Laois,99995.0,No,Second-Hand Dwelling house /Apartment,,ChIJ9UdUq6EcXUgR8hFSu6fHACY,"https://maps.googleapis.com/maps/api/geocode/json?address=74+Rushall,+Mountrath,+Laois,+Ireland&key=AIzaSyDRZ-wdfFwQPJfje5ImWN_78508dkyk8H4",52.95820989999999,-7.5387242999999975,"Rush Hall, Co. Laois, Ireland",,APPROXIMATE,Midland,08007,Castletown,2.7832303189390672,7.707887958713701
20/05/2010,"No 26 Lower Beladd, Stradbally Road, Portlaoise",Laois,159000.0,No,Second-Hand Dwelling house /Apartment,,ChIJq51-bq4NXUgRoAF7vz1usZc,"https://maps.googleapis.com/maps/api/geocode/json?address=No+26+Lower+Beladd,+Stradbally+Road,+Portlaoise,+Laois,+Ireland&key=AIzaSyDRZ-wdfFwQPJfje5ImWN_78508dkyk8H4",53.0326523,-7.275291,"26 Beladd Lower, Beladd, Portlaoise, Co. Laois, R32 E8NX, Ireland",R32 E8NX,ROOFTOP,Midland,08071,Portlaoighise (Maryborough) Rural,0.18416534847323585,1.777382785751346
21/05/2010,"11 Bruach Na Habhann, Killeen, Maganey",Laois,175000.0,Yes,New Dwelling house /Apartment,greater than or equal to 38 sq metres and less than 125 sq metres,ChIJrY_VazIMXUgRalwHJy4Eq9s,"https://maps.googleapis.com/maps/api/geocode/json?address=11+Bruach+Na+Habhann,+Killeen,+Maganey,+Laois,+Ireland&key=AIzaSyDRZ-wdfFwQPJfje5ImWN_78508dkyk8H4",53.0406856,-7.306477600000001,"11 Bruach Na hAbhann, Borris Little, Portlaoise, Co. Laois, R32 T1HD, Ireland",R32 T1HD,ROOFTOP,Midland,08071,Portlaoighise (Maryborough) Rural,0.1832770361939428,0.5245357785590156
21/05/2010,"50 Rossvale, Mountmellick Road, Portlaoise",Laois,125000.0,No,Second-Hand Dwelling house /Apartment,,ChIJF04rvy8MXUgRz0_rBH-93HE,"https://maps.googleapis.com/maps/api/geocode/json?address=50+Rossvale,+Mountmellick+Road,+Portlaoise,+Laois,+Ireland&key=AIzaSyDRZ-wdfFwQPJfje5ImWN_78508dkyk8H4",53.0457875,-7.311341900000001,"50 Mountmellick Rd, Rossvale, Maryborough, Portlaoise, Co. Laois, R32 KPX6, Ireland",R32 KPX6,ROOFTOP,Midland,08071,Portlaoighise (Maryborough) Rural,0.1676791713466884,1.1740058503926
21/05/2010,"Portlaoise Road, Mountrath",Laois,165000.0,No,Second-Hand Dwelling house /Apartment,,EiFQb3J0bGFvaXNlIFJkLCBDby4gTGFvaXMsIElyZWxhbmQiLiosChQKEgkHD1KQPQVdSBE4Ov6EoEaLIRIUChIJIzIPSiEFXUgRwIQxl6nHAAo,"https://maps.googleapis.com/maps/api/geocode/json?address=Portlaoise+Road,+Mountrath,+Laois,+Ireland&key=AIzaSyDRZ-wdfFwQPJfje5ImWN_78508dkyk8H4",53.0047958,-7.4638262000000015,"Portlaoise Rd, Co. Laois, Ireland",,GEOMETRIC_CENTER,Midland,08067,Mountrath,0.7408662528232911,11.435309009095723
24/05/2010,"Kylebridge House, Crookedy Lane, Portlaoise",Laois,287000.0,No,Second-Hand Dwelling house /Apartment,,ChIJR_TCnswNXUgRH8qQ2g_RKCg,"https://maps.googleapis.com/maps/api/geocode/json?address=Kylebridge+House,+Crookedy+Lane,+Portlaoise,+Laois,+Ireland&key=AIzaSyDRZ-wdfFwQPJfje5ImWN_78508dkyk8H4",53.035577,-7.299820999999999,"Bank Place, Moneyballytyrrell, Portlaoise, Co. Laois, R32 TD36, Ireland",R32 TD36,ROOFTOP,Midland,08072,Portlaoighise (Maryborough) Urban,0.13995236179623344,0.13275600913041713
24/05/2010,"No 18 Clondarrig Court, Bellingham, Portlaoise",Laois,225000.0,Yes,New Dwelling house /Apartment,greater than 125 sq metres,ChIJN7QCbXwOXUgRANJ1ZO_Jh2E,"https://maps.googleapis.com/maps/api/geocode/json?address=No+18+Clondarrig+Court,+Bellingham,+Portlaoise,+Laois,+Ireland&key=AIzaSyDRZ-wdfFwQPJfje5ImWN_78508dkyk8H4",53.0310406,-7.328635799999999,"18 Clondarrig Ct, Bellingham, Portlaoise, Co. Laois, R32 XVP3, Ireland",R32 XVP3,ROOFTOP,Midland,08051,Clondarrig,1.2411215404107414,1.9312707486154648
24/05/2010,"Tynans Cottage, The Heath, Portlaoise",Laois,100000.0,No,Second-Hand Dwelling house /Apartment,,ChIJWfLW5NENXUgRDbndEZEEBlA,"https://maps.googleapis.com/maps/api/geocode/json?address=Tynans+Cottage,+The+Heath,+Portlaoise,+Laois,+Ireland&key=AIzaSyDRZ-wdfFwQPJfje5ImWN_78508dkyk8H4",53.0308928,-7.306044,"Kea-Lew Business & Retail Park, Mountrath Rd, Knockmay, Portlaoise, Co. Laois, Ireland",,ROOFTOP,Midland,08072,Portlaoighise (Maryborough) Urban,0.2811573177520568,0.7062819203154902
25/05/2010,"136 Ashewood Walk, Summerhill Lane, Portlaoise",Laois,201595.0,Yes,New Dwelling house /Apartment,greater than or equal to 38 sq metres and less than 125 sq metres,ChIJ6yrhDK8NXUgRkHhlOv6V4FY,"https://maps.googleapis.com/maps/api/geocode/json?address=136+Ashewood+Walk,+Summerhill+Lane,+Portlaoise,+Laois,+Ireland&key=AIzaSyDRZ-wdfFwQPJfje5ImWN_78508dkyk8H4",53.0296971,-7.272566499999999,"136 Summerhill Ln, Ashewood Walk, Summerhill, Portlaoise, Co. Laois, R32 FHV5, Ireland",R32 FHV5,ROOFTOP,Midland,08071,Portlaoighise (Maryborough) Rural,0.5124939638812694,2.051966612107784
25/05/2010,"76 Clonroosk Abbey, Portlaoise",Laois,140000.0,Yes,New Dwelling house /Apartment,greater than or equal to 38 sq metres and less than 125 sq metres,ChIJ22Tj0CcMXUgRRzegLUAY3wk,"https://maps.googleapis.com/maps/api/geocode/json?address=76+Clonroosk+Abbey,+Portlaoise,+Laois,+Ireland&key=AIzaSyDRZ-wdfFwQPJfje5ImWN_78508dkyk8H4",53.0473283,-7.321109,"76 Clonroosk Abbey, Maryborough, Portlaoise, Co. Laois, R32 WV0V, Ireland",R32 WV0V,ROOFTOP,Midland,08051,Clondarrig,0.3548608565680015,1.741207477441863
26/05/2010,"25 Bruach Na Habhann, Maganey",Laois,125000.0,Yes,New Dwelling house /Apartment,greater than or equal to 38 sq metres and less than 125 sq metres,ChIJX76jM5ZoXUgRPAY0os_EjKQ,"https://maps.googleapis.com/maps/api/geocode/json?address=25+Bruach+Na+Habhann,+Maganey,+Laois,+Ireland&key=AIzaSyDRZ-wdfFwQPJfje5ImWN_78508dkyk8H4",52.9054605,-6.966309700000001,"25 Bruach Na Habhainn, Killeen, Maganey, Co. Laois, R93 R2W8, Ireland",R93 R2W8,ROOFTOP,Midland,08032,Killabban,3.9111909726392766,26.745188865331983
27/05/2010,"19 The Oaks, Kilnacourt Woods, Portarlington",Laois,75000.0,No,Second-Hand Dwelling house /Apartment,,ChIJRaqabp51XUgRrVyayoO4t_A,"https://maps.googleapis.com/maps/api/geocode/json?address=19+The+Oaks,+Kilnacourt+Woods,+Portarlington,+Laois,+Ireland&key=AIzaSyDRZ-wdfFwQPJfje5ImWN_78508dkyk8H4",53.15708340000001,-7.180577299999999,"Kilnacourt Woods, Portarlington, Co. Laois, Ireland",,GEOMETRIC_CENTER,Midland,08070,Portarlington South,0.21942197976693686,1.1934819231927043
28/05/2010,"11 Rathevan Heights, Portlaoise",Laois,230000.0,No,Second-Hand Dwelling house /Apartment,,ChIJIV3RvVkMXUgR0WkeYdZbeho,"https://maps.googleapis.com/maps/api/geocode/json?address=11+Rathevan+Heights,+Portlaoise,+Laois,+Ireland&key=AIzaSyDRZ-wdfFwQPJfje5ImWN_78508dkyk8H4",53.05151479999999,-7.273495799999999,"11 Rathevan, Ratheven, Portlaoise, Co. Laois, R32 Y8RX, Ireland",R32 Y8RX,ROOFTOP,Midland,08071,Portlaoighise (Maryborough) Rural,0.21260604055344653,2.4636020458701364
28/05/2010,"16 Tullyallen, Tullyallen, Drogheda",Laois,273000.0,Yes,New Dwelling house /Apartment,greater than 125 sq metres,ChIJHd0FwCY6Z0gRk_w6GpRKyWw,"https://maps.googleapis.com/maps/api/geocode/json?address=16+Tullyallen,+Tullyallen,+Drogheda,+Laois,+Ireland&key=AIzaSyDRZ-wdfFwQPJfje5ImWN_78508dkyk8H4",53.71785600000001,-6.3560985,"Drogheda, Co. Louth, Ireland",,APPROXIMATE,Border,10001,Fair Gate,82.90582686106933,83.86176432893559
28/05/2010,"17 Castlea View, Landsdowne  Portarlington, Landsdowne, Portarlington",Laois,128000.0,Yes,New Dwelling house /Apartment,less than 38 sq metres,ChIJWxX_mXF1XUgRYJAxl6nHAAo,"https://maps.googleapis.com/maps/api/geocode/json?address=17+Castlea+View,+Landsdowne+Portarlington,+Landsdowne,+Portarlington,+Laois,+Ireland&key=AIzaSyDRZ-wdfFwQPJfje5ImWN_78508dkyk8H4",53.16121099999999,-7.187757299999999,"Portarlington, Co. Laois, Ireland",,APPROXIMATE,Midland,08070,Portarlington South,0.1197574977711084,1.699566177841051
28/05/2010,"3 Weaver Court, Abbeyleix",Laois,85000.0,No,Second-Hand Dwelling house /Apartment,,ChIJN2pPA9cQXUgR4WMpzJ5rK-U,"https://maps.googleapis.com/maps/api/geocode/json?address=3+Weaver+Court,+Abbeyleix,+Laois,+Ireland&key=AIzaSyDRZ-wdfFwQPJfje5ImWN_78508dkyk8H4",52.9131812,-7.349032099999999,"4, Weaver's Court, Main St, Knocknamoe, Abbeyleix, Co. Laois, Ireland",,ROOFTOP,Midland,08001,Abbeyleix,0.12885273928724944,14.087481539003244
28/05/2010,"6 Weaver Court, Abbeyleix",Laois,85000.0,No,Second-Hand Dwelling house /Apartment,,ChIJN2pPA9cQXUgR4WMpzJ5rK-U,"https://maps.googleapis.com/maps/api/geocode/json?address=6+Weaver+Court,+Abbeyleix,+Laois,+Ireland&key=AIzaSyDRZ-wdfFwQPJfje5ImWN_78508dkyk8H4",52.9131812,-7.349032099999999,"4, Weaver's Court, Main St, Knocknamoe, Abbeyleix, Co. Laois, Ireland",,ROOFTOP,Midland,08001,Abbeyleix,0.12885273928724944,14.087481539003244
28/05/2010,"No 1 Aughnaharna Court, Stradbally Road, Portlaoise",Laois,189000.0,Yes,New Dwelling house /Apartment,greater than or equal to 38 sq metres and less than 125 sq metres,ChIJqx2-jbENXUgRp9w-w483Qa8,"https://maps.googleapis.com/maps/api/geocode/json?address=No+1+Aughnaharna+Court,+Stradbally+Road,+Portlaoise,+Laois,+Ireland&key=AIzaSyDRZ-wdfFwQPJfje5ImWN_78508dkyk8H4",53.03263070000001,-7.279602900000001,"1 Aghnaharna Ct, Stradbally Rd, Summerhill, Portlaoise, Co. Laois, R32 VK5N, Ireland",R32 VK5N,ROOFTOP,Midland,08071,Portlaoighise (Maryborough) Rural,0.3562778383424198,1.4997494914781189
31/05/2010,"52 Hawtohorn Way, Esker Hills, Portlaoise",Laois,107825.0,No,Second-Hand Dwelling house /Apartment,,ChIJPTvBKTQMXUgRPNsfz7YdTE0,"https://maps.googleapis.com/maps/api/geocode/json?address=52+Hawtohorn+Way,+Esker+Hills,+Portlaoise,+Laois,+Ireland&key=AIzaSyDRZ-wdfFwQPJfje5ImWN_78508dkyk8H4",53.04279079999999,-7.298516800000002,"52 Hawthorn Way, Esker Hills, Portlaoise, Co. Laois, R32 H5FE, Ireland",R32 H5FE,ROOFTOP,Midland,08071,Portlaoighise (Maryborough) Rural,0.6918131733028763,0.664940026504947
02/06/2010,"168 Rochfort Manor, Leighlin Road, Graiguecullen",Laois,170000.0,No,Second-Hand Dwelling house /Apartment,,ChIJn457JLBCXUgR1579aD4UIMg,"https://maps.googleapis.com/maps/api/geocode/json?address=168+Rochfort+Manor,+Leighlin+Road,+Graiguecullen,+Laois,+Ireland&key=AIzaSyDRZ-wdfFwQPJfje5ImWN_78508dkyk8H4",52.83192409999999,-6.9416907000000005,"168 Rochfort Manor, Leighlin Road, Graiguecullen, Carlow, Co. Laois, R93 X6T7, Ireland",R93 X6T7,ROOFTOP,Midland,08094,Graigue Rural,4.0271319544354265,33.14073099298198
03/06/2010,"39 Rossvale, Portlaoise",Laois,100000.0,No,Second-Hand Dwelling house /Apartment,,ChIJkWNLpS8MXUgRbczBn42zM2M,"https://maps.googleapis.com/maps/api/geocode/json?address=39+Rossvale,+Portlaoise,+Laois,+Ireland&key=AIzaSyDRZ-wdfFwQPJfje5ImWN_78508dkyk8H4",53.0454748,-7.3119562999999985,"39 Mountmellick Rd, Rossvale, Maryborough, Portlaoise, Co. Laois, R32 AX8W, Ireland",R32 AX8W,ROOFTOP,Midland,08071,Portlaoighise (Maryborough) Rural,0.1176789193942576,1.1697197391101688
04/06/2010,"13 Woodgrove Lawns, Ballyfin Road, Portlaoise",Laois,140000.0,No,Second-Hand Dwelling house /Apartment,,ChIJD3HsqykMXUgRvh9zqU2gQ1Y,"https://maps.googleapis.com/maps/api/geocode/json?address=13+Woodgrove+Lawns,+Ballyfin+Road,+Portlaoise,+Laois,+Ireland&key=AIzaSyDRZ-wdfFwQPJfje5ImWN_78508dkyk8H4",53.0439787,-7.319885799999999,"13 Woodgrove Lawns, Ballyfin Rd, Maryborough, Portlaoise, Co. Laois, R32 K1WA, Ireland",R32 K1WA,ROOFTOP,Midland,08051,Clondarrig,0.43832364477571895,1.4531953624031626
04/06/2010,"No 5 Westlands, Mountrath Road, Portlaoise",Laois,225000.0,No,Second-Hand Dwelling house /Apartment,,ChIJrSlpkNMNXUgRmNVW67q5230,"https://maps.googleapis.com/maps/api/geocode/json?address=No+5+Westlands,+Mountrath+Road,+Portlaoise,+Laois,+Ireland&key=AIzaSyDRZ-wdfFwQPJfje5ImWN_78508dkyk8H4",53.03318429999999,-7.312057100000001,"5 Westlands, Knockmay, Portlaoise, Co. Laois, R32 V2WN, Ireland",R32 V2WN,ROOFTOP,Midland,08071,Portlaoighise (Maryborough) Rural,0.17662681676538525,0.8213545193431525
09/06/2010,"No 11 Clondarrig Court, Bellingham, Portlaoise",Laois,210000.0,Yes,New Dwelling house /Apartment,less than 38 sq metres,ChIJpeG_PXwOXUgRelrKmgGUTsA,"https://maps.googleapis.com/maps/api/geocode/json?address=No+11+Clondarrig+Court,+Bellingham,+Portlaoise,+Laois,+Ireland&key=AIzaSyDRZ-wdfFwQPJfje5ImWN_78508dkyk8H4",53.03167089999999,-7.328077499999999,"11 Clondarrig Ct, Bellingham, Portlaoise, Co. Laois, R32 HPT7, Ireland",R32 HPT7,ROOFTOP,Midland,08051,Clondarrig,1.214579315337311,1.872918944347772
16/06/2010,"43 Beechfield, Portlaoise",Laois,105000.0,No,Second-Hand Dwelling house /Apartment,,ChIJPxoXKs0NXUgRNUV8RvZTjIk,"https://maps.googleapis.com/maps/api/geocode/json?address=43+Beechfield,+Portlaoise,+Laois,+Ireland&key=AIzaSyDRZ-wdfFwQPJfje5ImWN_78508dkyk8H4",53.0368637,-7.3035384999999975,"43 Beechfield, Moneyballytyrrell, Portlaoise, Co. Laois, R32 NR2W, Ireland",R32 NR2W,ROOFTOP,Midland,08072,Portlaoighise (Maryborough) Urban,0.16148099296519494,0.13650673970280744
16/06/2010,"No 2 Chantiere Gate Block Road, Portlaois",Laois,325000.0,No,Second-Hand Dwelling house /Apartment,,ChIJuRxuNqwNXUgRdoUa6WBKHIE,"https://maps.googleapis.com/maps/api/geocode/json?address=No+2+Chantiere+Gate+Block+Road,+Portlaois,+Laois,+Ireland&key=AIzaSyDRZ-wdfFwQPJfje5ImWN_78508dkyk8H4",53.0348029,-7.2740603,"2 Chantiere Gate, Ballymooney, Portlaoise, Co. Laois, R32 HE6X, Ireland",R32 HE6X,ROOFTOP,Midland,08071,Portlaoighise (Maryborough) Rural,0.05641046154123749,1.8172187904628625
17/06/2010,"Cappakeel, Emo, Portlaoise",Laois,80000.0,No,Second-Hand Dwelling house /Apartment,,ChIJOUsUYYN0XUgRsiXIGajHACY,"https://maps.googleapis.com/maps/api/geocode/json?address=Cappakeel,+Emo,+Portlaoise,+Laois,+Ireland&key=AIzaSyDRZ-wdfFwQPJfje5ImWN_78508dkyk8H4",53.08679870000001,-7.169145700000001,"Cappakeel, Co. Laois, Ireland",,APPROXIMATE,Midland,08055,Emo,1.0894813129767211,6.629329133260249
17/06/2010,"Raheenduff, Attanagh",Laois,10000.0,No,Second-Hand Dwelling house /Apartment,,ChIJA8JaQroXXUgRWpab7C1WA3k,"https://maps.googleapis.com/maps/api/geocode/json?address=Raheenduff,+Attanagh,+Laois,+Ireland&key=AIzaSyDRZ-wdfFwQPJfje5ImWN_78508dkyk8H4",52.84748210000001,-7.3446792,"Raheenduff, Co. Laois, Ireland",,APPROXIMATE,Midland,08017,Durrow,1.0646009300224908,18.248531543454842
22/06/2010,"19 Grenville, Portlaoise",Laois,183000.0,No,Second-Hand Dwelling house /Apartment,,ChIJdwPiZ6sNXUgR0-6GDiLhD24,"https://maps.googleapis.com/maps/api/geocode/json?address=19+Grenville,+Portlaoise,+Laois,+Ireland&key=AIzaSyDRZ-wdfFwQPJfje5ImWN_78508dkyk8H4",53.03774250000001,-7.270916400000001,"19 Dublin Rd, Grenville, Ballymooney, Portlaoise, Co. Laois, R32 T2FH, Ireland",R32 T2FH,ROOFTOP,Midland,08071,Portlaoighise (Maryborough) Rural,0.28918222402028404,2.022360548624901
23/06/2010,"98 The Elms, Kilnacourt Woods, Portarlington",Laois,175000.0,No,Second-Hand Dwelling house /Apartment,,ChIJRaqabp51XUgRrVyayoO4t_A,"https://maps.googleapis.com/maps/api/geocode/json?address=98+The+Elms,+Kilnacourt+Woods,+Portarlington,+Laois,+Ireland&key=AIzaSyDRZ-wdfFwQPJfje5ImWN_78508dkyk8H4",53.15708340000001,-7.180577299999999,"Kilnacourt Woods, Portarlington, Co. Laois, Ireland",,GEOMETRIC_CENTER,Midland,08070,Portarlington South,0.21942197976693686,1.1934819231927043
25/06/2010,"69 Clonroosk Abbey, Portlaoise",Laois,165995.0,Yes,New Dwelling house /Apartment,greater than 125 sq metres,ChIJAVntxCcMXUgRtIR1Lssnqhg,"https://maps.googleapis.com/maps/api/geocode/json?address=69+Clonroosk+Abbey,+Portlaoise,+Laois,+Ireland&key=AIzaSyDRZ-wdfFwQPJfje5ImWN_78508dkyk8H4",53.0476355,-7.3217155,"69 Clonroosk Abbey, Maryborough, Portlaoise, Co. Laois, R32 WKH7, Ireland",R32 WKH7,ROOFTOP,Midland,08051,Clondarrig,0.3247445083560352,1.7942324517429722
25/06/2010,"79 Rossvale, Mountmellick Rd, Portlaoise",Laois,133000.0,No,Second-Hand Dwelling house /Apartment,,ChIJtbmbhS8MXUgR_dinKGdhvCA,"https://maps.googleapis.com/maps/api/geocode/json?address=79+Rossvale,+Mountmellick+Rd,+Portlaoise,+Laois,+Ireland&key=AIzaSyDRZ-wdfFwQPJfje5ImWN_78508dkyk8H4",53.0469304,-7.312410999999999,"79 Mountmellick Rd, Rossvale, Gorteen, Portlaoise, Co. Laois, R32 D1WH, Ireland",R32 D1WH,ROOFTOP,Midland,08071,Portlaoighise (Maryborough) Rural,0.2081212343649537,1.3193543756194537
29/06/2010,"Heather View, Allenwood North",Laois,145000.0,No,Second-Hand Dwelling house /Apartment,,ChIJo5CUx5gbXUgRfCOfCxM29ME,"https://maps.googleapis.com/maps/api/geocode/json?address=Heather+View,+Allenwood+North,+Laois,+Ireland&key=AIzaSyDRZ-wdfFwQPJfje5ImWN_78508dkyk8H4",52.9327637,-7.493320100000001,"Heather View House, Knockamullin, Ballacolla, Co. Laois, Ireland",,ROOFTOP,Midland,08015,Donore,2.766024748634976,8.134915673078657
30/06/2010,"11 Lake Edge, Kilminchy, Portlaoise",Laois,140000.0,No,Second-Hand Dwelling house /Apartment,,ChIJ8YHjaVYMXUgRYQ0aVwg1vvI,"https://maps.googleapis.com/maps/api/geocode/json?address=11+Lake+Edge,+Kilminchy,+Portlaoise,+Laois,+Ireland&key=AIzaSyDRZ-wdfFwQPJfje5ImWN_78508dkyk8H4",53.04599320000001,-7.269189599999999,"11 Lake Edge, Kilminchy, Portlaoise, Co. Laois, R32 V2D8, Ireland",R32 V2D8,ROOFTOP,Midland,08071,Portlaoighise (Maryborough) Rural,0.3683936659517161,2.3734182310860428
01/07/2010,"20 Summerhill, Portlaoise",Laois,160000.0,No,Second-Hand Dwelling house /Apartment,,ChIJR04QZbENXUgR8r4PACOqA7c,"https://maps.googleapis.com/maps/api/geocode/json?address=20+Summerhill,+Portlaoise,+Laois,+Ireland&key=AIzaSyDRZ-wdfFwQPJfje5ImWN_78508dkyk8H4",53.03251179999999,-7.282074799999997,"20 Summerhill, Stradbally Rd, Beladd, Portlaoise, Co. Laois, R32 H2F1, Ireland",R32 H2F1,ROOFTOP,Midland,08071,Portlaoighise (Maryborough) Rural,0.2431463947529953,1.3464974887991583
01/07/2010,"54 Cosby Avenue, Fairgreen, Portlaoise",Laois,117000.0,No,Second-Hand Dwelling house /Apartment,,ChIJDXe_7ScMXUgRGDd0lCcX3r8,"https://maps.googleapis.com/maps/api/geocode/json?address=54+Cosby+Avenue,+Fairgreen,+Portlaoise,+Laois,+Ireland&key=AIzaSyDRZ-wdfFwQPJfje5ImWN_78508dkyk8H4",53.0478497,-7.323092000000001,"54 Cosby Ave, Maryborough, Portlaoise, Co. Laois, R32 F62N, Ireland",R32 F62N,ROOFTOP,Midland,08044,Borris,0.3299474729150958,1.879857511339185
01/07/2010,"Manor Street, (Off O'Moore Street), Mountmellick",Laois,100000.0,No,Second-Hand Dwelling house /Apartment,,ChIJX7ELTtILXUgRs5y4Y_hVbrk,"https://maps.googleapis.com/maps/api/geocode/json?address=Manor+Street,+(Off+O'Moore+Street),+Mountmellick,+Laois,+Ireland&key=AIzaSyDRZ-wdfFwQPJfje5ImWN_78508dkyk8H4",53.11826079999999,-7.332041,"O'Moore St, Townparks, Co. Laois, Ireland",,GEOMETRIC_CENTER,Midland,08066,Mountmellick Urban,0.18501814676311865,9.258965012922305
01/07/2010,"No 22 Chantiere Gate, Portlaoise",Laois,270000.0,No,Second-Hand Dwelling house /Apartment,,ChIJ0VehcawNXUgRxnmcg8OM39k,"https://maps.googleapis.com/maps/api/geocode/json?address=No+22+Chantiere+Gate,+Portlaoise,+Laois,+Ireland&key=AIzaSyDRZ-wdfFwQPJfje5ImWN_78508dkyk8H4",53.0354852,-7.271891099999999,"22 Chantiere Gate, Ballymooney, Portlaoise, Co. Laois, R32 N56T, Ireland",R32 N56T,ROOFTOP,Midland,08071,Portlaoighise (Maryborough) Rural,0.19839619286802235,1.9557278869511976
06/07/2010,"2 Silver Glen, Mount Mellick",Laois,92511.01,Yes,New Dwelling house /Apartment,greater than or equal to 38 sq metres and less than 125 sq metres,ChIJ8WawHMsLXUgRCN6fvAiId84,"https://maps.googleapis.com/maps/api/geocode/json?address=2+Silver+Glen,+Mount+Mellick,+Laois,+Ireland&key=AIzaSyDRZ-wdfFwQPJfje5ImWN_78508dkyk8H4",53.1206786,-7.3191179,"2 Silverglen, Strahard, Mountmellick, Co. Laois, R32 FX64, Ireland",R32 FX64,ROOFTOP,Midland,08054,Dangans,0.5976587620329038,9.373958152181775
06/07/2010,"Derrykearn, Abbeyleix",Laois,107500.0,No,Second-Hand Dwelling house /Apartment,,ChIJ8UAz_IoQXUgRt5i2sfdYs8w,"https://maps.googleapis.com/maps/api/geocode/json?address=Derrykearn,+Abbeyleix,+Laois,+Ireland&key=AIzaSyDRZ-wdfFwQPJfje5ImWN_78508dkyk8H4",52.94509350000001,-7.384692599999997,"Derrykearn, Green Road, Co. Laois, Ireland",,APPROXIMATE,Midland,08025,Raheen,2.508819811325881,11.606197200203484
06/07/2010,"No 24 Condarrig Court, Bellingham, Portlaoise",Laois,205000.0,Yes,New Dwelling house /Apartment,greater than or equal to 38 sq metres and less than 125 sq metres,ChIJvwJaEXwOXUgR_2Ove8Xjm5U,"https://maps.googleapis.com/maps/api/geocode/json?address=No+24+Condarrig+Court,+Bellingham,+Portlaoise,+Laois,+Ireland&key=AIzaSyDRZ-wdfFwQPJfje5ImWN_78508dkyk8H4",53.0312061,-7.3280414999999985,"24 Clondarrig Ct, Bellingham, Portlaoise, Co. Laois, R32 W8XF, Ireland",R32 W8XF,ROOFTOP,Midland,08051,Clondarrig,1.2040406018291454,1.8876197969275577
06/07/2010,"No 35 Clondarrig Court, Bellingham, Portlaoise",Laois,215000.0,Yes,New Dwelling house /Apartment,greater than or equal to 38 sq metres and less than 125 sq metres,ChIJuZiDBXwOXUgR-ZPYq_jyUYc,"https://maps.googleapis.com/maps/api/geocode/json?address=No+35+Clondarrig+Court,+Bellingham,+Portlaoise,+Laois,+Ireland&key=AIzaSyDRZ-wdfFwQPJfje5ImWN_78508dkyk8H4",53.0307635,-7.3274686,"35 Clondarrig Ct, Bellingham, Portlaoise, Co. Laois, R32 Y2CY, Ireland",R32 Y2CY,ROOFTOP,Midland,08051,Clondarrig,1.160147546919533,1.869308656203534
06/07/2010,"No 4 Boughlone Way, Bellingham, Portlaoise",Laois,225000.0,Yes,New Dwelling house /Apartment,greater than 125 sq metres,ChIJV8bhZXwOXUgR81VT1pJ-Udg,"https://maps.googleapis.com/maps/api/geocode/json?address=No+4+Boughlone+Way,+Bellingham,+Portlaoise,+Laois,+Ireland&key=AIzaSyDRZ-wdfFwQPJfje5ImWN_78508dkyk8H4",53.0311573,-7.329478300000001,"4 Boughlone Way, Bellingham, Portlaoise, Co. Laois, R32 YWT7, Ireland",R32 YWT7,ROOFTOP,Midland,08051,Clondarrig,1.2986314926708848,1.980019735201886
06/07/2010,"The Brambles, Pilgrim Hill, Castletown",Laois,145000.0,No,Second-Hand Dwelling house /Apartment,,ChIJC6cHTDEbXUgRwIAxl6nHAAo,"https://maps.googleapis.com/maps/api/geocode/json?address=The+Brambles,+Pilgrim+Hill,+Castletown,+Laois,+Ireland&key=AIzaSyDRZ-wdfFwQPJfje5ImWN_78508dkyk8H4",52.9774693,-7.499560400000001,"Churchfield, Castletown, Co. Laois, Ireland",,APPROXIMATE,Midland,08007,Castletown,0.4562824250004378,10.988511936148619
07/07/2010,"No 23 Clondarrig Court, Bellingham, Portlaoise",Laois,245000.0,Yes,New Dwelling house /Apartment,greater than 125 sq metres,ChIJLVVzFHwOXUgRrsxBYfobtBw,"https://maps.googleapis.com/maps/api/geocode/json?address=No+23+Clondarrig+Court,+Bellingham,+Portlaoise,+Laois,+Ireland&key=AIzaSyDRZ-wdfFwQPJfje5ImWN_78508dkyk8H4",53.0312627,-7.328195600000001,"23 Clondarrig Ct, Bellingham, Portlaoise, Co. Laois, R32 KF8P, Ireland",R32 KF8P,ROOFTOP,Midland,08051,Clondarrig,1.2151238354511855,1.8951890077531608
09/07/2010,"No 10 Boughlone Way, Bellingham, Portlaoise",Laois,190000.0,Yes,New Dwelling house /Apartment,greater than or equal to 38 sq metres and less than 125 sq metres,ChIJ3cFFRHwOXUgRnlsjQMUnz8o,"https://maps.googleapis.com/maps/api/geocode/json?address=No+10+Boughlone+Way,+Bellingham,+Portlaoise,+Laois,+Ireland&key=AIzaSyDRZ-wdfFwQPJfje5ImWN_78508dkyk8H4",53.031969,-7.329304,"10 Boughlone Way, Bellingham, Portlaoise, Co. Laois, R32 DD4V, Ireland",R32 DD4V,ROOFTOP,Midland,08051,Clondarrig,1.3013448707209787,1.9411362412859596
12/07/2010,"9 Rahin Road, Ballylinan",Laois,147000.0,No,Second-Hand Dwelling house /Apartment,,ChIJ_0XS1-puXUgRjL0NTEaYT2g,"https://maps.googleapis.com/maps/api/geocode/json?address=9+Rahin+Road,+Ballylinan,+Laois,+Ireland&key=AIzaSyDRZ-wdfFwQPJfje5ImWN_78508dkyk8H4",52.94763689999999,-7.0428845,"9 Rahin Rd, Ballylynan, Co. Laois, R14 YN47, Ireland",R14 YN47,ROOFTOP,Midland,08029,Ballylynan,0.41079710474717257,19.913095672957713
13/07/2010,"10 Lansdowne Road, Portarlington",Laois,190000.0,Yes,New Dwelling house /Apartment,greater than 125 sq metres,ChIJya5Gc3N1XUgR8IMVrqEdDg4,"https://maps.googleapis.com/maps/api/geocode/json?address=10+Lansdowne+Road,+Portarlington,+Laois,+Ireland&key=AIzaSyDRZ-wdfFwQPJfje5ImWN_78508dkyk8H4",53.1544414,-7.1908694,"10 Lansdowne Rd, Cooltederry, Lansdowne, Co. Laois, R32 X4E7, Ireland",R32 X4E7,ROOFTOP,Midland,08070,Portarlington South,0.49673895733864293,1.0871146341142848
16/07/2010,"74 Clonroosk Abbey, Portlaoise",Laois,111436.0,Yes,New Dwelling house /Apartment,greater than or equal to 38 sq metres and less than 125 sq metres,ChIJyzBw0CcMXUgRHekJwG67I8c,"https://maps.googleapis.com/maps/api/geocode/json?address=74+Clonroosk+Abbey,+Portlaoise,+Laois,+Ireland&key=AIzaSyDRZ-wdfFwQPJfje5ImWN_78508dkyk8H4",53.0474182,-7.321279100000001,"74 Clonroosk Abbey, Maryborough, Portlaoise, Co. Laois, R32 V66E, Ireland",R32 V66E,ROOFTOP,Midland,08051,Clondarrig,0.34544371980207833,1.7563517435084688
16/07/2010,"Upper Main Street, Abbeyleix",Laois,230000.0,No,Second-Hand Dwelling house /Apartment,,ChIJnaErZHZ1XUgRCMAkG4qBEMA,"https://maps.googleapis.com/maps/api/geocode/json?address=Upper+Main+Street,+Abbeyleix,+Laois,+Ireland&key=AIzaSyDRZ-wdfFwQPJfje5ImWN_78508dkyk8H4",53.1583721,-7.186744499999999,"Main St, Portarlington, Co. Laois, Ireland",,GEOMETRIC_CENTER,Midland,08070,Portarlington South,0.07332243375205348,1.3768379446009469
17/07/2010,"63 Clonroosk Abbey, Portlaoise",Laois,48000.0,Yes,New Dwelling house /Apartment,less than 38 sq metres,ChIJUSe7wScMXUgR3GVT5qPDHFc,"https://maps.googleapis.com/maps/api/geocode/json?address=63+Clonroosk+Abbey,+Portlaoise,+Laois,+Ireland&key=AIzaSyDRZ-wdfFwQPJfje5ImWN_78508dkyk8H4",53.0479338,-7.3221925,"63 Clonroosk Abbey, Maryborough, Portlaoise, Co. Laois, R32 FY6R, Ireland",R32 FY6R,ROOFTOP,Midland,08051,Clondarrig,0.2994154363231765,1.8400712464415592
20/07/2010,"5 The Orchard, Stradbally",Laois,194625.0,Yes,New Dwelling house /Apartment,greater than or equal to 38 sq metres and less than 125 sq metres,ChIJzTUkG4hyXUgRoNAxl6nHAAo,"https://maps.googleapis.com/maps/api/geocode/json?address=5+The+Orchard,+Stradbally,+Laois,+Ireland&key=AIzaSyDRZ-wdfFwQPJfje5ImWN_78508dkyk8H4",53.01579830000001,-7.1494716,"Stradbally, Co. Laois, Ireland",,APPROXIMATE,Midland,08036,Stradbally,0.016021889268798026,10.400744314615894
20/07/2010,"Killimy, Emo, Portlaoise",Laois,135000.0,No,Second-Hand Dwelling house /Apartment,,ChIJB05JSzUMXUgR0HQxl6nHAAo,"https://maps.googleapis.com/maps/api/geocode/json?address=Killimy,+Emo,+Portlaoise,+Laois,+Ireland&key=AIzaSyDRZ-wdfFwQPJfje5ImWN_78508dkyk8H4",53.0328123,-7.2987933000000025,"Portlaoise, Co. Laois, Ireland",,APPROXIMATE,Midland,08072,Portlaoighise (Maryborough) Urban,0.034732396780717815,0.4376508334234337
21/07/2010,"81 Hawthorn Drive, Portlaoise",Laois,180000.0,No,Second-Hand Dwelling house /Apartment,,ChIJcZZ5I1IMXUgRAAzsEDZUggw,"https://maps.googleapis.com/maps/api/geocode/json?address=81+Hawthorn+Drive,+Portlaoise,+Laois,+Ireland&key=AIzaSyDRZ-wdfFwQPJfje5ImWN_78508dkyk8H4",53.04358320000001,-7.278267800000001,"81 Hawthorn Dr, Ballyroan, Portlaoise, Co. Laois, R32 W8HN, Ireland",R32 W8HN,ROOFTOP,Midland,08071,Portlaoighise (Maryborough) Rural,0.5097053516933223,1.7099109528016796
21/07/2010,"Glenside, Portlaoise",Laois,187500.0,No,Second-Hand Dwelling house /Apartment,,ChIJUZxAdM4NXUgRZ8RPWUCjKtM,"https://maps.googleapis.com/maps/api/geocode/json?address=Glenside,+Portlaoise,+Laois,+Ireland&key=AIzaSyDRZ-wdfFwQPJfje5ImWN_78508dkyk8H4",53.031028000000006,-7.3029967,"Glenside, Kylekiproe, Portlaoise, Co. Laois, Ireland",,GEOMETRIC_CENTER,Midland,08072,Portlaoighise (Maryborough) Urban,0.2703596611101412,0.6217605075742426
23/07/2010,"1 Ashbury, Station Road, Portlaoise",Laois,105000.0,No,Second-Hand Dwelling house /Apartment,,ChIJ_fWuwswNXUgRfjXraRqJPCc,"https://maps.googleapis.com/maps/api/geocode/json?address=1+Ashbury,+Station+Road,+Portlaoise,+Laois,+Ireland&key=AIzaSyDRZ-wdfFwQPJfje5ImWN_78508dkyk8H4",53.0361528,-7.302226299999999,"Station Rd, Moneyballytyrrell, Portlaoise, Co. Laois, Ireland",,GEOMETRIC_CENTER,Midland,08072,Portlaoighise (Maryborough) Urban,0.08146864218615782,0.08556544394732123
23/07/2010,"Apt 83  Block 4  Riverside, Portarlington",Laois,75000.0,No,Second-Hand Dwelling house /Apartment,,EkdBcHQgODMgQmxvY2ssIDQgUml2ZXJzaWRlLCBQb3J0YXJsaW5ndG9uLCBDby4gT2ZmYWx5LCBSMzIgQ0s3MCwgSXJlbGFuZCIoGiYKFgoUChIJuWIoL2l1XUgR9gPPG6VrSzkSDEFwdCA4MyBCbG9jaw,"https://maps.googleapis.com/maps/api/geocode/json?address=Apt+83+Block+4+Riverside,+Portarlington,+Laois,+Ireland&key=AIzaSyDRZ-wdfFwQPJfje5ImWN_78508dkyk8H4",53.159004,-7.2052574000000025,"Apt 83 Block, 4 Riverside, Kilmalogue, Portarlington, Co. Offaly, R32 CK70, Ireland",R32 CK70,ROOFTOP,Midland,12078,Portarlington North,1.0010820273335783,2.109257448265867
26/07/2010,"34 Chapel Street, Mountmellick",Laois,85000.0,No,Second-Hand Dwelling house /Apartment,,ChIJ57RPWc4LXUgR8BYyl6nHAAo,"https://maps.googleapis.com/maps/api/geocode/json?address=34+Chapel+Street,+Mountmellick,+Laois,+Ireland&key=AIzaSyDRZ-wdfFwQPJfje5ImWN_78508dkyk8H4",53.118148100000006,-7.3267379,"Townparks, Mountmellick, Co. Laois, Ireland",,APPROXIMATE,Midland,08066,Mountmellick Urban,0.08084038448818771,9.174871424632816
30/07/2010,"Sarsfield Street, Mountmellick, Laois",Laois,240000.0,No,Second-Hand Dwelling house /Apartment,,ChIJ8UL7wM4LXUgRpg6c_aSz9DE,"https://maps.googleapis.com/maps/api/geocode/json?address=Sarsfield+Street,+Mountmellick,+Laois,+Ireland&key=AIzaSyDRZ-wdfFwQPJfje5ImWN_78508dkyk8H4",53.1154813,-7.3221235999999985,"Sarsfield St, Ballycullenbeg, Co. Laois, Ireland",,GEOMETRIC_CENTER,Midland,08066,Mountmellick Urban,0.04265630863768479,8.830000808688274
03/08/2010,"Ballintogher, Ballybrittas, Portlaoise",Laois,245000.0,No,Second-Hand Dwelling house /Apartment,,ChIJm0Bek5p2XUgR0jhTu6fHACY,"https://maps.googleapis.com/maps/api/geocode/json?address=Ballintogher,+Ballybrittas,+Portlaoise,+Laois,+Ireland&key=AIzaSyDRZ-wdfFwQPJfje5ImWN_78508dkyk8H4",53.1256143,-7.1140219,"Ballintogher, Coole, Co. Laois, Ireland",,APPROXIMATE,Midland,08058,Jamestown,2.30099308892294,5.0097890166195445
05/08/2010,"36 Silverglen, Mountmellick",Laois,89000.0,No,Second-Hand Dwelling house /Apartment,,ChIJlaaK_coLXUgRhHH1rZisrnc,"https://maps.googleapis.com/maps/api/geocode/json?address=36+Silverglen,+Mountmellick,+Laois,+Ireland&key=AIzaSyDRZ-wdfFwQPJfje5ImWN_78508dkyk8H4",53.12041850000001,-7.3186697,"36 Silverglen, Strahard, Mountmellick, Co. Laois, R32 W571, Ireland",R32 W571,ROOFTOP,Midland,08054,Dangans,0.5839778302519754,9.341519471686363
05/08/2010,"No 3 Clondarrig Court, Bellingham, Portlaoise",Laois,195000.0,Yes,New Dwelling house /Apartment,greater than or equal to 38 sq metres and less than 125 sq metres,ChIJm5CKJnwOXUgRmO4DiVYZd8w,"https://maps.googleapis.com/maps/api/geocode/json?address=No+3+Clondarrig+Court,+Bellingham,+Portlaoise,+Laois,+Ireland&key=AIzaSyDRZ-wdfFwQPJfje5ImWN_78508dkyk8H4",53.03213570000001,-7.327330899999999,"3 Clondarrig Ct, Bellingham, Portlaoise, Co. Laois, R32 WFX7, Ireland",R32 WFX7,ROOFTOP,Midland,08051,Clondarrig,1.1761875215141109,1.809512765546516
06/08/2010,"30 Whitefields, Station Road, Portarlington",Laois,156000.0,No,Second-Hand Dwelling house /Apartment,,ChIJC9mj4Ap1XUgRMW6Pi2wN_ew,"https://maps.googleapis.com/maps/api/geocode/json?address=30+Whitefields,+Station+Road,+Portarlington,+Laois,+Ireland&key=AIzaSyDRZ-wdfFwQPJfje5ImWN_78508dkyk8H4",53.15115609999999,-7.1844119000000015,"30 Whitefields, Cooltederry, Portarlington, Co. Laois, R32 Y589, Ireland",R32 Y589,ROOFTOP,Midland,08070,Portarlington South,0.42416488552039416,0.5625123137953792
06/08/2010,"Roseville Cottage, Borris-In-Ossary",Laois,280000.0,No,Second-Hand Dwelling house /Apartment,,ChIJe2aShn0dXUgRkOMxl6nHAAo,"https://maps.googleapis.com/maps/api/geocode/json?address=Roseville+Cottage,+Borris-In-Ossary,+Laois,+Ireland&key=AIzaSyDRZ-wdfFwQPJfje5ImWN_78508dkyk8H4",52.93917769999999,-7.6310983,"Townparks, Borris-in-Ossory, Co. Laois, Ireland",,APPROXIMATE,Midland,08080,Borris-in-Ossory,0.010352937152308759,4.7301954852310635
09/08/2010,"Glenlahan, Stradbally Road, Portlaoise",Laois,125000.0,No,Second-Hand Dwelling house /Apartment,,ChIJBzDr_rMNXUgRoGYdB64OQsk,"https://maps.googleapis.com/maps/api/geocode/json?address=Glenlahan,+Stradbally+Road,+Portlaoise,+Laois,+Ireland&key=AIzaSyDRZ-wdfFwQPJfje5ImWN_78508dkyk8H4",53.0328275,-7.284434899999999,"Glenlahan, Beladd, Portlaoise, Co. Laois, Ireland",,GEOMETRIC_CENTER,Midland,08071,Portlaoighise (Maryborough) Rural,0.1662445556804832,1.1860258149821488
10/08/2010,"Cois Abhainn, Conoboro Road, Rathdowney",Laois,120000.0,No,Second-Hand Dwelling house /Apartment,,ChIJ4WAPJU4eXUgRVEPBel1WHVY,"https://maps.googleapis.com/maps/api/geocode/json?address=Cois+Abhainn,+Conoboro+Road,+Rathdowney,+Laois,+Ireland&key=AIzaSyDRZ-wdfFwQPJfje5ImWN_78508dkyk8H4",52.8550512,-7.5699571999999975,"Cois Abhainn, Conoboro Rd, Coolkerry, Rathdowney, Co. Laois, Ireland",,ROOFTOP,Midland,08026,Rathdowney,0.9094502879923304,5.470549515008714
11/08/2010,"13 Ballymorris Court, Ballymorris Road, Portarlington",Laois,120000.0,Yes,New Dwelling house /Apartment,greater than or equal to 38 sq metres and less than 125 sq metres,ChIJ8Q18pAx1XUgRHNv5Goxq4aY,"https://maps.googleapis.com/maps/api/geocode/json?address=13+Ballymorris+Court,+Ballymorris+Road,+Portarlington,+Laois,+Ireland&key=AIzaSyDRZ-wdfFwQPJfje5ImWN_78508dkyk8H4",53.151265,-7.188981699999999,"13 Ballymorris Ct, Cooltederry, Portarlington, Co. Laois, R32 D1W2, Ireland",R32 D1W2,ROOFTOP,Midland,08070,Portarlington South,0.5887618238332443,0.7306685581356505
12/08/2010,"Eglish, Rathdowney",Laois,250000.0,No,Second-Hand Dwelling house /Apartment,,ChIJN9H_c8jhXEgRkr1Ru6fHACY,"https://maps.googleapis.com/maps/api/geocode/json?address=Eglish,+Rathdowney,+Laois,+Ireland&key=AIzaSyDRZ-wdfFwQPJfje5ImWN_78508dkyk8H4",52.85622499999999,-7.6410363,"Eglish, Co. Laois, Ireland",,APPROXIMATE,Midland,08087,Rathsaran,3.864448717631187,5.485856993618383
12/08/2010,"Station Road, Portarlington",Laois,223000.0,No,Second-Hand Dwelling house /Apartment,,ChIJWa5gsQp1XUgRjN94JkhvOYA,"https://maps.googleapis.com/maps/api/geocode/json?address=Station+Road,+Portarlington,+Laois,+Ireland&key=AIzaSyDRZ-wdfFwQPJfje5ImWN_78508dkyk8H4",53.1529605,-7.1827155,"Station Rd, Cooltederry, Portarlington, Co. Laois, Ireland",,GEOMETRIC_CENTER,Midland,08070,Portarlington South,0.3850861253262007,0.7359698335415356
13/08/2010,"Derrymoyle, Portlaoise Road",Laois,150000.0,No,Second-Hand Dwelling house /Apartment,,ChIJf2tKwh5oXUgRYq4T4Op01e4,"https://maps.googleapis.com/maps/api/geocode/json?address=Derrymoyle,+Portlaoise+Road,+Laois,+Ireland&key=AIzaSyDRZ-wdfFwQPJfje5ImWN_78508dkyk8H4",52.8451303,-6.9569891,"Derrymoyle, Co. Laois, Ireland",,APPROXIMATE,Midland,08094,Graigue Rural,2.559741028348415,31.386025874764808
14/08/2010,"8 The Grange, Borris Road, Portlaoise",Laois,165000.0,No,Second-Hand Dwelling house /Apartment,,ChIJU5XIcEwMXUgRLNtvFh_rqEw,"https://maps.googleapis.com/maps/api/geocode/json?address=8+The+Grange,+Borris+Road,+Portlaoise,+Laois,+Ireland&key=AIzaSyDRZ-wdfFwQPJfje5ImWN_78508dkyk8H4",53.0416736,-7.286521499999999,"8 Borris Rd, The Grange, Ballyroan, Portlaoise, Co. Laois, R32 WE09, Ireland",R32 WE09,ROOFTOP,Midland,08071,Portlaoighise (Maryborough) Rural,0.30506589213928265,1.120687987845905
16/08/2010,"11 Newtown Hall, Hazelbrook Square, Whitehall Road",Laois,311800.0,Yes,New Dwelling house /Apartment,greater than or equal to 38 sq metres and less than 125 sq metres,ChIJS1PIrecLZ0gRYBzTaOd-Kx0,"https://maps.googleapis.com/maps/api/geocode/json?address=11+Newtown+Hall,+Hazelbrook+Square,+Whitehall+Road,+Laois,+Ireland&key=AIzaSyDRZ-wdfFwQPJfje5ImWN_78508dkyk8H4",53.29339909999999,-6.2676305,"Hazel Brook Square, Whitehall Rd, Whitehall, Dublin 14, Ireland",,ROOFTOP,Dublin,05022,Churchtown-Castle,61.28086469339637,62.99793465635286
17/08/2010,"56 Fr Murphy Square, Kilkenny",Laois,170000.0,No,Second-Hand Dwelling house /Apartment,,ChIJNckp7IIwXUgRf27dxOC-x8k,"https://maps.googleapis.com/maps/api/geocode/json?address=56+Fr+Murphy+Square,+Kilkenny,+Laois,+Ireland&key=AIzaSyDRZ-wdfFwQPJfje5ImWN_78508dkyk8H4",52.65009970000001,-7.262981700000001,"45 Father Murphy Square, Lyons, Kilkenny, Ireland",,ROOFTOP,South-East (IE),07001,Kilkenny No. 1 Urban,23.517444327988287,35.98615351087089
18/08/2010,"5 The Cross Of Newtoew, Ballyroan, Portlaoise",Laois,185000.0,Yes,New Dwelling house /Apartment,greater than or equal to 38 sq metres and less than 125 sq metres,ChIJaUn2sXkRXUgRk8BfnvMF3-M,"https://maps.googleapis.com/maps/api/geocode/json?address=5+The+Cross+Of+Newtoew,+Ballyroan,+Portlaoise,+Laois,+Ireland&key=AIzaSyDRZ-wdfFwQPJfje5ImWN_78508dkyk8H4",52.9474074,-7.3088475000000015,"5 The Cross of Newtown, Ballyroan, Co. Laois, R32 VW67, Ireland",R32 VW67,ROOFTOP,Midland,08004,Ballyroan,0.2707095226568549,9.923174956495012
18/08/2010,"9 Heywood Village, Ballinakill",Laois,154186.0,Yes,New Dwelling house /Apartment,greater than or equal to 38 sq metres and less than 125 sq metres,ChIJa0ZvIO0WXUgRffryga1Z8Z0,"https://maps.googleapis.com/maps/api/geocode/json?address=9+Heywood+Village,+Ballinakill,+Laois,+Ireland&key=AIzaSyDRZ-wdfFwQPJfje5ImWN_78508dkyk8H4",52.87760820000001,-7.3085363,"9 Heywood Village, Ballinakill, Co. Laois, R32 HE63, Ireland",R32 HE63,ROOFTOP,Midland,08003,Ballinakill,0.3306383918635777,17.68035730465662
20/08/2010,"11 Ashgrove, Mountmellick",Laois,185000.0,No,Second-Hand Dwelling house /Apartment,,ChIJdbgYp84LXUgRuHttIFhHF6E,"https://maps.googleapis.com/maps/api/geocode/json?address=11+Ashgrove,+Mountmellick,+Laois,+Ireland&key=AIzaSyDRZ-wdfFwQPJfje5ImWN_78508dkyk8H4",53.1169074,-7.322499799999999,"11 Ashgrove, Ballycullenbeg, Mountmellick, Co. Laois, R32 TP84, Ireland",R32 TP84,ROOFTOP,Midland,08066,Mountmellick Urban,0.13108227069447784,8.990601568363632
20/08/2010,"Garoon, Mountmellick",Laois,150000.0,No,Second-Hand Dwelling house /Apartment,,ChIJ_6zgoZ8JXUgRkoRSu6fHACY,"https://maps.googleapis.com/maps/api/geocode/json?address=Garoon,+Mountmellick,+Laois,+Ireland&key=AIzaSyDRZ-wdfFwQPJfje5ImWN_78508dkyk8H4",53.11997849999999,-7.375684599999999,"Garroon, Co. Laois, Ireland",,APPROXIMATE,Midland,08065,Mountmellick Rural,0.5057409337600038,10.471298963709936
20/08/2010,"No 1 Dublin Road, Portlaoise",Laois,108000.0,No,Second-Hand Dwelling house /Apartment,,ChIJKw35XFIMXUgR0qI8w0I8yZA,"https://maps.googleapis.com/maps/api/geocode/json?address=No+1+Dublin+Road,+Portlaoise,+Laois,+Ireland&key=AIzaSyDRZ-wdfFwQPJfje5ImWN_78508dkyk8H4",53.04194560000001,-7.2779685,"1 Dublin Rd, Rath Gailine, Ballyroan, Portlaoise, Co. Laois, R32 R22T, Ireland",R32 R22T,ROOFTOP,Midland,08071,Portlaoighise (Maryborough) Rural,0.3705556715960657,1.6584549363132195
23/08/2010,"45 Clonboyne Close, Bellingham, Mountrath Road",Laois,173000.0,Yes,New Dwelling house /Apartment,less than 38 sq metres,ChIJGzsKnX4OXUgRpVuG6Fuh2SU,"https://maps.googleapis.com/maps/api/geocode/json?address=45+Clonboyne+Close,+Bellingham,+Mountrath+Road,+Laois,+Ireland&key=AIzaSyDRZ-wdfFwQPJfje5ImWN_78508dkyk8H4",53.0321744,-7.326865299999999,"45 Clonboyne Cl, Bellingham, Portlaoise, Co. Laois, R32 WR5E, Ireland",R32 WR5E,ROOFTOP,Midland,08051,Clondarrig,1.146903917326145,1.7785102912597075
25/08/2010,"Clonkeen, Portlaoise",Laois,242500.0,No,Second-Hand Dwelling house /Apartment,,ChIJW-R1rzkOXUgRGDjvKkXKGCQ,"https://maps.googleapis.com/maps/api/geocode/json?address=Clonkeen,+Portlaoise,+Laois,+Ireland&key=AIzaSyDRZ-wdfFwQPJfje5ImWN_78508dkyk8H4",53.0091677,-7.3533485,"Clonkeen, Clonkeen, Portlaoise, Co. Laois, R32 V0H3, Ireland",R32 V0H3,ROOFTOP,Midland,08009,Clonkeen,2.7270031703889708,4.633448217150655
25/08/2010,"No 5 Orchard Drive, Portarlington",Laois,189000.0,No,Second-Hand Dwelling house /Apartment,,ChIJxQvztnV1XUgRzXJ_y4K2RFU,"https://maps.googleapis.com/maps/api/geocode/json?address=No+5+Orchard+Drive,+Portarlington,+Laois,+Ireland&key=AIzaSyDRZ-wdfFwQPJfje5ImWN_78508dkyk8H4",53.15632189999999,-7.185552599999999,"5 Orchard Dr, Cooltederry, Portarlington, Co. Laois, R32 HKK7, Ireland",R32 HKK7,ROOFTOP,Midland,08070,Portarlington South,0.124129890053158,1.1364441469535196
26/08/2010,"78  Castlegate, Station Road, Portarlington",Laois,135000.0,No,Second-Hand Dwelling house /Apartment,,EjA3OCBDYXN0bGVnYXRlLCBQb3J0YXJsaW5ndG9uLCBDby4gTGFvaXMsIElyZWxhbmQiGhIYChQKEgmlCqYYdXVdSBEoV1hgDsVfXxBO,"https://maps.googleapis.com/maps/api/geocode/json?address=78+Castlegate,+Station+Road,+Portarlington,+Laois,+Ireland&key=AIzaSyDRZ-wdfFwQPJfje5ImWN_78508dkyk8H4",53.153889,-7.1847325,"78 Castlegate, Cooltederry, Portarlington, Co. Laois, Ireland",,RANGE_INTERPOLATED,Midland,08070,Portarlington South,0.28480605240987306,0.8605290746040026
26/08/2010,"Garryhinch, Portarlington",Laois,35000.0,No,Second-Hand Dwelling house /Apartment,,ChIJWxX_mXF1XUgRYJAxl6nHAAo,"https://maps.googleapis.com/maps/api/geocode/json?address=Garryhinch,+Portarlington,+Laois,+Ireland&key=AIzaSyDRZ-wdfFwQPJfje5ImWN_78508dkyk8H4",53.16121099999999,-7.187757299999999,"Portarlington, Co. Laois, Ireland",,APPROXIMATE,Midland,08070,Portarlington South,0.1197574977711084,1.699566177841051
26/08/2010,"No 274 Maryborough, Portlaoise",Laois,174000.0,Yes,New Dwelling house /Apartment,greater than or equal to 38 sq metres and less than 125 sq metres,ChIJe6qyTSkMXUgRj9RtMsxNaXc,"https://maps.googleapis.com/maps/api/geocode/json?address=No+274+Maryborough,+Portlaoise,+Laois,+Ireland&key=AIzaSyDRZ-wdfFwQPJfje5ImWN_78508dkyk8H4",53.0431639,-7.3173366999999985,"Maryborough, Portlaoise, Co. Laois, Ireland",,APPROXIMATE,Midland,08071,Portlaoighise (Maryborough) Rural,0.3354337256326372,1.2606619890076427
27/08/2010,"174 The Hermitage, Portlaoise",Laois,141500.0,No,Second-Hand Dwelling house /Apartment,,ChIJJTNt31sMXUgRO3_Pdxe-S0Y,"https://maps.googleapis.com/maps/api/geocode/json?address=174+The+Hermitage,+Portlaoise,+Laois,+Ireland&key=AIzaSyDRZ-wdfFwQPJfje5ImWN_78508dkyk8H4",53.05306179999999,-7.2759078,"174 The Hermitage, Ratheven, Portlaoise, Co. Laois, R32 E10A, Ireland",R32 E10A,ROOFTOP,Midland,08071,Portlaoighise (Maryborough) Rural,0.3368400435348872,2.4647433882929
27/08/2010,"24 Highfield Meadow, Portlaoise",Laois,100000.0,No,Second-Hand Dwelling house /Apartment,,ChIJ9Yb3SkoMXUgRSXfhtFAHebI,"https://maps.googleapis.com/maps/api/geocode/json?address=24+Highfield+Meadow,+Portlaoise,+Laois,+Ireland&key=AIzaSyDRZ-wdfFwQPJfje5ImWN_78508dkyk8H4",53.04185920000001,-7.290815299999998,"24 Highfield Meadows, Moneyballytyrrell, Portlaoise, Co. Laois, R32 E8CY, Ireland",R32 E8CY,ROOFTOP,Midland,08071,Portlaoighise (Maryborough) Rural,0.377367792031771,0.887266633448817
30/08/2010,"Apartment 26 Block B, Parkside, Portlaoise",Laois,165638.77,Yes,New Dwelling house /Apartment,less than 38 sq metres,ChIJ2Xocgc8NXUgRbv0QQNU3O2o,"https://maps.googleapis.com/maps/api/geocode/json?address=Apartment+26+Block+B,+Parkside,+Portlaoise,+Laois,+Ireland&key=AIzaSyDRZ-wdfFwQPJfje5ImWN_78508dkyk8H4",53.0266904,-7.3010265,"Parkside, Abbeyleix Rd, Kylekiproe, Portlaoise, Co. Laois, Ireland",,ROOFTOP,Midland,08071,Portlaoighise (Maryborough) Rural,0.04938165461422353,1.0909209765135002
30/08/2010,"No 18 Boughlone Way, Bellingham, Porltoaise",Laois,225000.0,Yes,New Dwelling house /Apartment,greater than or equal to 38 sq metres and less than 125 sq metres,ChIJocdfNnwOXUgRBkhCoT3rJqc,"https://maps.googleapis.com/maps/api/geocode/json?address=No+18+Boughlone+Way,+Bellingham,+Porltoaise,+Laois,+Ireland&key=AIzaSyDRZ-wdfFwQPJfje5ImWN_78508dkyk8H4",53.03247469999999,-7.3286402000000015,"18 Boughlone Way, Bellingham, Portlaoise, Co. Laois, R32 V2AR, Ireland",R32 V2AR,ROOFTOP,Midland,08051,Clondarrig,1.2648221457102016,1.8828795224121424
02/09/2010,"204 St Brigids Place, Portlaoise",Laois,30000.0,No,Second-Hand Dwelling house /Apartment,,ChIJv21nfUoMXUgRsAuJLTjuPlQ,"https://maps.googleapis.com/maps/api/geocode/json?address=204+St+Brigids+Place,+Portlaoise,+Laois,+Ireland&key=AIzaSyDRZ-wdfFwQPJfje5ImWN_78508dkyk8H4",53.0405273,-7.293024099999998,"204 St Brigid's Pl, Moneyballytyrrell, Portlaoise, Co. Laois, R32 K8VW, Ireland",R32 K8VW,ROOFTOP,Midland,08072,Portlaoighise (Maryborough) Urban,0.263319913539781,0.6808788650251282
02/09/2010,"No 4 Mountrath Road, Portlaoise",Laois,95000.0,No,Second-Hand Dwelling house /Apartment,,ChIJ4fBOJNUNXUgR17fAUlyezrQ,"https://maps.googleapis.com/maps/api/geocode/json?address=No+4+Mountrath+Road,+Portlaoise,+Laois,+Ireland&key=AIzaSyDRZ-wdfFwQPJfje5ImWN_78508dkyk8H4",53.03539789999999,-7.317822599999999,"4 Dromadoon, Mountrath Rd, Clonroosk Little, Portlaoise, Co. Laois, R32 V3YC, Ireland",R32 V3YC,ROOFTOP,Midland,08071,Portlaoighise (Maryborough) Rural,0.4742197981645223,1.1054073411222258
03/09/2010,"Shanahoe, Abbeyleix",Laois,135000.0,No,Second-Hand Dwelling house /Apartment,,ChIJVfbhDGwaXUgRsCEyl6nHAAo,"https://maps.googleapis.com/maps/api/geocode/json?address=Shanahoe,+Abbeyleix,+Laois,+Ireland&key=AIzaSyDRZ-wdfFwQPJfje5ImWN_78508dkyk8H4",52.93135079999999,-7.4197005,"Shanahoe, Co. Laois, Ireland",,APPROXIMATE,Midland,08008,Clash,0.5207081500796226,12.706098710963692
07/09/2010,"Turra, Ballickmoyler, Carlow",Laois,42000.0,No,Second-Hand Dwelling house /Apartment,,ChIJETL0H0hrXUgRFgSfoxLV198,"https://maps.googleapis.com/maps/api/geocode/json?address=Turra,+Ballickmoyler,+Carlow,+Laois,+Ireland&key=AIzaSyDRZ-wdfFwQPJfje5ImWN_78508dkyk8H4",52.8656349,-7.0695488,"Unnamed Road, Aghaterry, Co. Laois, Ireland",,GEOMETRIC_CENTER,Midland,08098,Turra,0.9615832970087492,24.534698205340465
08/09/2010,"24 Crann Nua, Cushina Road, Portarlington",Laois,160000.0,No,Second-Hand Dwelling house /Apartment,,ChIJHSzJkoF1XUgRiS9M3OkSyyM,"https://maps.googleapis.com/maps/api/geocode/json?address=24+Crann+Nua,+Cushina+Road,+Portarlington,+Laois,+Ireland&key=AIzaSyDRZ-wdfFwQPJfje5ImWN_78508dkyk8H4",53.16955160000001,-7.184230499999999,"24 Crann Nua, Edenderry Road, Portarlington, Co. Laois, R32 Y097, Ireland",R32 Y097,ROOFTOP,Midland,08070,Portarlington South,0.9305070797163759,2.5837341543806085
08/09/2010,"57 The Hermitage, Portlaoise",Laois,129000.0,No,Second-Hand Dwelling house /Apartment,,ChIJo5-PwlsMXUgRlAZ7s9y95jg,"https://maps.googleapis.com/maps/api/geocode/json?address=57+The+Hermitage,+Portlaoise,+Laois,+Ireland&key=AIzaSyDRZ-wdfFwQPJfje5ImWN_78508dkyk8H4",53.05358689999999,-7.2770746,"57 The Hermitage, Ratheven, Portlaoise, Co. Laois, R32 C7WH, Ireland",R32 C7WH,ROOFTOP,Midland,08071,Portlaoighise (Maryborough) Rural,0.4076794221185621,2.4547508908698115
09/09/2010,"11 Limetree Avenue, Kilminchy, Portlaoise",Laois,169250.0,No,Second-Hand Dwelling house /Apartment,,ChIJnQPI6vgMXUgRW_t4Dt53kyk,"https://maps.googleapis.com/maps/api/geocode/json?address=11+Limetree+Avenue,+Kilminchy,+Portlaoise,+Laois,+Ireland&key=AIzaSyDRZ-wdfFwQPJfje5ImWN_78508dkyk8H4",53.0463445,-7.265175699999999,"11 Lime Tree Ave, Kilminchy, Portlaoise, Co. Laois, R32 X9HW, Ireland",R32 X9HW,ROOFTOP,Midland,08071,Portlaoighise (Maryborough) Rural,0.2229230532929971,2.6345939097116786
