AtcoCode,PlateCode,CommonName_lang_en,ShortCommonName_lang_en,Street_lang_en,ShortCommonName_lang_ga,LocalityCentre,GridType,Easting,Northing,Longitude,Latitude,StopType,BusStopType,TimingStatus,CompassPoint,StopAreaRef,AdministrativeAreaRef,Indicator_lang_en,NptgLocalityRef,NaptanCode,county,region,electoral_district_id,electoral_district
7050B1520901,152091.0,Topaz Belleek,Topaz Belleek,N3,Béal Leice Topaz,False,ITM,593617.0,858769.0,-8.098485485,54.47735347,BCT,MKD,OTH,NW,853G000111,705,,,,Donegal County,Border,33008,Carrickboy
8210B3392501,339251.0,St Mary's NS,St Mary's NS,,SN Mhuire,False,ITM,670283.0,661574.0,-6.960116482,52.70072903,BCT,CUS,OTH,,821G000001,821,,E0821009,,Carlow County,South-East (IE),01034,Muinebeag (Bagenalstown) Urban
8210B5981201,598121.0,Carlow IT,Carlow IT,,IT Cheatharlach,False,ITM,671692.0,675986.0,-6.936121165,52.8300544,BCT,MKD,OTH,NE,821G000002,821,Nr,E0821025,,Carlow County,South-East (IE),01001,Carlow Urban
8210TR000006,,Tullys Travel,,Tullow Street,,False,ITM,672060.0,676692.0,-6.9305054089999985,52.83634956,TXR,,,,821G000003,821,At,E0821025,,Carlow County,South-East (IE),01001,Carlow Urban
8210TR000008,,Heatons,,X,,False,ITM,672541.0,676488.0,-6.923413243,52.83445187,TXR,,,,821G000004,821,At,E0821025,,Carlow County,South-East (IE),01001,Carlow Urban
8210TR000007,,Shaws Department Store,,Tullow Street,,False,ITM,672011.0,676703.0,-6.931230089,52.83645495,TXR,,,,821G000005,821,Opp,E0821025,,Carlow County,South-East (IE),01001,Carlow Urban
8210TR000001,,Fdc Accountants,,The Square,,False,ITM,685195.0,673166.0,-6.736526453,52.8027506,TXR,,,,821G000008,821,o/s,E0821014,,Carlow County,South-East (IE),01048,Tullow Urban
821000011,,Barrack Street,,,,False,ITM,672404.0,676574.0,-6.925427007000001,52.8352431,BCT,MKD,OTH,,821G000009,821,,E0821025,,Carlow County,South-East (IE),01001,Carlow Urban
8210B3355702,335572.0,Carlow Coach Park,Carlow Coach Park,,Clós Cóistí Cheath,False,ITM,672303.0,676404.0,-6.926963347,52.83372901,BCT,MKD,OTH,SW,821G000010,821,,E0821025,,Carlow County,South-East (IE),01001,Carlow Urban
8210B3355701,335571.0,Carlow Coach Park,Carlow Coach Park,,Clós Cóistí Cheath,False,ITM,672311.0,676393.0,-6.92684708,52.83362909,BCT,MKD,OTH,SW,821G000010,821,,E0821025,,Carlow County,South-East (IE),01001,Carlow Urban
8210PB000017,,Carlow Coach Park,Carlow Coach Park,,Clós Cóistí Cheath,False,ITM,672310.0,676393.0,-6.926861917999999,52.83362923,BCT,MKD,OTH,SW,821G000010,821,In,E0821025,,Carlow County,South-East (IE),01001,Carlow Urban
8210TR000005,,Brooks Restaurant,,Tullow Street,,False,ITM,672103.0,676683.0,-6.929869325,52.83626293,TXR,,,,821G000011,821,Opp,E0821025,,Carlow County,South-East (IE),01001,Carlow Urban
8210TR000004,,Bruce Betting,,Potato Market,,False,ITM,672142.0,676650.0,-6.929297902,52.83596117,TXR,,,,821G000012,821,o/s,E0821025,,Carlow County,South-East (IE),01001,Carlow Urban
8210TR000003,,Ulster Bank,,Kennedy Avenue,,False,ITM,672227.0,676504.0,-6.928068911,52.83463781,TXR,,,,821G000013,821,By,E0821025,,Carlow County,South-East (IE),01001,Carlow Urban
8210TR000002,,Carlow Train Station,,St Josephs Road,,False,ITM,672559.0,677188.0,-6.922990542000001,52.84073973,TXR,,,,821G000014,821,Opp,E0821025,,Carlow County,South-East (IE),01001,Carlow Urban
8210PB000013,,Borris,,Main Street,,False,ITM,672889.0,650416.0,-6.924030634,52.60011443,BCT,CUS,OTH,SE,821G000016,821,Opp,E0821024,,Carlow County,South-East (IE),01017,Borris
8210PB000012,,Borris,Borris,,An Bhuiríos,False,ITM,672892.0,650424.0,-6.923984595,52.60018592,BCT,CUS,OTH,NW,821G000016,821,o/s,E0821024,,Carlow County,South-East (IE),01017,Borris
8210PB000011,,Brownshill Dolmen Carlow,,R726,,False,ITM,675702.0,676891.0,-6.876416762000001,52.83763858,BCT,MKD,OTH,NW,821G000017,821,In,E0821029,,Carlow County,South-East (IE),01027,Johnstown
8210B3390801,339082.0,Seskin Road,Seskin Road,R448,Bóthar an tSeiscinn,False,ITM,668495.0,665793.0,-6.98568732,52.738872,BCT,MKD,OTH,S,821G000018,821,,E0821006,,Carlow County,South-East (IE),01032,Leighlinbridge
8210B3394301,339431.0,Royal Oak Road,Royal Oak Road,,Br na Darach Ríoga,False,ITM,668623.0,661891.0,-6.984606912,52.7037906,BCT,MKD,OTH,N,821G000019,821,,E0821029,,Carlow County,South-East (IE),01032,Leighlinbridge
8210B3394302,339432.0,Royal Oak,Royal Oak,,An Dair Ríoga,False,ITM,668566.0,661802.0,-6.985468728,52.70299802,BCT,MKD,OTH,N,821G000019,821,,E0821029,,Carlow County,South-East (IE),01032,Leighlinbridge
8210PB000008,,Carlow Royal Oak,Carlow Royal Oak,,An Dair Ríoga,False,ITM,668596.0,661749.0,-6.985035962,52.70251794,BCT,CUS,OTH,SE,821G000019,821,Opp,E0821029,,Carlow County,South-East (IE),01032,Leighlinbridge
8210B3511401,351141.0,Rathvilly,Rathvilly,N81,Ráth Bhile,False,ITM,687821.0,681879.0,-6.695247854,52.88061916,BCT,MKD,OTH,SW,821G000020,821,,E0821012,,Carlow County,South-East (IE),01008,Rathvilly
8210B3511402,351142.0,Rathvilly,Rathvilly,N81,Ráth Bhile,False,ITM,687821.0,681879.0,-6.695247854,52.88061916,BCT,MKD,OTH,NE,821G000020,821,,E0821012,,Carlow County,South-East (IE),01008,Rathvilly
8210B1340202,134022.0,Hacketstown,Hacketstown,Main Street,Baile Haicéid,False,ITM,697058.0,680355.0,-6.558513471,52.86533978,BCT,MKD,OTH,NW,821G000021,821,,E0821003,,Carlow County,South-East (IE),01004,Hacketstown
8210B1340201,134021.0,Hacketstown,Hacketstown,Main Street,Baile Haicéid,False,ITM,697066.0,680342.0,-6.55839857,52.86522153,BCT,MKD,OTH,SE,821G000021,821,,E0821003,,Carlow County,South-East (IE),01004,Hacketstown
8210B3555602,355562.0,The Square Tullow,The Square Tullow,Bridge Street,Cearnóg An Tulach,False,ITM,685219.0,673187.0,-6.736165147,52.80293551,BCT,MKD,OTH,NE,821G000023,821,,E0821014,,Carlow County,South-East (IE),01048,Tullow Urban
8210B3555601,355561.0,Tullow,Tullow,Bridge Street,An Tulach,False,ITM,685219.0,673187.0,-6.736165147,52.80293551,BCT,MKD,OTH,SW,821G000023,821,,E0821014,,Carlow County,South-East (IE),01048,Tullow Urban
8210B3555603,355563.0,Tullow,Tullow,Bridge Street,An Tulaigh,False,ITM,685218.0,673187.0,-6.736179973,52.80293567,BCT,MKD,OTH,SW,821G000023,821,,E0821014,,Carlow County,South-East (IE),01048,Tullow Urban
8210B3555604,355564.0,Tullow,Tullow,Bridge Street,An Tulaigh,False,ITM,685225.0,673208.0,-6.736070716,52.80312326,BCT,MKD,OTH,NE,821G000023,821,,E0821014,,Carlow County,South-East (IE),01048,Tullow Urban
8210B3511802,351182.0,Kildavin,,N80,,False,ITM,688551.0,660093.0,-6.690296675,52.68474313,BCT,MKD,OTH,NW,821G000024,821,,E0821017,,Carlow County,South-East (IE),01021,Clonegall
8210B3511801,351181.0,Kildavin,Kildavin,N80,Cill Damháin,False,ITM,688522.0,660126.0,-6.690716605,52.68504439,BCT,MKD,OTH,SE,821G000024,821,,E0821017,,Carlow County,South-East (IE),01021,Clonegall
821000003,,Carlow,Carlow,,Ceatharlach,False,ITM,671874.0,676331.0,-6.933344928,52.83313039,BCT,CUS,OTH,,821G000026,821,,E0821025,,Carlow County,South-East (IE),01001,Carlow Urban
821000007,,Leighlinbridge,Leighlinbridge,,Leithghl an Droichid,False,ITM,669165.0,665560.0,-6.975816384,52.73669291,BCT,CUS,OTH,,821G000028,821,,E0821006,,Carlow County,South-East (IE),01032,Leighlinbridge
821000008,,Leighlinbridge,Leighlinbridge,,Leithghl an Droichid,False,ITM,669153.0,665561.0,-6.975993837000001,52.73670343,BCT,CUS,OTH,,821G000028,821,,E0821006,,Carlow County,South-East (IE),01032,Leighlinbridge
821000009,,Royal Oak Road,Royal Oak Road,,Bóthar Royal Oak,False,ITM,669715.0,661478.0,-6.968539268,52.69993974,BCT,CUS,OTH,,821G000029,821,,E0821009,,Carlow County,South-East (IE),01034,Muinebeag (Bagenalstown) Urban
821000010,,Royal Oak Road,Royal Oak Road,,Bóthar Royal Oak,False,ITM,669711.0,661497.0,-6.968594414,52.70011099,BCT,CUS,OTH,,821G000029,821,,E0821009,,Carlow County,South-East (IE),01034,Muinebeag (Bagenalstown) Urban
821000012,,Bagenalstown,Bagenalstown,,Muine Bheag,False,ITM,670360.0,661659.0,-6.958959244,52.70148288,BCT,CUS,OTH,,821G000030,821,,E0821009,,Carlow County,South-East (IE),01034,Muinebeag (Bagenalstown) Urban
821000013,,Bagenalstown,Bagenalstown,,Muine Bheag,False,ITM,670339.0,661659.0,-6.959269902999999,52.70148561,BCT,CUS,OTH,,821G000030,821,,E0821009,,Carlow County,South-East (IE),01034,Muinebeag (Bagenalstown) Urban
821000016,,Dublin Road,Dublin Road,,Bóthar BhÁC,False,ITM,685783.0,673899.0,-6.727616246,52.80924385,BCT,MKD,OTH,,821G000031,821,,E0821014,,Carlow County,South-East (IE),01048,Tullow Urban
821000017,,Dublin Road,,,,False,ITM,685775.0,673906.0,-6.7277330389999985,52.80930802,BCT,MKD,OTH,,821G000031,821,,E0821014,,Carlow County,South-East (IE),01048,Tullow Urban
821000018,,St Patrick's Park,St Patrick's Park,,Páirc Phádraig,False,ITM,684629.0,673340.0,-6.744873216,52.80440315,BCT,MKD,OTH,,821G000032,821,,E0821014,,Carlow County,South-East (IE),01048,Tullow Urban
821000019,,Saint Patricks Park,,,,False,ITM,684624.0,673351.0,-6.744944505,52.80450277,BCT,MKD,OTH,,821G000032,821,,E0821014,,Carlow County,South-East (IE),01048,Tullow Urban
821000022,,Kernanstown,Kernanstown,,Baile Mhic Thiarnáin,False,ITM,675633.0,675120.0,-6.877850846,52.82173408,BCT,MKD,OTH,,821G000034,821,,E0821022,,Carlow County,South-East (IE),01027,Johnstown
821000023,,Kernanstown,,,,False,ITM,675634.0,675134.0,-6.8778327710000005,52.82185975,BCT,MKD,OTH,,821G000034,821,,E0821022,,Carlow County,South-East (IE),01027,Johnstown
8210B351711,351711.0,Ballon,Ballon,,Balana,False,ITM,683050.0,666110.0,-6.7701178220000005,52.73968168,class_undefined,,,,821G010006,821,,E0821007,,Carlow County,South-East (IE),01014,Ballon
8210B351721,351721.0,Ballon,Ballon,,Balana,False,ITM,683054.0,666116.0,-6.770057082999999,52.73973498,class_undefined,,,,821G010006,821,,E0821007,,Carlow County,South-East (IE),01014,Ballon
8210B136311,136311.0,Tullow,Tullow,,An Tulach,False,ITM,685223.0,673216.0,-6.736098284,52.80319546,class_undefined,,,,,821,,E0821014,,Carlow County,South-East (IE),01048,Tullow Urban
8210B136231,136231.0,Hacketstown,Hacketstown,,Baile Haicéid,False,ITM,697058.0,680355.0,-6.558513471,52.86533978,class_undefined,,,,,821,,E0821003,,Carlow County,South-East (IE),01004,Hacketstown
8210B351441,351441.0,Kildavin,Kildavin,,Cill Damháin,False,ITM,688526.0,660122.0,-6.690658535,52.68500779,class_undefined,,,,,821,,E0821017,,Carlow County,South-East (IE),01021,Clonegall
821000004,10002.0,Kildavin,Kildavin,,Cill Damháin,False,ITM,688901.0,659948.0,-6.685160659,52.68338292,class_undefined,,,,,821,,E0821017,,Carlow County,South-East (IE),01021,Clonegall
821000005,10003.0,Kildavin,Kildavin,,Cill Damháin,False,ITM,688913.0,659949.0,-6.684982961,52.68338994,class_undefined,,,,,821,,E0821017,,Carlow County,South-East (IE),01021,Clonegall
821000001,,Green Lane,,,,False,ITM,672971.0,677352.0,-6.916839649,52.84215782,class_undefined,,,,,821,,E0821025,,Carlow County,South-East (IE),01019,Carlow Rural
821000002,,Green Lane,,,,False,ITM,672996.0,677348.0,-6.916469524,52.84211849,class_undefined,,,,,821,,E0821025,,Carlow County,South-East (IE),01019,Carlow Rural
8210B1360700,136070.0,Stop No. 136070,,,,False,ITM,668405.0,665420.0,-6.987097574,52.73553145,class_undefined,,,,,821,,E0821123,,Carlow County,South-East (IE),01032,Leighlinbridge
8210B1360701,136071.0,Leighlinbridge Cross,Leighlinbridge Cross,,Leithghlinn Droichid,False,ITM,668405.0,665420.0,-6.987097574,52.73553145,class_undefined,,,,,821,,E0821123,,Carlow County,South-East (IE),01032,Leighlinbridge
8210B1360801,136080.0,Royal Oak,Royal Oak,,An Dair Ríoga,False,ITM,668566.0,661802.0,-6.985468728,52.70299802,class_undefined,,,,,821,,E0821562,,Carlow County,South-East (IE),01032,Leighlinbridge
8210B136061,136061.0,IT Carlow,IT Carlow,,IT Cheatharlach,False,ITM,671633.0,675764.0,-6.937045232999999,52.82806732,BCT,MKD,OTH,S,,821,o/s 1,E0821025,,Carlow County,South-East (IE),01019,Carlow Rural
8210B136211,136211.0,Rathvilly,Rathvilly,,Ráth Bhile,False,ITM,687792.0,681872.0,-6.695680471,52.88056099,class_undefined,,,,,821,,E0821012,,Carlow County,South-East (IE),01008,Rathvilly
8220DB001738,1738.0,Clontarf Rd Pitches,Clontarf Rd Pitches,,Br Chluain Tarbh,False,ITM,718491.0,736221.0,-6.219730239,53.36289418,BCT,MKD,OTH,,822G000003,822,,E0822038,,Dublin City,Dublin,02045,Clontarf West D
8220DB007516,7516.0,Belmayne,Belmayne,,Béal Maighne,False,ITM,721574.0,740661.0,-6.171727025,53.40207592,class_undefined,,,,822G000005,822,,E0822748,,Dublin City,Dublin,02059,Grange A
8220DB000592,592.0,James Larkin Road,James Larkin Road,,Séamais Uí Lorcáin,False,ITM,723172.0,738547.0,-6.1485338810000005,53.38271738,BCT,CUS,OTH,,822G000006,822,,E0822043,,Dublin City,Dublin,02086,Raheny-Greendale
8220DB001228,1228.0,Kilbarron Road,Kilbarron Road,Kilbarron Road,Br Chill Bharrainn,False,ITM,718549.0,739487.0,-6.217634406,53.39221813,BCT,MKD,OTH,W,822G000006,822,,E0822040,,Dublin City,Dublin,02070,Kilmore B
8220DB001237,1237.0,Cromcastle Avenue,Cromcastle Avenue,Kilbarron Road,Asc Chais na Croma,False,ITM,718452.0,739534.0,-6.219074384,53.39266206,BCT,MKD,OTH,E,822G000006,822,,E0822040,,Dublin City,Dublin,02070,Kilmore B
8220DB000497,497.0,Connolly,Connolly,,Stáis Uí Chonghaile,False,ITM,716464.0,734794.0,-6.250694342999999,53.35052608,BCT,MKD,OTH,,822G000008,822,,E0822081,,Dublin City,Dublin,02073,Mountjoy A
8220B1351201,135121.0,Amiens Street,Amiens Street,,Sráid Amiens,False,ITM,716476.0,734760.0,-6.250526701,53.35021802,BCT,MKD,OTH,,822G000008,822,,E0822081,,Dublin City,Dublin,02078,North Dock C
8220DB004415,4415.0,Connolly Train Stn,Connolly Train Stn,,Stn Uí Chonghaile,False,ITM,716482.0,734798.0,-6.250422647000001,53.35055805,BCT,MKD,OTH,,822G000008,822,,E0822081,,Dublin City,Dublin,02078,North Dock C
8220DB001500,1500.0,Connolly,Connolly,,Stáis Uí Chonghaile,False,ITM,716502.0,734850.0,-6.250103263,53.35102075,BCT,MKD,OTH,,822G000008,822,,E0822081,,Dublin City,Dublin,02078,North Dock C
822000436,,Eden Quay,Eden Quay,,Cé Éidin,False,ITM,715993.0,734495.0,-6.25787477,53.34794369,BCT,MKD,OTH,,822G000009,822,,E0822013,,Dublin City,Dublin,02075,North City
822000435,,Eden Quay,Eden Quay,,Cé Éidin,False,ITM,715991.0,734478.0,-6.25791102,53.34779142,BCT,MKD,OTH,,822G000009,822,,E0822013,,Dublin City,Dublin,02075,North City
822000432,,Rock Road,Rock Road,,Bóthar na Carraige,False,ITM,719841.0,730654.0,-6.20156361,53.31258442,BCT,MKD,OTH,,822G000025,822,,E0822039,,Dublin City,Dublin,02128,Pembroke East D
822000431,,Rock Road,Rock Road,,Bóthar na Carraige,False,ITM,719818.0,730677.0,-6.2018998970000005,53.31279622,BCT,MKD,OTH,,822G000025,822,,E0822039,,Dublin City,Dublin,02128,Pembroke East D
822000430,,Martello Tower,Martello Tower,,Túr Martello,False,ITM,719426.0,732101.0,-6.207243322,53.32567589,BCT,MKD,OTH,,822G000026,822,,E0822028,,Dublin City,Dublin,02127,Pembroke East C
822000429,,Martello Tower,Martello Tower,,Túr Martello,False,ITM,719412.0,732094.0,-6.207456005,53.32561617,BCT,MKD,OTH,,822G000026,822,,E0822028,,Dublin City,Dublin,02127,Pembroke East C
822000428,,Gilford Ave Junction,Gilford Ave Junction,,Acomhal Asc Gilford,False,ITM,719200.0,732816.0,-6.210365251,53.33214934,BCT,MKD,OTH,,822G000027,822,,E0822028,,Dublin City,Dublin,02127,Pembroke East C
822000427,,Gilford Ave Junction,Gilford Ave Junction,,Acomhal Asc Gilford,False,ITM,719186.0,732807.0,-6.210578715,53.33207165,BCT,MKD,OTH,,822G000027,822,,E0822028,,Dublin City,Dublin,02127,Pembroke East C
8220DB000770,770.0,RTE,RTE,Stillorgan Road,RTÉ,False,ITM,718225.0,730842.0,-6.225731811,53.31463619,BCT,MKD,OTH,NW,822G000029,822,,E0822030,,Dublin City,Dublin,02128,Pembroke East D
8220DB007608,7608.0,Sean MacDermott Street,,,,False,ITM,716023.0,735039.0,-6.257225072000001,53.35282374,BCT,MKD,OTH,,822G000045,822,,E0822013,,Dublin City,Dublin,02088,Rotunda A
8220DB007590,7590.0,Marlborough Street,Marlborough Street,,Sráid Mhaoilbhríde,False,ITM,715986.0,735014.0,-6.257789723999998,53.35260728,BCT,MKD,OTH,,822G000045,822,,E0822013,,Dublin City,Dublin,02075,North City
822000415,,Swords Road,,,,False,ITM,716822.0,738468.0,-6.243962933,53.38344951,BCT,MKD,OTH,,822G000046,822,,E0822025,,Dublin City,Dublin,02091,Whitehall B
822000410,,Dawson Street,,,,False,ITM,715995.0,733613.0,-6.2581677560000015,53.34002045,BCT,MKD,OTH,,822G000060,822,,E0822091,,Dublin City,Dublin,02118,Mansion House B
822000409,,Dawson Street,Dawson Street,,Sráid Dhásain,False,ITM,715963.0,733613.0,-6.258648039,53.34002746,BCT,MKD,OTH,,822G000060,822,,E0822091,,Dublin City,Dublin,02118,Mansion House B
8220B1353301,135331.0,Dawson Street,Dawson Street,,Sráid Dhásain,False,ITM,715967.0,733625.0,-6.2585836110000015,53.34013437,BCT,MKD,OTH,N,822G000060,822,,E0822091,,Dublin City,Dublin,02118,Mansion House B
822000408,,Bachelors Walk,Bachelors Walk,,Siúlán Bhaitsiléir,False,ITM,715805.0,734405.0,-6.2607298710000014,53.34717641,BCT,MKD,OTH,,822G000061,822,,E0822013,,Dublin City,Dublin,02075,North City
822000390,,Donnybrook,Donnybrook,,Domhnach Broc,False,ITM,717693.0,731461.0,-6.233482016,53.32031492,BCT,MKD,OTH,,822G000077,822,,E0822030,,Dublin City,Dublin,02131,Pembroke West B
822000389,,Donnybrook,Donnybrook,,Domhnach Broc,False,ITM,717714.0,731424.0,-6.233180712,53.3199779,BCT,MKD,OTH,,822G000077,822,,E0822030,,Dublin City,Dublin,02135,Rathmines East B
822000386,,Schoolhouse Hotel,Schoolhouse Hotel,,Óstán Schoolhouse,False,ITM,717242.0,733333.0,-6.239555502000001,53.33723057,BCT,MKD,OTH,,822G000079,822,,E0822091,,Dublin City,Dublin,02130,Pembroke West A
822000384,,Hampton Hotel,Hampton Hotel,,Óstán Hampton,False,ITM,717069.0,732111.0,-6.242603177,53.32629197,BCT,MKD,OTH,,822G000080,822,,E0822030,,Dublin City,Dublin,02131,Pembroke West B
822000383,,Hampton Hotel,Hampton Hotel,,Óstán Hampton,False,ITM,717123.0,732030.0,-6.2418228870000005,53.32555243,BCT,MKD,OTH,,822G000080,822,,E0822030,,Dublin City,Dublin,02134,Rathmines East A
822000382,,Leeson St Upper,Leeson St Upper,,Sráid Líosain Uacht,False,ITM,716640.0,732472.0,-6.2489070510000015,53.3296294,BCT,MKD,OTH,,822G000081,822,,E0822091,,Dublin City,Dublin,02132,Pembroke West C
822000381,,Leeson St Upper,Leeson St Upper,,Sráid Líosain Uacht,False,ITM,716735.0,732384.0,-6.24751397,53.32881799,BCT,MKD,OTH,,822G000081,822,,E0822091,,Dublin City,Dublin,02134,Rathmines East A
822000380,,Leeson St Lower,Leeson St Lower,,Sráid Líosain Íocht,False,ITM,716140.0,733110.0,-6.256175849,53.33547032,BCT,MKD,OTH,,822G000082,822,,E0822091,70004.0,Dublin City,Dublin,02118,Mansion House B
822000379,,Leeson St Lower,Leeson St Lower,,Sráid Líosain Íocht,False,ITM,716128.0,733097.0,-6.2563607,53.33535617,BCT,MKD,OTH,,822G000082,822,,E0822091,70011.0,Dublin City,Dublin,02146,St. Kevin's
822000377,,Leeson St Upper,Leeson St Upper,,Sráid Líosain Uacht,False,ITM,716404.0,732641.0,-6.252386203,53.33119942,BCT,MKD,OTH,,822G000083,822,,E0822091,70010.0,Dublin City,Dublin,02134,Rathmines East A
822000376,,Lwr Drumcondra Road,Lwr Drumcondra Road,,Droim Conrach Íocht,False,ITM,715979.0,736268.0,-6.257435244,53.36387318,BCT,MKD,OTH,,822G000084,822,,E0822021,,Dublin City,Dublin,02048,Drumcondra South B
822000375,,Lwr Drumcondra Road,Lwr Drumcondra Road,,Droim Conrach Íocht,False,ITM,715918.0,736166.0,-6.258388667999999,53.36297031,BCT,MKD,OTH,,822G000084,822,,E0822021,,Dublin City,Dublin,02029,Botanic C
822000372,,East Wall Road,East Wall Road,,Br an Phoirt Thoir,False,ITM,718107.0,734864.0,-6.226003017000001,53.35079068,BCT,MKD,OTH,,822G000087,822,,E0822055,,Dublin City,Dublin,02077,North Dock B
8220DB001359,1359.0,College Green,College Green,,Faiche an Choláiste,False,ITM,715770.0,734095.0,-6.26136859,53.34439941,BCT,MKD,OTH,,822G000088,822,,E0822091,,Dublin City,Dublin,02144,Royal Exchange A
822000370,,College Green,,,,False,ITM,715769.0,734095.0,-6.261383601,53.34439963,BCT,MKD,OTH,,822G000088,822,,E0822091,,Dublin City,Dublin,02144,Royal Exchange A
8220DB004522,4522.0,College Green,College Green,,Faiche an Choláiste,False,ITM,715821.0,734081.0,-6.26060818,53.34426249,BCT,MKD,OTH,,822G000088,822,,E0822091,,Dublin City,Dublin,02144,Royal Exchange A
8220DB001279,1279.0,College Green,College Green,,Faiche an Choláiste,False,ITM,715748.0,734079.0,-6.261704666,53.3442605,BCT,MKD,OTH,,822G000088,822,,E0822091,,Dublin City,Dublin,02144,Royal Exchange A
8220DB001278,1278.0,College Green,College Green,,Faiche an Choláiste,False,ITM,715775.0,734077.0,-6.261300117999999,53.34423663,BCT,MKD,OTH,,822G000088,822,,E0822091,,Dublin City,Dublin,02144,Royal Exchange A
8220PB002155,,College Green,,,,False,ITM,715774.0,734077.0,-6.261315128,53.34423684,BCT,MKD,OTH,,822G000088,822,,E0822091,,Dublin City,Dublin,02144,Royal Exchange A
8220DB004521,4521.0,College Green,College Green,,Faiche an Choláiste,False,ITM,715850.0,734086.0,-6.260171051,53.34430106,BCT,MKD,OTH,,822G000088,822,,E0822091,,Dublin City,Dublin,02144,Royal Exchange A
822000302,,Bottom of the Hill,Bottom of the Hill,,Bottom of the Hill,False,ITM,713287.0,738693.0,-6.296993292000001,53.38624023,BCT,MKD,OTH,,822G000089,822,,E0822062,,Dublin City,Dublin,02055,Finglas South B
8220DB006060,6060.0,O'Connell Street (opp Gresham),,,,False,ITM,715753.0,734916.0,-6.2613236510000005,53.35177799,BCT,MKD,OTH,,822G000098,822,,E0822013,,Dublin City,Dublin,02075,North City
822000289,,Thomas Street,,,,False,ITM,714183.0,733954.0,-6.285241171,53.34347759,BCT,MKD,OTH,,822G000099,822,,E0822096,,Dublin City,Dublin,02154,Ushers C
8220VIR07146,,Market Street South,,,,False,ITM,714086.0,733748.0,-6.2867713620000005,53.34164803,BCT,MKD,OTH,,822G000100,822,,E0822096,,Dublin City,Dublin,02154,Ushers C
822000277,,High Street,,,,False,ITM,715028.0,733919.0,-6.272570278,53.34298022,BCT,MKD,OTH,,822G000107,822,,E0822095,,Dublin City,Dublin,02120,Merchants Quay B
822000276,,Casino Park,,,,False,ITM,718030.0,737169.0,-6.226299134,53.37151275,BCT,MKD,OTH,,822G000112,822,,E0822032,,Dublin City,Dublin,02058,Grace Park
822000268,,Mountjoy Sq West,Mountjoy Sq West,,Cear Mhuinseo Thiar,False,ITM,715925.0,735410.0,-6.258560506,53.35617782,BCT,MKD,OTH,,822G000114,822,,E0822013,,Dublin City,Dublin,02088,Rotunda A
8220DB002498,2498.0,Custom House Quay,Custom House Quay,,Theach an Chustaim,False,ITM,716509.0,734541.0,-6.250111877,53.34824354,BCT,MKD,OTH,E,822G000120,822,,E0822073,,Dublin City,Dublin,02078,North Dock C
822000214,,Custom House Quay,Custom House Quay,,Cé Thch an Chustaim,False,ITM,716493.0,734545.0,-6.250350592,53.348283,BCT,MKD,OTH,,822G000120,822,,E0822073,,Dublin City,Dublin,02078,North Dock C
8220B1352702,135272.0,IFSC House,IFSC House,,Teach an Chustaim,False,ITM,716493.0,734545.0,-6.250350592,53.348283,BCT,MKD,OTH,,822G000120,822,,E0822073,,Dublin City,Dublin,02078,North Dock C
822000262,,Donnybrook Road,,,,False,ITM,717707.0,731416.0,-6.233288692,53.31990759,BCT,MKD,OTH,,822G000122,822,,E0822030,,Dublin City,Dublin,02135,Rathmines East B
8220B1353002,135302.0,Stop No. 135302,,,,False,ITM,716285.0,732875.0,-6.254086032000001,53.33332754,BCT,MKD,OTH,,822G000127,822,,E0822091,,Dublin City,Dublin,02146,St. Kevin's
822000255,,Sussex Road,Sussex Road,,Bóthar Sussex,False,ITM,716640.0,732483.0,-6.248903003,53.32972821,BCT,MKD,OTH,,822G000128,822,,E0822091,,Dublin City,Dublin,02132,Pembroke West C
8220B1021701,102171.0,Sussex Road,Sussex Road,,Bóthar Sussex,False,ITM,716599.0,732506.0,-6.249509755,53.32994385,BCT,MKD,OTH,,822G000128,822,,E0822091,,Dublin City,Dublin,02132,Pembroke West C
8220DB007611,7611.0,North Wall Quay,North Wall Quay,,Cé an Phoirt Thuaidh,False,ITM,717421.0,734464.0,-6.236449877999999,53.3473503,BCT,MKD,OTH,,822G000135,822,,E0822073,,Dublin City,Dublin,02077,North Dock B
822000248,,AIB OConnell Street,AIB OConnell Street,,AIB Sd Uí Chonaill,False,ITM,715732.0,734978.0,-6.261616257999999,53.35233952,BCT,MKD,OTH,,822G000137,822,,E0822013,,Dublin City,Dublin,02075,North City
822000246,,North Star Hotel,,,,False,ITM,716512.0,734931.0,-6.249923327,53.35174614,BCT,MKD,OTH,,822G000141,822,,E0822081,,Dublin City,Dublin,02073,Mountjoy A
822000245,,Ardmore Hotel,Ardmore Hotel,,Óstán Ardmore,False,ITM,713648.0,738251.0,-6.291728116,53.38219229,BCT,MKD,OTH,,822G000147,822,,E0822062,,Dublin City,Dublin,02055,Finglas South B
8220DB001477,1477.0,Arran Quay,Arran Quay,,Cé Árann,False,ITM,714788.0,734238.0,-6.276057067000001,53.34589785,BCT,MKD,OTH,E,822G000148,822,,E0822060,,Dublin City,Dublin,02003,Arran Quay C
822000243,,Arran Quay,,,,False,ITM,714805.0,734232.0,-6.275804055,53.34584027,BCT,MKD,OTH,,822G000148,822,,E0822060,,Dublin City,Dublin,02003,Arran Quay C
8220DB000494,494.0,Clare Street,Clare Street,,Sráid an Chláraigh,False,ITM,716427.0,733770.0,-6.251626258,53.3413359,BCT,MKD,OTH,,822G000151,822,,E0822091,494.0,Dublin City,Dublin,02118,Mansion House B
822000242,,North Wall Quay,North Wall Quay,,Cé an Phoirt Thuaidh,False,ITM,717022.0,734499.0,-6.242426442999999,53.34775307,BCT,MKD,OTH,,822G000152,822,,E0822073,2500.0,Dublin City,Dublin,02078,North Dock C
8220DB001490,1490.0,Árd Scoil Rís,Árd Scoil Rís,Griffith Avenue,Ard-Scoil Rís,False,ITM,717887.0,736872.0,-6.228557661,53.36887682,BCT,MKD,OTH,SE,822G000164,822,,E0822032,,Dublin City,Dublin,02058,Grace Park
8220DB001491,1491.0,Griffith Avenue,Griffith Avenue,Griffith Avenue,Ascaill Uí Ghríofa,False,ITM,717949.0,736828.0,-6.22764291,53.36846776,BCT,MKD,OTH,W,822G000164,822,,E0822032,,Dublin City,Dublin,02046,Clontarf West E
8220B007612,7612.0,Merrion Square,Merrion Square,,Cearnóg Mhuirfean,False,ITM,716500.0,733773.0,-6.25052948,53.34134678,BCT,MKD,OTH,,822G000166,822,,E0822065,,Dublin City,Dublin,02117,Mansion House A
8220DB004839,4839.0,Stop No. 4839,,,,False,ITM,716511.0,733796.0,-6.250355919,53.34155096,BCT,MKD,OTH,,822G000166,822,,E0822065,,Dublin City,Dublin,02117,Mansion House A
822000233,,Merrion Street Lower,,,,False,ITM,716511.0,733796.0,-6.250355919,53.34155096,BCT,MKD,OTH,,822G000166,822,,E0822065,,Dublin City,Dublin,02117,Mansion House A
822000232,,Clifton Court Hotel,Clifton Court Hotel,,Óstán Clifton Court,False,ITM,715955.0,734478.0,-6.258451437000001,53.34779931,BCT,MKD,OTH,,822G000167,822,,E0822013,,Dublin City,Dublin,02075,North City
822000228,,John's Park,John's Park,,Páirc Eoin,False,ITM,718194.0,732160.0,-6.225705657000001,53.32648225,BCT,MKD,OTH,,822G000169,822,,E0822029,,Dublin City,Dublin,02129,Pembroke East E
822000215,,Parnell Square North,,,,False,ITM,715570.0,735192.0,-6.263970269,53.35429725,BCT,MKD,OTH,,822G000180,822,,E0822054,,Dublin City,Dublin,02089,Rotunda B
8220DB000318,318.0,Westmoreland Street,Westmoreland Street,Westmoreland Street,Sráid Westmoreland,False,ITM,715916.0,734311.0,-6.259098017,53.34630773,BCT,MKD,OTH,S,822G000182,822,,E0822091,,Dublin City,Dublin,02117,Mansion House A
8220DB006032,6032.0,Cathal Brugha St,Cathal Brugha St,,Sd Chathail Brugha,False,ITM,715821.0,734949.0,-6.260290695,53.35205954,BCT,MKD,OTH,W,822G000184,822,,E0822013,,Dublin City,Dublin,02075,North City
8220DB004508,4508.0,Cathal Brugha Street,Cathal Brugha Street,,Sd Chathail Brugha,False,ITM,715843.0,734971.0,-6.259952357,53.35225235,BCT,MKD,OTH,E,822G000184,822,,E0822013,,Dublin City,Dublin,02088,Rotunda A
8220DB000286,286.0,Cathal Brugha Street,,Cathal Brugha Street,,False,ITM,715804.0,734942.0,-6.260548478,53.35200039,BCT,MKD,OTH,W,822G000184,822,,E0822013,,Dublin City,Dublin,02075,North City
8220DB000287,287.0,Cathal Brugha Street,,Cathal Brugha Street,,False,ITM,715800.0,734945.0,-6.260607433,53.35202821,BCT,MKD,OTH,W,822G000184,822,,E0822013,,Dublin City,Dublin,02075,North City
8220DB000278,278.0,O'Connell St Upper,O'Connell St Upper,,Sd Uí Chonaill Uacht,False,ITM,715765.0,734869.0,-6.261160681000002,53.35135318,BCT,MKD,OTH,N,822G000184,822,opp,E0822013,,Dublin City,Dublin,02075,North City
8220DB007468,7468.0,Stop No. 7468,,,,False,ITM,715812.0,734924.0,-6.260434957999999,53.35183694,BCT,CUS,OTH,,822G000184,822,,E0822013,,Dublin City,Dublin,02075,North City
8220DB001741,1741.0,Alfie Byrne Road,Alfie Byrne Road,,Br Ailf Uí Bhroin,False,ITM,718428.0,736222.0,-6.220675909,53.36291727,BCT,MKD,OTH,,822G000187,822,,E0822038,,Dublin City,Dublin,02045,Clontarf West D
8220DB001349,1349.0,Carlisle Street,Carlisle Street,South Circular Road,Sráid Carlisle,False,ITM,715169.0,732743.0,-6.270881322999999,53.33238573,BCT,MKD,OTH,E,822G000188,822,,E0822076,,Dublin City,Dublin,02162,Wood Quay B
8220DB000997,997.0,Northside SC,Northside SC,Oscar Traynor Road,IS Northside,False,ITM,718948.0,739712.0,-6.211553956,53.39414951,BCT,MKD,OTH,SE,822G000423,822,,E0822035,,Dublin City,Dublin,02071,Kilmore C
8220DB000968,968.0,Armstrong Walk,Armstrong Walk,Oscar Traynor Road,Siúlán Armstrong,False,ITM,719004.0,739675.0,-6.21072636,53.39380454,BCT,MKD,OTH,NW,822G000424,822,,E0822035,,Dublin City,Dublin,02072,Kilmore D
8220DB000994,994.0,Dundaniel Road,,Oscar Traynor Road,,False,ITM,718184.0,740110.0,-6.2228860510000015,53.39789602,BCT,MKD,OTH,E,822G000425,822,opp,E0822040,,Dublin City,Dublin,02070,Kilmore B
8220DB000970,970.0,Clonshaugh Industrial Estate,,Oscar Traynor Road,,False,ITM,718168.0,740090.0,-6.223133999,53.39771995,BCT,MKD,OTH,W,822G000425,822,opp,E0822040,,Dublin City,Dublin,02070,Kilmore B
8220DB000971,971.0,Oscar Traynor Road,,Oscar Traynor Road,,False,ITM,718171.0,740087.0,-6.223090035,53.39769233,BCT,MKD,OTH,W,822G000425,822,,E0822040,,Dublin City,Dublin,02070,Kilmore B
8220DB005060,5060.0,Dundaniel Road,Dundaniel Road,Dundaniel Road,Bóthar Dhún Dónaill,False,ITM,718110.0,740027.0,-6.22402924,53.39716702,BCT,MKD,OTH,S,822G000426,822,,E0822040,,Dublin City,Dublin,02070,Kilmore B
8220DB006078,6078.0,Oscar Traynor Rd,Oscar Traynor Rd,Dundaniel Road,Br Oscair M Thréinir,False,ITM,718097.0,740035.0,-6.224221621,53.39724178,BCT,MKD,OTH,N,822G000426,822,,E0822040,,Dublin City,Dublin,02070,Kilmore B
8220DB000967,967.0,Woodville,Woodville,Oscar Traynor Road,Baile na Coille,False,ITM,719298.0,739514.0,-6.206369142000001,53.39229206,BCT,MKD,OTH,NW,822G000427,822,opp,E0822035,,Dublin City,Dublin,02072,Kilmore D
8220DB001004,1004.0,Rathvale,Rathvale,Tonlegee Road,Ráth an Ghleanna,False,ITM,720648.0,739373.0,-6.1861370110000005,53.390719,BCT,MKD,OTH,E,822G000428,822,,E0822044,,Dublin City,Dublin,02008,Ayrfield
8220DB000963,963.0,Rathvale,Rathvale,Tonlegee Road,Ráth an Ghleanna,False,ITM,720612.0,739354.0,-6.186685205,53.39055656,BCT,MKD,OTH,E,822G000428,822,,E0822044,,Dublin City,Dublin,02008,Ayrfield
8220DB000964,964.0,St John's Church,St John's Church,Tonlegee Road,Séipéal N Eoin,False,ITM,720243.0,739295.0,-6.192252282999999,53.39011070000001,BCT,MKD,OTH,E,822G000429,822,opp,E0822044,,Dublin City,Dublin,02008,Ayrfield
8220DB000966,966.0,Oscar Traynor Road,Oscar Traynor Road,Oscar Traynor Road,Br Oscair M Thréinir,False,ITM,719530.0,739405.0,-6.202924183,53.39126054,BCT,MKD,OTH,SE,822G000430,822,,E0822035,,Dublin City,Dublin,02071,Kilmore C
8220DB000977,977.0,Grove Road,,Ballygall Road West,,False,ITM,713853.0,739156.0,-6.2883220789999985,53.39027765,BCT,MKD,OTH,W,822G000431,822,opp,E0822022,,Dublin City,Dublin,02012,Ballygall B
8220DB000979,979.0,St Canice's GNS,St Canice's GNS,Seamus Ennis Road,SNC Chainnigh,False,ITM,713270.0,739106.0,-6.2971006360000015,53.38995381,BCT,MKD,OTH,W,822G000432,822,opp,E0822022,,Dublin City,Dublin,02011,Ballygall A
8220DB000972,972.0,Aulden Grange,Aulden Grange,Oscar Traynor Road,Gráinseach Aulden,False,ITM,717386.0,739990.0,-6.234923799,53.39699605,BCT,MKD,OTH,W,822G000434,822,opp,E0822040,,Dublin City,Dublin,02069,Kilmore A
8220DB001028,1028.0,South Hill,South Hill,Milltown Road,An Cnoc Theas,False,ITM,716244.0,730110.0,-6.2557146810000015,53.30849911,BCT,MKD,OTH,E,822G000437,822,opp,E0822072,,Dublin City,Dublin,02136,Rathmines East C
8220DB001062,1062.0,South Hill,South Hill,Milltown Road,An Cnoc Theas,False,ITM,716271.0,730084.0,-6.255319266,53.30825964,BCT,MKD,OTH,W,822G000437,822,,E0822072,,Dublin City,Dublin,02136,Rathmines East C
8220DB001027,1027.0,Dodder Walk,Dodder Walk,Milltown Road,Siúlan na Dothra,False,ITM,716097.0,730133.0,-6.257910941,53.30873794,BCT,MKD,OTH,E,822G000438,822,,E0822072,,Dublin City,Dublin,02136,Rathmines East C
8220DB001063,1063.0,Dodder Walk,Dodder Walk,Milltown Road,Siúlan na Dothra,False,ITM,716034.0,730113.0,-6.258863118,53.30857208,BCT,MKD,OTH,W,822G000438,822,opp,E0822072,,Dublin City,Dublin,02136,Rathmines East C
8220DB001064,1064.0,Dartry Road,Dartry Road,Dartry Road,Bóthar Dhartraí,False,ITM,715894.0,730205.0,-6.26092922,53.30942914,BCT,MKD,OTH,NW,822G000439,822,,E0822014,,Dublin City,Dublin,02133,Rathfarnham
8220DB001026,1026.0,Orwell Park,Orwell Park,Dartry Road,Páirc Orwell,False,ITM,715935.0,730170.0,-6.260327082000001,53.30910577,BCT,MKD,OTH,SE,822G000439,822,opp,E0822014,,Dublin City,Dublin,02136,Rathmines East C
8220DB001023,1023.0,Rathmines Close,Rathmines Close,Upper Rathmines Road,Clós Ráth Maonais,False,ITM,715608.0,731046.0,-6.264912289,53.31704619,BCT,MKD,OTH,S,822G000440,822,opp,E0822015,,Dublin City,Dublin,02140,Rathmines West C
8220DB001024,1024.0,Frankfort Avenue,Frankfort Avenue,Upper Rathmines Road,Ascaill Frankfort,False,ITM,715604.0,730913.0,-6.265020756,53.31585235,BCT,MKD,OTH,S,822G000441,822,opp,E0822015,,Dublin City,Dublin,02140,Rathmines West C
8220DB001065,1065.0,Trinity Hall,Trinity Hall,Dartry Road,Halla na Tríonóide,False,ITM,715764.0,730469.0,-6.26278268,53.31182903,BCT,MKD,OTH,N,822G000442,822,,E0822014,,Dublin City,Dublin,02133,Rathfarnham
8220DB001025,1025.0,Trinity Hall,Trinity Hall,Dartry Road,Halla na Tríonóide,False,ITM,715785.0,730444.0,-6.262476822999999,53.31159987,BCT,MKD,OTH,S,822G000442,822,,E0822014,,Dublin City,Dublin,02133,Rathfarnham
8220DB001018,1018.0,St Mary's College,St Mary's College,,Coláiste Mhuire,False,ITM,715581.0,732217.0,-6.264890547,53.32757099,BCT,MKD,OTH,N,822G000443,822,,E0822015,,Dublin City,Dublin,02138,Rathmines West A
8220DB001071,1071.0,St Mary's College,St Mary's College,,Coláiste Mhuire,False,ITM,715593.0,732178.0,-6.264724711,53.32721804,BCT,MKD,OTH,S,822G000443,822,,E0822015,,Dublin City,Dublin,02139,Rathmines West B
8220DB001072,1072.0,South Richmond St,South Richmond St,Richmond Street Sth,Sráid Richmond Theas,False,ITM,715602.0,732613.0,-6.264431045,53.33112360000001,BCT,MKD,OTH,S,822G000444,822,,E0822092,,Dublin City,Dublin,02146,St. Kevin's
8220DB001016,1016.0,South Richmond St,South Richmond St,Richmond Street Sth,Sráid Richmond Theas,False,ITM,715591.0,732603.0,-6.264599755,53.33103618,BCT,MKD,OTH,N,822G000444,822,opp,E0822092,,Dublin City,Dublin,02146,St. Kevin's
8220DB001067,1067.0,Rathmines Close,Rathmines Close,Upper Rathmines Road,Clós Ráth Maonais,False,ITM,715587.0,731046.0,-6.265227306,53.31705077,BCT,MKD,OTH,N,822G000446,822,,E0822015,,Dublin City,Dublin,02141,Rathmines West D
8220DB001007,1007.0,Millbrook Drive,Millbrook Drive,Tonlegee Road,Cde Srn an Mhuilinn,False,ITM,721557.0,739452.0,-6.172447989,53.39122026,BCT,MKD,OTH,E,822G000448,822,,E0822044,,Dublin City,Dublin,02063,Grange E
8220DB001003,1003.0,St John's Church,St John's Church,Tonlegee Road,Séipéal N Eoin,False,ITM,720326.0,739321.0,-6.190995227999999,53.39032535,BCT,MKD,OTH,E,822G000449,822,,E0822044,,Dublin City,Dublin,02008,Ayrfield
8220DB001019,1019.0,Military Road,Military Road,Lower Rathmines Road,An Bóthar Míleata,False,ITM,715578.0,732103.0,-6.264977117000001,53.32654760000001,BCT,MKD,OTH,N,822G000450,822,opp,E0822015,,Dublin City,Dublin,02138,Rathmines West A
8220DB001020,1020.0,Rathmines,Rathmines,Lower Rathmines Road,Ráth Maonais,False,ITM,715573.0,731946.0,-6.265109364,53.32513839,BCT,MKD,OTH,S,822G000451,822,,E0822015,,Dublin City,Dublin,02139,Rathmines West B
8220DB001021,1021.0,Rathmines Rd Upper,Rathmines Rd Upper,Upper Rathmines Road,Br Ráth Maonais Uach,False,ITM,715547.0,731527.0,-6.265652126,53.32138025,BCT,MKD,OTH,S,822G000452,822,opp,E0822015,,Dublin City,Dublin,02140,Rathmines West C
8220DB001017,1017.0,Rathmines Rd Lower,Rathmines Rd Lower,Lower Rathmines Road,Br Ráth Maonais Íoch,False,ITM,715604.0,732410.0,-6.264475065,53.32929965,BCT,MKD,OTH,N,822G000453,822,opp,E0822015,,Dublin City,Dublin,02138,Rathmines West A
8220DB001013,1013.0,Earlsfort Terrace,Earlsfort Terrace,Earlsfort Terrace,Ardán Phort an Iarla,False,ITM,716048.0,733109.0,-6.25755688,53.33548151,BCT,MKD,OTH,S,822G000454,822,,E0822091,,Dublin City,Dublin,02146,St. Kevin's
8220DB001015,1015.0,Adelaide Road,Adelaide Road,Adelaide Road,Bóthar Adelaide,False,ITM,715895.0,732799.0,-6.259966355,53.33273036,BCT,MKD,OTH,W,822G000455,822,opp,E0822091,,Dublin City,Dublin,02146,St. Kevin's
8220DB002412,2412.0,Lavarna,Lavarna,Fortfield Road,Leathbhearna,False,ITM,713165.0,730307.0,-6.301823462000001,53.31093522,BCT,MKD,OTH,NE,822G000456,822,opp,E0822010,,South Dublin,Dublin,03042,Templeogue-Kimmage Manor
8220DB007046,7046.0,Ashtown Village,,Ashtown Village,,False,ITM,710950.0,737553.0,-6.332508399,53.37649538,BCT,MKD,OTH,W,822G000458,822,,E0822001,,Dublin City,Dublin,02006,Ashtown A
8220DB006361,6361.0,Jamestown Road,Jamestown Road,Jamestown Road,Br Bhaile Shéamais,False,ITM,713580.0,740894.0,-6.291799117999999,53.40594861,BCT,MKD,OTH,S,822G000475,822,,E0822012,,Dublin City,Dublin,02015,Ballymun A
8220DB006276,6276.0,Seagrave Terrace,Seagrave Terrace,Jamestown Road,Ardán Seagrave,False,ITM,713571.0,740910.0,-6.29192865,53.40609427,BCT,MKD,OTH,S,822G000475,822,,E0822012,,Fingal,Dublin,04020,Dubber
8220DB007149,7149.0,IKEA,IKEA,IKEA entrance,IKEA,False,ITM,714494.0,741066.0,-6.277997272,53.40729627,BCT,MKD,OTH,S,822G000480,822,nr,E0822047,,Fingal,Dublin,04020,Dubber
8220DB007151,7151.0,IKEA,,St. Margaret's Road,,False,ITM,714780.0,740959.0,-6.27373686,53.40627302,BCT,MKD,OTH,W,822G000481,822,nr,E0822047,,Fingal,Dublin,04020,Dubber
8220DB007150,7150.0,IKEA,,St. Margaret's Road,,False,ITM,714643.0,740971.0,-6.275791923,53.40641057,BCT,MKD,OTH,E,822G000481,822,nr,E0822047,,Fingal,Dublin,04020,Dubber
8220DB007464,7464.0,Junction Edenmore Avenue,,,,False,ITM,720849.0,739203.0,-6.183181815,53.38914607,BCT,MKD,OTH,,822G000514,822,,E0822044,,Dublin City,Dublin,02050,Edenmore
8220DB007463,7463.0,Stop No. 7463,,,,False,ITM,720808.0,739245.0,-6.183781797999999,53.3895327,BCT,MKD,OTH,,822G000514,822,,E0822044,,Dublin City,Dublin,02050,Edenmore
8220DB001807,1807.0,Phoenix Park Avenue,Phoenix Park Avenue,Navan Road,Páirc an Fhionnuisce,False,ITM,710506.0,737311.0,-6.339262883,53.37441447,BCT,MKD,OTH,NW,822G000558,822,,E0822001,,Fingal,Dublin,04017,Castleknock-Park
8220DB001847,1847.0,Old Racecourse,Old Racecourse,Navan Road,Sean Ráschúrsa,False,ITM,710457.0,737367.0,-6.339979374,53.37492776,BCT,MKD,OTH,SE,822G000558,822,opp,E0822001,,Fingal,Dublin,04017,Castleknock-Park
8220DB001668,1668.0,Old Race Course,Old Race Course,Castleknock Road,Sean-Ráschúrsa,False,ITM,710446.0,736912.0,-6.34030355,53.37084274,BCT,MKD,OTH,W,822G000569,822,opp,E0822001,,Fingal,Dublin,04017,Castleknock-Park
8220DB001694,1694.0,Old Race Course,Old Race Course,Castleknock Road,Sean-Ráschúrsa,False,ITM,710470.0,736932.0,-6.339936076,53.37101739,BCT,MKD,OTH,E,822G000569,822,,E0822001,,Fingal,Dublin,04017,Castleknock-Park
8220DB001667,1667.0,Castleknock Road,Castleknock Road,Castleknock Road,Br Chaisleán Cnucha,False,ITM,710832.0,736924.0,-6.334501519,53.37086977,BCT,MKD,OTH,W,822G000570,822,,E0822001,,Dublin City,Dublin,02079,Phoenix Park
8220DB001695,1695.0,Ashtown Gate,Ashtown Gate,Castleknock Road,Gta Bhaile an Ásaigh,False,ITM,710848.0,736940.0,-6.334255586,53.37101015,BCT,MKD,OTH,E,822G000570,822,opp,E0822001,,Fingal,Dublin,04017,Castleknock-Park
8220DB007113,7113.0,Northwood Avenue,Northwood Avenue,Ballymun Road,Ascaill Northwood,False,ITM,715376.0,740558.0,-6.2649242639999985,53.40254107,BCT,MKD,OTH,S,822G000631,822,,E0822047,,Fingal,Dublin,04020,Dubber
8220DB000321,321.0,Ballymun Road,,Ballymun Road,,False,ITM,715345.0,740524.0,-6.265402646,53.40224243,BCT,MKD,OTH,N,822G000631,822,,E0822047,,Fingal,Dublin,04020,Dubber
8220DB006362,6362.0,Mayeston Lawn,Mayeston Lawn,St. Margaret's Road,Plásóg Mayestown,False,ITM,713728.0,740959.0,-6.2895509139999985,53.40650064,BCT,MKD,OTH,E,822G000670,822,,E0822012,,Fingal,Dublin,04020,Dubber
8220DB001579,1579.0,Cappagh Hospital,Cappagh Hospital,Cappagh Road,Ospidéal Cheapaí,False,ITM,711489.0,739461.0,-6.323738176,53.39352158,BCT,MKD,OTH,NW,822G000740,822,,E0822024,,Fingal,Dublin,04008,Blanchardstown-Abbotstown
8220DB001582,1582.0,Cappagh Road,Cappagh Road,Cappagh Road,Bóthar Cheapaí,False,ITM,711603.0,739380.0,-6.3220535920000005,53.39276989,BCT,MKD,OTH,SE,822G000740,822,opp,E0822024,,Fingal,Dublin,04041,The Ward
8220DB001561,1561.0,Hospital,,Cappagh Hospital,,False,ITM,711304.0,739488.0,-6.326508874,53.39380313,BCT,MKD,OTH,SE,822G000743,822,Entrance,E0822024,,Fingal,Dublin,04008,Blanchardstown-Abbotstown
8220DB001012,1012.0,Naomh Barróg GAA,Naomh Barróg GAA,Kilbarrack Parade,CLG Naomh Barróg,False,ITM,722877.0,739383.0,-6.1526405089999985,53.39029516,BCT,MKD,OTH,NE,822G000749,822,,E0822043,,Fingal,Dublin,04035,Sutton
8220DB007275,7275.0,Entrance to IKEA,,Entrance to IKEA,,False,ITM,715108.0,740909.0,-6.268824525,53.40575249,BCT,MKD,OTH,E,822G000997,822,,E0822047,,Fingal,Dublin,04020,Dubber
8220DB007274,7274.0,Entrance to IKEA,,Entrance to IKEA,,False,ITM,715080.0,740926.0,-6.269239223,53.4059113,BCT,MKD,OTH,NW,822G000997,822,,E0822047,,Fingal,Dublin,04020,Dubber
8220DB007277,7277.0,St Margaret's Road,St Margaret's Road,St. Margaret's Road,Bóthar San Maighréad,False,ITM,714337.0,740918.0,-6.280411029,53.40600083,BCT,MKD,OTH,E,822G000998,822,nr,E0822047,,Fingal,Dublin,04020,Dubber
8220DB007276,7276.0,IKEA,IKEA,St. Margaret's Road,IKEA,False,ITM,714308.0,740929.0,-6.280842979,53.40610592,BCT,MKD,OTH,E,822G000998,822,nr,E0822047,,Fingal,Dublin,04020,Dubber
8220DB007213,7213.0,house number 179,,St. Margarets Road,,False,ITM,714040.0,740933.0,-6.284870187999999,53.4061998,BCT,MKD,OTH,E,822G001003,822,At,E0822012,,Fingal,Dublin,04020,Dubber
8220DB005150,5150.0,Whitehall Rd West,Whitehall Rd West,Whitehall Road West,An Halla Bháin Thiar,False,ITM,712117.0,730799.0,-6.317368653,53.31557769,BCT,MKD,OTH,NE,822G001433,822,,E0822004,,South Dublin,Dublin,03047,Terenure-Cherryfield
8220DB006163,6163.0,Greentrees Park,Greentrees Park,Whitehall Road,Páirc na gCrann Glas,False,ITM,711909.0,730122.0,-6.320727561,53.30954009,BCT,MKD,OTH,S,822G001465,822,opp,E0822004,,South Dublin,Dublin,03048,Terenure-Greentrees
8220DB000956,956.0,Naomh Barróg GAA,Naomh Barróg GAA,Kilbarrack Parade,CLG Naomh Barróg,False,ITM,722861.0,739331.0,-6.152901145,53.3898318,BCT,MKD,OTH,SW,822G001497,822,,E0822043,,Fingal,Dublin,04035,Sutton
8220DB005001,5001.0,N2 Finglas,,North Park Business,,False,ITM,712201.0,740285.0,-6.312745343,53.4007728,BCT,MKD,OTH,NE,822G001541,822,nr,E0822024,,Fingal,Dublin,04041,The Ward
8220DB005000,5000.0,N2 Finglas,,North Park Business,,False,ITM,712208.0,740259.0,-6.312649371,53.40053775,BCT,MKD,OTH,SW,822G001541,822,nr,E0822024,,Dublin City,Dublin,02051,Finglas North A
8220DB004985,4985.0,Lanesborough Estate,Lanesborough Estate,Jamestown Road,Eas Bhéal Átha Liag,False,ITM,713615.0,740491.0,-6.291418069,53.40232099,BCT,MKD,OTH,S,822G001559,822,opp,E0822012,,Dublin City,Dublin,02015,Ballymun A
8220DB004364,4364.0,Mater Christi Sch,Mater Christi Sch,Cappagh Road,Scoil Mater Christi,False,ITM,711610.0,739366.0,-6.321953345,53.39264265,BCT,MKD,OTH,NW,822G001571,822,,E0822024,,Fingal,Dublin,04008,Blanchardstown-Abbotstown
8220DB000322,322.0,Gulliver's Retail Pk,Gulliver's Retail Pk,Ballymun Road,PM Gulliver,False,ITM,715343.0,740748.0,-6.265350845,53.404255000000006,BCT,MKD,OTH,S,822G001656,822,opp,E0822047,,Fingal,Dublin,04020,Dubber
8220DB004793,4793.0,Avila Park,Avila Park,Cappagh Road,Páirc Avila,False,ITM,711672.0,739334.0,-6.321032934,53.39234209,BCT,MKD,OTH,SE,822G001691,822,opp,E0822024,,Dublin City,Dublin,02051,Finglas North A
8220DB002453,2453.0,Limekiln Grove,Limekiln Grove,St. Peter's Road,Garran na Tiníleach,False,ITM,711242.0,730695.0,-6.330530822999999,53.31482788,BCT,MKD,OTH,SE,822G001798,822,,E0822004,,South Dublin,Dublin,03047,Terenure-Cherryfield
8220DB002452,2452.0,St Peter's Road,St Peter's Road,St. Peter's Road,Bóthar Pheadair,False,ITM,711130.0,730844.0,-6.332158697000001,53.31618988,BCT,MKD,OTH,SE,822G001803,822,,E0822004,,South Dublin,Dublin,03047,Terenure-Cherryfield
8220DB002463,2463.0,St Peter's Road,St Peter's Road,St. Peter's Road,Bóthar Pheadair,False,ITM,711197.0,730747.0,-6.331187624,53.31530445,BCT,MKD,OTH,SE,822G001803,822,,E0822004,,South Dublin,Dublin,03047,Terenure-Cherryfield
8220DB002436,2436.0,Lorcan O'Toole Park,Lorcan O'Toole Park,Kimmage Road West,Pc Lorc Uí Thuathail,False,ITM,712683.0,730604.0,-6.308947527000001,53.31370591,BCT,MKD,OTH,E,822G001874,822,,E0822010,,Dublin City,Dublin,02115,Kimmage E
8220DB002414,2414.0,Westbrook,Westbrook,Kimmage Road West,Sruthán Thiar,False,ITM,712573.0,730632.0,-6.3105875939999985,53.31398082,BCT,MKD,OTH,NW,822G001874,822,,E0822010,,South Dublin,Dublin,03048,Terenure-Greentrees
8220DB002415,2415.0,Royston Village,Royston Village,Kimmage Road West,Sráidbhaile Royston,False,ITM,712375.0,730737.0,-6.313520432000001,53.31496607,BCT,MKD,OTH,NW,822G001875,822,opp,E0822004,,South Dublin,Dublin,03048,Terenure-Greentrees
8220DB002435,2435.0,Westbrook,Westbrook,Kimmage Road West,Sruthán Thiar,False,ITM,712527.0,730663.0,-6.311266606,53.31426907,BCT,MKD,OTH,SE,822G001879,822,opp,E0822009,,South Dublin,Dublin,03048,Terenure-Greentrees
8220DB002434,2434.0,Kimmage Road West,Kimmage Road West,Kimmage Road West,Bóthar Chamaí Thiar,False,ITM,712203.0,730851.0,-6.316060201,53.31602660000001,BCT,MKD,OTH,SE,822G001881,822,,E0822009,,Dublin City,Dublin,02115,Kimmage E
8220DB002197,2197.0,Lucan Road,Lucan Road,Lucan Road,Bóthar Leamhcáin,False,ITM,710076.0,734379.0,-6.346742215,53.34816556,BCT,MKD,OTH,NW,822G001935,822,,E0822005,,Dublin City,Dublin,02094,Chapelizod
8220TR000115,,The Station House Pub,,Howth Road,,False,ITM,721429.0,738232.0,-6.174840225,53.38029128,TXR,,,,822G001936,822,Opp,E0822042,,Dublin City,Dublin,02087,Raheny-St. Assam
8220TR000112,,Bank Of Ireland,,Coolock Village,,False,ITM,719702.0,739226.0,-6.20040748,53.38961375,TXR,,,,822G001937,822,Opp,E0822035,,Dublin City,Dublin,02072,Kilmore D
8220TR000111,,Our Lady Of Consolation Church,,Collins Avenue East,,False,ITM,718553.0,737591.0,-6.218285655,53.37518637,TXR,,,,822G001938,822,At,E0822033,,Dublin City,Dublin,02043,Clontarf West B
8220TR000109,,Dublin Bus Stop,,Marino Crescent,,False,ITM,717865.0,736397.0,-6.229065075,53.36461499,TXR,,,,822G001939,822,By,E0822038,,Dublin City,Dublin,02044,Clontarf West C
8220TR000110,,Dublin Bus Stop,,Marino Crescent,,False,ITM,717858.0,736388.0,-6.229173548,53.36453571,TXR,,,,822G001939,822,At,E0822038,,Dublin City,Dublin,02045,Clontarf West D
8220PB003779,,Merrion Street Dublin,,,,False,ITM,716360.0,733511.0,-6.2527270060000015,53.3390241,BCT,MKD,OTH,SW,822G001941,822,o/s,E0822091,,Dublin City,Dublin,02118,Mansion House B
8220PB003774,,Nassau St,Nassau St,,Sráid Nassau,False,ITM,716075.0,733923.0,-6.25685346,53.34278757,BCT,MKD,OTH,SE,822G001942,822,o/s,E0822090,,Dublin City,Dublin,02117,Mansion House A
8220B1352901,135291.0,Nassau Street,Nassau Street,,Sráid Nassau,False,ITM,716124.0,733899.0,-6.256126779,53.34256123,BCT,MKD,OTH,,822G001942,822,,E0822090,,Dublin City,Dublin,02118,Mansion House B
8220TR000323,,Insomnia Cafe,,Dawson Street,,False,ITM,715987.0,733806.0,-6.258217164,53.34175588,TXR,,,,822G001946,822,At,E0822091,,Dublin City,Dublin,02118,Mansion House B
8220TR000322,,The Molly Malone,,Grafton Street,,False,ITM,715913.0,733991.0,-6.259260165,53.3434339,TXR,,,,822G001947,822,By,E0822090,,Dublin City,Dublin,02117,Mansion House A
8220TR000321,,The Westbury Hotel,,Balfe Street,,False,ITM,715780.0,733756.0,-6.261342397999999,53.34135206,TXR,,,,822G001948,822,At,E0822091,,Dublin City,Dublin,02145,Royal Exchange B
8220TR000320,,Saint Stephens Green Shopping Centre,,Saint Stephens Green,,False,ITM,715857.0,733581.0,-6.26025068,53.33976322,TXR,,,,822G001949,822,By,E0822066,,Dublin City,Dublin,02118,Mansion House B
8220TR000319,,Il Posto Restaurant,,Saint Stephens Green,,False,ITM,715920.0,733572.0,-6.259308421,53.33966858,TXR,,,,822G001950,822,At,E0822066,,Dublin City,Dublin,02118,Mansion House B
8220TR000311,,The Lombard Pub,,Pearse Street,,False,ITM,716595.0,734026.0,-6.249010478,53.3435985,TXR,,,,822G001951,822,Opp,E0822086,,Dublin City,Dublin,02117,Mansion House A
8220TR000303,,Cardiffsbridge Road,Cardiffsbridge Road,Cardiffsbridge Road,Br Dhr Chairdif,False,ITM,712243.0,738571.0,-6.31272325,53.38536709,TXR,,,,822G001952,822,At,E0822024,,Dublin City,Dublin,02054,Finglas South A
8220TR000302,,Connolly Lowe Accountants Building,,Chancery Place,,False,ITM,715045.0,734231.0,-6.272201779,53.34577917,TXR,,,,822G001953,822,At,E0822060,,Dublin City,Dublin,02068,Inns Quay C
8220TR000301,,Jurys Inn,,Christchurch Place,,False,ITM,715166.0,733934.0,-6.270493447000001,53.34308495,TXR,,,,822G001954,822,At,E0822091,,Dublin City,Dublin,02161,Wood Quay A
8220TR000300,,Daly's Pharmacy,,Cabra Road,,False,ITM,714155.0,735926.0,-6.284950364,53.36119789,TXR,,,,822G001955,822,At,E0822058,,Dublin City,Dublin,02031,Cabra East B
8220TR000299,,The Cabra Grand Casino,,Quarry Road,,False,ITM,713828.0,736117.0,-6.289792049,53.36298409,TXR,,,,822G001956,822,At,E0822058,,Dublin City,Dublin,02031,Cabra East B
8220PB002219,,Donnybrook,Donnybrook,Donnybrook Road,Domhnach Broc,False,ITM,717405.0,731718.0,-6.237707385,53.32268739,BCT,MKD,OTH,SE,822G001957,822,Nr,E0822030,,Dublin City,Dublin,02131,Pembroke West B
8220TR000057,,Tesco Supermarket,,Ballyfermot Road,,False,ITM,709722.0,733642.0,-6.352311938,53.34161845,TXR,,,,822G001964,822,At,E0822002,,Dublin City,Dublin,02116,Kylemore
8220TR000056,,Tesco Supermarket,,Ballyfermot Road,,False,ITM,709707.0,733675.0,-6.3525256610000005,53.34191801,TXR,,,,822G001964,822,At,E0822002,,Dublin City,Dublin,02116,Kylemore
8220DB001074,1074.0,Charlotte Way,Charlotte Way,,Bealach Charlotte,False,ITM,715625.0,732911.0,-6.2639772,53.33379546,BCT,MKD,OTH,E,822G001965,822,opp,E0822076,,Dublin City,Dublin,02146,St. Kevin's
8220PB003834,,Sarsfield Quay Dublin,,Sarsfield Quay,,False,ITM,714190.0,734355.0,-6.284991517000001,53.34707822,BCT,MKD,OTH,E,822G001966,822,Nr,E0822084,,Dublin City,Dublin,02003,Arran Quay C
8220DB005034,5034.0,Mansion House,Mansion House,,Teach an Ard-Mhéara,False,ITM,715964.0,733648.0,-6.258620219,53.34034164,BCT,MKD,OTH,N,822G001968,822,,E0822091,,Dublin City,Dublin,02118,Mansion House B
8220TR000310,,The Gingerman Pub,,Fenian Street,,False,ITM,716554.0,733811.0,-6.2497050000000005,53.34167624,TXR,,,,822G001971,822,Opp,E0822065,,Dublin City,Dublin,02117,Mansion House A
8220TR000309,,Alexander Hotel,,Fenian Street,,False,ITM,716597.0,733801.0,-6.249063279,53.34157694,TXR,,,,822G001972,822,At,E0822088,,Dublin City,Dublin,02117,Mansion House A
8220TR000308,,Il Segreto Bistro,,Merrion Row,,False,ITM,716262.0,733435.0,-6.254225722999999,53.33836294,TXR,,,,822G001973,822,Opp,E0822091,,Dublin City,Dublin,02118,Mansion House B
8220TR000344,,Custom House Plaza,,Sheriff Street Lower,,False,ITM,716616.0,734934.0,-6.248360882999999,53.35175018,TXR,,,,822G001974,822,At,E0822081,,Dublin City,Dublin,02078,North Dock C
8220TR000341,,Jacobs Inn,,Talbot Place,,False,ITM,716306.0,734775.0,-6.253073295,53.35039016,TXR,,,,822G001975,822,At,E0822013,,Dublin City,Dublin,02073,Mountjoy A
8220TR000342,,Jacobs Inn,,Talbot Place,,False,ITM,716407.0,734745.0,-6.251568069,53.35009847,TXR,,,,822G001975,822,By,E0822013,,Dublin City,Dublin,02073,Mountjoy A
8220TR000340,,Molloy's Pub,,Talbot Place,,False,ITM,716410.0,734846.0,-6.251485897,53.35100506,TXR,,,,822G001976,822,At,E0822013,,Dublin City,Dublin,02073,Mountjoy A
8220TR000339,,Paddy Power Bookmaker,,Talbot Street,,False,ITM,716356.0,734865.0,-6.252289597000001,53.35118761,TXR,,,,822G001977,822,Opp,E0822013,,Dublin City,Dublin,02073,Mountjoy A
8220TR000345,,The North Star Hotel,,Sheriff Street Lower,,False,ITM,716541.0,734928.0,-6.249489057999999,53.35171281,TXR,,,,822G001978,822,Opp,E0822081,,Dublin City,Dublin,02078,North Dock C
8220DB000339,339.0,Burgh Quay,Burgh Quay,Burgh Quay,Cé an Bhúrcaigh,False,ITM,716058.0,734420.0,-6.256926503,53.34725573,BCT,MKD,OTH,W,822G001985,822,,E0822091,,Dublin City,Dublin,02117,Mansion House A
8220TR000351,,Insomnia Cafe,,Mayor Street Lower,,False,ITM,716843.0,734671.0,-6.245050022999999,53.34933765,TXR,,,,822G001986,822,At,E0822073,,Dublin City,Dublin,02078,North Dock C
8220TR000350,,No Obvious Landmark,,Commons Street,,False,ITM,716785.0,734704.0,-6.245908547999999,53.34964688,TXR,,,,822G001987,822,At,E0822073,,Dublin City,Dublin,02078,North Dock C
8220TR000349,,Llyods Pub,,Amiens Street,,False,ITM,716557.0,735021.0,-6.249214611,53.35254468,TXR,,,,822G001988,822,At,E0822081,,Dublin City,Dublin,02073,Mountjoy A
8220TR000338,,Guinness Storehouse,,Bellevue,,False,ITM,714194.0,733739.0,-6.285153567,53.34154389,TXR,,,,822G001989,822,At,E0822096,,Dublin City,Dublin,02154,Ushers C
8220TR000330,,The Burlington Hotel,,Sussex Road,,False,ITM,716601.0,732511.0,-6.249477905,53.32998832,TXR,,,,822G001990,822,At,E0822091,,Dublin City,Dublin,02132,Pembroke West C
8220TR000331,,The Burlington Hotel,,Sussex Road,,False,ITM,716565.0,732536.0,-6.250008901,53.33022081,TXR,,,,822G001990,822,By,E0822091,,Dublin City,Dublin,02132,Pembroke West C
8220TR000329,,No Obvious Landmark,,Grand Canal Street Lower,,False,ITM,717174.0,733559.0,-6.240492447,53.33927571,TXR,,,,822G001991,822,At,E0822088,,Dublin City,Dublin,02147,South Dock
8220TR000328,,The Mespil Hotel,,Mespil Road,,False,ITM,716760.0,732903.0,-6.246947672999999,53.33347452,TXR,,,,822G001992,822,At,E0822091,,Dublin City,Dublin,02132,Pembroke West C
8220TR000327,,Conrad Hotel,,Earlsfort Terrace,,False,ITM,716033.0,733076.0,-6.257794072,53.33518836,TXR,,,,822G001993,822,By,E0822091,,Dublin City,Dublin,02146,St. Kevin's
8220TR000326,,Post Office,,Saint Andrew Street,,False,ITM,715783.0,734021.0,-6.2612005060000016,53.34373184,TXR,,,,822G001994,822,At,E0822091,,Dublin City,Dublin,02144,Royal Exchange A
8220TR000325,,Dublin Citi Hotel,,Dame Street,,False,ITM,715631.0,734079.0,-6.263460879,53.34428607,TXR,,,,822G001995,822,At,E0822089,,Dublin City,Dublin,02144,Royal Exchange A
8220PB002150,,Hapenny Bridge,Hapenny Bridge,,Droichead na Life,False,ITM,715699.0,734285.0,-6.262364919,53.34612167,BCT,MKD,OTH,SW,822G001996,822,Nr,E0822089,,Dublin City,Dublin,02144,Royal Exchange A
8220PB002078,,Dublin Zoo,,Chesterfield Avenue,,False,ITM,712778.0,734853.0,-6.306010603,53.35185455,BCT,CUS,OTH,SE,822G001997,822,o/s,E0822059,,Dublin City,Dublin,02079,Phoenix Park
8220DB002504,2504.0,Sheriff St Upper,Sheriff St Upper,Upper Sherriff Street,Sd an tSirriam Uacht,False,ITM,718003.0,734748.0,-6.227607537000001,53.34977190000001,BCT,MKD,OTH,E,822G002000,822,,E0822073,,Dublin City,Dublin,02077,North Dock B
8220TR000352,,Clongriffin Train Station Park And Ride,,Station Way,,False,ITM,722965.0,740793.0,-6.15076913,53.40293954,TXR,,,,822G002001,822,At,E0822078,,Dublin City,Dublin,02060,Grange B
8220TR000337,,Lidl Supermarket,,Thomas Street,,False,ITM,714490.0,733915.0,-6.280647126,53.34306093,TXR,,,,822G002004,822,On,E0822095,,Dublin City,Dublin,02120,Merchants Quay B
8220TR000336,,Smithfield Luas Stop,,Smithfield,,False,ITM,714627.0,734346.0,-6.278434756,53.3469029,TXR,,,,822G002005,822,By,E0822060,,Dublin City,Dublin,02003,Arran Quay C
8220DB001942,1942.0,St James Hospital,St James Hospital,James Street,Ospidéal San Séamas,False,ITM,713561.0,733803.0,-6.294631729,53.34225499,BCT,MKD,OTH,NE,822G002006,822,,E0822018,,Dublin City,Dublin,02152,Ushers A
8220TR000334,,Eircom Building,,Saint John's Road West,,False,ITM,713402.0,734202.0,-6.296875449,53.34587328,TXR,,,,822G002007,822,Opp,E0822085,,Dublin City,Dublin,02152,Ushers A
8220TR000332,,Boots Pharmacy,,Upper Baggot Street,,False,ITM,716990.0,732890.0,-6.243500994,53.33330697,TXR,,,,822G002008,822,At,E0822091,,Dublin City,Dublin,02132,Pembroke West C
8220TR000089,,Bermingham Camera Store,,Burgh Quay,,False,ITM,716020.0,734432.0,-6.2574925389999985,53.34737186,TXR,,,,822G002009,822,By,E0822091,,Dublin City,Dublin,02117,Mansion House A
8220TR000087,,Clifton Court Hotel,,Eden Quay,,False,ITM,716001.0,734495.0,-6.257754677,53.34794194,TXR,,,,822G002010,822,At,E0822013,,Dublin City,Dublin,02075,North City
8220TR000085,,Clerys Store,,Sackville Place,,False,ITM,715890.0,734596.0,-6.259384002999999,53.34887352,TXR,,,,822G002011,822,At,E0822013,,Dublin City,Dublin,02075,North City
8220TR000084,,Tourist Office,,Bachelors Walk,,False,ITM,715865.0,734441.0,-6.259816017,53.34748666,TXR,,,,822G002012,822,At,E0822013,,Dublin City,Dublin,02075,North City
8220TR000090,,Q Bar,,D'Olier Street,,False,ITM,715992.0,734386.0,-6.257929707000001,53.34696479,TXR,,,,822G002013,822,By,E0822091,,Dublin City,Dublin,02117,Mansion House A
8220DB000987,987.0,Finglas,Finglas,Finglas Village,Fionnghlas,False,ITM,713121.0,739139.0,-6.299327797999999,53.39028217,BCT,MKD,OTH,E,822G002015,822,,E0822024,,Dublin City,Dublin,02053,Finglas North C
8220DB001079,1079.0,Frankfort Avenue,Frankfort Avenue,Rathgar Road,Ascaill Frankfort,False,ITM,715220.0,730993.0,-6.270751874,53.31665463,BCT,MKD,OTH,SW,822G002019,822,,E0822014,,Dublin City,Dublin,02141,Rathmines West D
8220PB002163,,Rathgar Road,Rathgar Road,Rathgar Road,Bóthar Ráth Garbh,False,ITM,715217.0,730994.0,-6.270796513,53.31666426,BCT,MKD,OTH,SW,822G002019,822,Nr,E0822014,,Dublin City,Dublin,02141,Rathmines West D
8220TR000098,,Ranelagh Take Away,,Cullenswood Road,,False,ITM,716226.0,731965.0,-6.255305046,53.32516616,TXR,,,,822G002021,822,At,E0822020,,Dublin City,Dublin,02137,Rathmines East D
8220TR000097,,Gunne Estate Agents,,Cullenswood Road,,False,ITM,716227.0,731950.0,-6.2552955410000015,53.32503120000001,TXR,,,,822G002022,822,At,E0822020,,Dublin City,Dublin,02137,Rathmines East D
8220TR000095,,Tesco Supermarket,,Rathmines Road Upper,,False,ITM,715531.0,731539.0,-6.265887792000001,53.32149153,TXR,,,,822G002023,822,At,E0822015,,Dublin City,Dublin,02141,Rathmines West D
8220TR000094,,Tesco Supermarket,,Ratmines Road Upper,,False,ITM,715537.0,731508.0,-6.2658090710000005,53.32121176,TXR,,,,822G002023,822,At,E0822015,,Dublin City,Dublin,02141,Rathmines West D
8220TR000091,,The Westin Hotel,,Westmoreland Street,,False,ITM,715922.0,734244.0,-6.259032475,53.34570457,TXR,,,,822G002024,822,At,E0822091,,Dublin City,Dublin,02117,Mansion House A
8220TR000083,,O Connell Bridge,,,,False,ITM,715893.0,734417.0,-6.259404479,53.34726494,TXR,,,,822G002025,822,On,E0822013,,Dublin City,Dublin,02075,North City
8220TR000073,,Superquinn Sundrive Centre,,Sundrive Road,,False,ITM,713853.0,731322.0,-6.2911399810000015,53.31990556,TXR,,,,822G002026,822,Opp,E0822010,,Dublin City,Dublin,02113,Kimmage C
8220TR000065,,Tesco Express Supermarket,,Saint Agnes Road,,False,ITM,712198.0,731334.0,-6.315964372000001,53.32036649,TXR,,,,822G002027,822,Opp,E0822009,,Dublin City,Dublin,02111,Kimmage A
8220TR000064,,Blackforce Inn,,Drimnagh Road,,False,ITM,711487.0,731743.0,-6.326487341,53.32419071,TXR,,,,822G002028,822,At,E0822004,,Dublin City,Dublin,02159,Walkinstown B
8220TR000063,,Our Ladys Hospital,,Drimnagh Road,,False,ITM,712122.0,731918.0,-6.316898078,53.3256287,TXR,,,,822G002029,822,By,E0822008,,Dublin City,Dublin,02103,Crumlin F
8220TR000061,,Shay's Village Barber,,Tyrconnell Street,,False,ITM,711797.0,733425.0,-6.321242905,53.33923492,TXR,,,,822G002030,822,At,E0822006,,Dublin City,Dublin,02106,Inchicore A
8220TR000074,,Bottle Recycling Bank,,Terrenure Road North,,False,ITM,714436.0,730463.0,-6.282703665,53.31206360000001,TXR,,,,822G002031,822,At,E0822011,,Dublin City,Dublin,02149,Terenure B
8220TR000082,,Pop Noodle Restaurant,,Aston Quay,,False,ITM,715836.0,734353.0,-6.260283539,53.34670253,TXR,,,,822G002032,822,Opp,E0822091,,Dublin City,Dublin,02144,Royal Exchange A
8220TR000081,,Dublin Barber,,Aston Quay,,False,ITM,715764.0,734324.0,-6.261374947,53.34645778,TXR,,,,822G002033,822,Opp,E0822089,,Dublin City,Dublin,02144,Royal Exchange A
8220TR000080,,Ibat College Dublin,,Wellington Quay,,False,ITM,715469.0,734217.0,-6.26584225,53.34556107,TXR,,,,822G002034,822,At,E0822089,,Dublin City,Dublin,02144,Royal Exchange A
8220TR000079,,Wax Museum,,Foster Place,,False,ITM,715782.0,734154.0,-6.261166897000001,53.34492677,TXR,,,,822G002035,822,At,E0822091,,Dublin City,Dublin,02144,Royal Exchange A
8220TR000078,,Taxi Rank,,,,False,ITM,715797.0,734107.0,-6.260958922,53.34450129999999,TXR,,,,822G002035,822,,E0822091,,Dublin City,Dublin,02144,Royal Exchange A
8220TR000077,,Bank Of Ireland,,College Green,,False,ITM,715856.0,734100.0,-6.260075868,53.3444255,TXR,,,,822G002036,822,Opp,E0822091,,Dublin City,Dublin,02144,Royal Exchange A
8220TR000289,,Fas Employment Services Building,,Parnell Street,,False,ITM,715477.0,734747.0,-6.265528885,53.35032021,TXR,,,,822G002037,822,At,E0822013,,Dublin City,Dublin,02075,North City
8220TR000288,,Pennys Store,,Parnell Street,,False,ITM,715383.0,734723.0,-6.266948809,53.35012513,TXR,,,,822G002038,822,At,E0822013,,Dublin City,Dublin,02075,North City
8220TR000287,,Dunnes Stores,,Barryscourt Road,,False,ITM,718937.0,739886.0,-6.211653721,53.39571493,TXR,,,,822G002039,822,At,E0822035,,Dublin City,Dublin,02071,Kilmore C
8220TR000120,,Supervalu Store,,Silloge Road,,False,ITM,715319.0,739750.0,-6.266076177,53.39529548,TXR,,,,822G002040,822,By,E0822047,,Dublin City,Dublin,02018,Ballymun D
8220TR000291,,Eccle Street Car Park,,Eccles Street,,False,ITM,715419.0,735624.0,-6.266079831,53.35821078,TXR,,,,822G002041,822,At,E0822056,,Dublin City,Dublin,02066,Inns Quay A
8220PB003754,,Parkgate Street Dublin,,Parkgate Street,,False,ITM,713661.0,734434.0,-6.2929042860000015,53.34790175,BCT,MKD,OTH,W,822G002043,822,Opp,E0822059,,Dublin City,Dublin,02079,Phoenix Park
8220DB001992,1992.0,Inchicore Library,Inchicore Library,Emmet Road,Llann Inse Chór,False,ITM,712601.0,733602.0,-6.309112777,53.34065450000001,BCT,MKD,OTH,E,822G002044,822,,E0822006,,Dublin City,Dublin,02110,Kilmainham C
8220DB001945,1945.0,Inchicore Library,Inchicore Library,Emmet Road,Llann Inse Chór,False,ITM,712563.0,733590.0,-6.3096874000000005,53.34055479,BCT,MKD,OTH,W,822G002044,822,,E0822006,,Dublin City,Dublin,02110,Kilmainham C
8220PB002170,,Emmett Road,Emmett Road,Emmett Road,Bóthar Emmett,False,ITM,712562.0,733589.0,-6.309702765,53.34054602,BCT,MKD,OTH,W,822G002044,822,o/s,E0822006,,Dublin City,Dublin,02110,Kilmainham C
8220TR000059,,Kestral House Pub,,Bunting Road,,False,ITM,711131.0,730982.0,-6.332095354,53.31742935,TXR,,,,822G002045,822,At,E0822004,,Dublin City,Dublin,02159,Walkinstown B
8220TR000317,,O'Callaghan Hotel,,Cuffe Street,,False,ITM,715653.0,733337.0,-6.263401539,53.33761602,TXR,,,,822G002046,822,At,E0822091,,Dublin City,Dublin,02145,Royal Exchange B
8220TR000316,,Copper Face Jacks Nite Club,,Harcourt Street,,False,ITM,715688.0,733324.0,-6.262881004,53.3374916,TXR,,,,822G002047,822,At,E0822066,,Dublin City,Dublin,02145,Royal Exchange B
8220TR000315,,Eddie Rocket's Restaurant,,Dame Street,,False,ITM,715416.0,734052.0,-6.266697953,53.34409046,TXR,,,,822G002048,822,Opp,E0822091,,Dublin City,Dublin,02144,Royal Exchange A
8220TR000314,,Ebs Building,,Baggot Street,,False,ITM,716413.0,733394.0,-6.251974548,53.33796146,TXR,,,,822G002049,822,At,E0822091,,Dublin City,Dublin,02118,Mansion House B
8220TR000313,,Government Buildings,,Merrion Street Upper,,False,ITM,716372.0,733514.0,-6.252545802999999,53.33904841,TXR,,,,822G002050,822,Opp,E0822091,,Dublin City,Dublin,02118,Mansion House B
8220TR000318,,Cafe En Seine Pub,,Dawson Street,,False,ITM,715952.0,733772.0,-6.25875494,53.34145813,TXR,,,,822G002051,822,At,E0822091,,Dublin City,Dublin,02118,Mansion House B
8220TR000324,,Therapie Clinic,,Molesworth Street,,False,ITM,716043.0,733764.0,-6.257392021,53.34136632,TXR,,,,822G002052,822,Opp,E0822091,,Dublin City,Dublin,02118,Mansion House B
8220TR000294,,Mater Private Hospital,,Eccles Street,,False,ITM,715197.0,735717.0,-6.269379376,53.35909457,TXR,,,,822G002053,822,At,E0822056,,Dublin City,Dublin,02067,Inns Quay B
8220TR000293,,Savoy Cinema,,O Connell Street,,False,ITM,715783.0,734856.0,-6.260895204,53.35123246,TXR,,,,822G002054,822,Opp,E0822013,,Dublin City,Dublin,02075,North City
8220TR000107,,Bewleys Hotel,,Simmonscourt Road,,False,ITM,718233.0,732137.0,-6.225129085,53.32626694,TXR,,,,822G002055,822,At,E0822029,,Dublin City,Dublin,02129,Pembroke East E
8220TR000102,,Greyhound Race Track,,South Lotts Road,,False,ITM,717748.0,733732.0,-6.2318133410000005,53.34070234,TXR,,,,822G002056,822,By,E0822026,,Dublin City,Dublin,02130,Pembroke West A
8220TR000101,,Ashmore Ryder Motor Body Repair Centre,,Fitzwilliam Quay,,False,ITM,717960.0,733830.0,-6.228594975,53.34153544,TXR,,,,822G002057,822,Opp,E0822026,,Dublin City,Dublin,02125,Pembroke East A
8220TR000100,,Aib Bank,,Main Street,,False,ITM,713176.0,738969.0,-6.298562232999999,53.3887433,TXR,,,,822G002058,822,Opp,E0822022,,Dublin City,Dublin,02011,Ballygall A
8220TR000099,,The Burlington Hotel,,Sussex Road,,False,ITM,716538.0,732559.0,-6.250405589,53.33043336,TXR,,,,822G002059,822,By,E0822091,,Dublin City,Dublin,02132,Pembroke West C
8220TR000116,,Clare Hall Shopping Centre,,Malahide Road,,False,ITM,720945.0,740537.0,-6.181228422,53.40110652,TXR,,,,822G002060,822,At,E0822094,,Dublin City,Dublin,02059,Grange A
8220TR000113,,A.B.F.R.C. Building,,Kilmore Road,,False,ITM,718656.0,738662.0,-6.21633642,53.38478354,TXR,,,,822G002064,822,At,E0822034,,Dublin City,Dublin,02022,Beaumont B
8220DB002432,2432.0,Beechfield Avenue,Beechfield Avenue,Cromwellsfort Road,Ascaill Ghort na Feá,False,ITM,711571.0,730946.0,-6.32550738,53.31701347,BCT,MKD,OTH,E,822G002065,822,,E0822004,,Dublin City,Dublin,02160,Walkinstown C
8220DB002418,2418.0,Bigger Road,Bigger Road,Cromwellsfort Road,Bóthar Bigger,False,ITM,711479.0,730939.0,-6.326889959,53.31696995,BCT,MKD,OTH,W,822G002065,822,,E0822004,,South Dublin,Dublin,03047,Terenure-Cherryfield
8220DB002444,2444.0,Mount Argus Road,Mount Argus Road,Lower Kimmage Road,Bóthar Chnocán Argos,False,ITM,714605.0,731829.0,-6.279675293,53.32429774,BCT,MKD,OTH,N,822G002066,822,,E0822016,,Dublin City,Dublin,02113,Kimmage C
8220DB002448,2448.0,Cashel Road,Cashel Road,Cashel Road,Bóthar Chaisil,False,ITM,712988.0,731228.0,-6.3041503,53.31924637,BCT,MKD,OTH,NW,822G002067,822,opp,E0822009,,Dublin City,Dublin,02115,Kimmage E
8220DB002449,2449.0,Armagh Road,Armagh Road,Armagh Road,Bóthar Ard Mhacha,False,ITM,712922.0,731420.0,-6.305072072000001,53.32098518,BCT,MKD,OTH,SW,822G002068,822,,E0822009,,Dublin City,Dublin,02112,Kimmage B
8220DB002450,2450.0,Saint Agnes School,Saint Agnes School,Armagh Road,Bunscoil San Aignéas,False,ITM,712751.0,731332.0,-6.307668789,53.3202311,BCT,MKD,OTH,SW,822G002069,822,,E0822009,,Dublin City,Dublin,02115,Kimmage E
8220DB002443,2443.0,Brookfield,Brookfield,Lower Kimmage Road,Gort an tSrutháin,False,ITM,714347.0,731555.0,-6.2836449960000005,53.32189218,BCT,MKD,OTH,NE,822G002070,822,opp,E0822010,,Dublin City,Dublin,02113,Kimmage C
8220DB002393,2393.0,Corrib Road,Corrib Road,Lower Kimmage Road,Bóthar Loch Coirib,False,ITM,713578.0,730792.0,-6.295455304,53.31520361,BCT,MKD,OTH,SW,822G002071,822,,E0822010,,Dublin City,Dublin,02149,Terenure B
8220DB002440,2440.0,Aideen Avenue,Aideen Avenue,Lower Kimmage Road,Ascaill Éadaoin,False,ITM,713650.0,730927.0,-6.294326915,53.31640088,BCT,MKD,OTH,NE,822G002071,822,,E0822010,,Dublin City,Dublin,02114,Kimmage D
8220DB002441,2441.0,Kimmage Grove,Kimmage Grove,Lower Kimmage Road,Garrán Chamaí,False,ITM,713853.0,731228.0,-6.291173721,53.31906116,BCT,MKD,OTH,NE,822G002072,822,,E0822010,,Dublin City,Dublin,02114,Kimmage D
8220DB002392,2392.0,Kimmage Grove,Kimmage Grove,Lower Kimmage Road,Garrán Chamaí,False,ITM,713849.0,731209.0,-6.291240547999999,53.31889135,BCT,MKD,OTH,SW,822G002072,822,,E0822010,,Dublin City,Dublin,02114,Kimmage D
8220DB002442,2442.0,Mount Argus Church,Mount Argus Church,Lower Kimmage Road,Séip Chnocán Argos,False,ITM,714192.0,731391.0,-6.28602946,53.32045242,BCT,MKD,OTH,NE,822G002073,822,,E0822010,,Dublin City,Dublin,02113,Kimmage C
8220DB002391,2391.0,Mount Argus Church,Mount Argus Church,Lower Kimmage Road,Séip Chnocán Argos,False,ITM,714166.0,731362.0,-6.286429955,53.32019752,BCT,MKD,OTH,SW,822G002073,822,,E0822010,,Dublin City,Dublin,02148,Terenure A
8220DB002314,2314.0,Cork Street,Cork Street,Cork Street,Sráid Chorcaí,False,ITM,714491.0,733391.0,-6.280821492,53.33835369,BCT,MKD,OTH,E,822G002074,822,,E0822071,,Dublin City,Dublin,02121,Merchants Quay C
8220DB002380,2380.0,Ardee Street,Ardee Street,Cork Street,Sd BÁ Fhirdhia,False,ITM,714534.0,733409.0,-6.280169623,53.33850608,BCT,MKD,OTH,E,822G002074,822,,E0822071,,Dublin City,Dublin,02121,Merchants Quay C
8220DB002382,2382.0,St Luke's Avenue,St Luke's Avenue,St. Luke's Avenue,Ascaill Lúcáis,False,ITM,714652.0,733451.0,-6.278383426,53.33885781,BCT,MKD,OTH,E,822G002075,822,opp,E0822071,,Dublin City,Dublin,02121,Merchants Quay C
8220DB002383,2383.0,Patrick's Cathedral,Patrick's Cathedral,Patrick Street,Ard-Eag Phádraig,False,ITM,715032.0,733527.0,-6.272652582,53.33945807,BCT,MKD,OTH,N,822G002076,822,opp,E0822071,,Dublin City,Dublin,02120,Merchants Quay B
8220DB002385,2385.0,Patrick Street,Patrick Street,Patrick Street,Sráid Phádraig,False,ITM,715071.0,733846.0,-6.271951368,53.34231512,BCT,MKD,OTH,S,822G002077,822,opp,E0822091,,Dublin City,Dublin,02161,Wood Quay A
8220DB002379,2379.0,Marion Villas,Marion Villas,Cork Street,Bailtíní Mhuire,False,ITM,714238.0,733327.0,-6.2846417070000005,53.33783344,BCT,MKD,OTH,NE,822G002078,822,,E0822071,,Dublin City,Dublin,02121,Merchants Quay C
8220DB002315,2315.0,Brickfield Lane,Brickfield Lane,Cork Street,Lána Ghort na mBrící,False,ITM,714199.0,733293.0,-6.285239284,53.33753643,BCT,MKD,OTH,SW,822G002078,822,,E0822071,,Dublin City,Dublin,02121,Merchants Quay C
8220DB002331,2331.0,Fernvale Drive,Fernvale Drive,St. Mary's Road,Cde Ghln na Raithní,False,ITM,712065.0,731799.0,-6.317795378,53.32457178,BCT,MKD,OTH,NE,822G002079,822,,E0822004,,Dublin City,Dublin,02159,Walkinstown B
8220DB002332,2332.0,Walkinstown Mall,Walkinstown Mall,Walkinstown Road,Meal Bhaile Bhailcín,False,ITM,711197.0,731388.0,-6.33096293,53.32106266,BCT,MKD,OTH,S,822G002080,822,,E0822004,,Dublin City,Dublin,02159,Walkinstown B
8220DB002183,2183.0,Walkinstown Shop Cen,Walkinstown Shop Cen,Walkinstown Road,IS Bhaile Bhailcín,False,ITM,711223.0,731460.0,-6.330547609,53.32170398,BCT,MKD,OTH,NE,822G002080,822,,E0822004,,Dublin City,Dublin,02158,Walkinstown A
8220DB002333,2333.0,Walkinstown Rdbt,Walkinstown Rdbt,Walkinstown Road,Timp Bhaile Bhailcín,False,ITM,711092.0,731027.0,-6.3326646539999984,53.31784177,BCT,MKD,OTH,S,822G002081,822,,E0822004,,Dublin City,Dublin,02159,Walkinstown B
8220DB002378,2378.0,Walkinstown Road,Walkinstown Road,Walkinstown Road,Br Bhaile Bhailcín,False,ITM,711100.0,731104.0,-6.332517673,53.31853179,BCT,MKD,OTH,N,822G002081,822,,E0822004,,Dublin City,Dublin,02158,Walkinstown A
8220DB002439,2439.0,Ravensdale Park,Ravensdale Park,Lower Kimmage Road,Pc Ghln na bhFiach,False,ITM,713433.0,730604.0,-6.297697577999999,53.31354587,BCT,MKD,OTH,NE,822G002082,822,,E0822011,,Dublin City,Dublin,02115,Kimmage E
8220DB002394,2394.0,Poddle Park,Poddle Park,Lower Kimmage Road,Páirc an Phoitéil,False,ITM,713430.0,730572.0,-6.297754017000001,53.31325906,BCT,MKD,OTH,SW,822G002082,822,opp,E0822011,,Dublin City,Dublin,02149,Terenure B
8220DB002390,2390.0,Mount Argus Park,Mount Argus Park,Lower Kimmage Road,Páirc Chnocán Argus,False,ITM,714325.0,731514.0,-6.283989834,53.32152863,BCT,MKD,OTH,SW,822G002083,822,opp,E0822016,,Dublin City,Dublin,02148,Terenure A
8220DB002388,2388.0,St. Kevin's Parade,St. Kevin's Parade,Clanbrassil Street,Paráid Chaoimhín,False,ITM,714930.0,732968.0,-6.274386231,53.33445881,BCT,MKD,OTH,SW,822G002084,822,,E0822067,,Dublin City,Dublin,02162,Wood Quay B
8220DB002389,2389.0,St Clare's Avenue,St Clare's Avenue,Lower Kimmage Road,Ascaill San Clár,False,ITM,714635.0,731900.0,-6.279199521000002,53.32492903,BCT,MKD,OTH,N,822G002085,822,,E0822016,,Dublin City,Dublin,02113,Kimmage C
8220DB002490,2490.0,Captain's Road,Captain's Road,Captain's Road,Bóthar an Chaptaein,False,ITM,712633.0,731253.0,-6.309467112,53.31954655,BCT,MKD,OTH,SE,822G002086,822,,E0822009,,Dublin City,Dublin,02115,Kimmage E
8220DB002491,2491.0,Captain's Avenue,Captain's Avenue,Captain's Road,Ascaill an Chaptaein,False,ITM,712721.0,731086.0,-6.308206276,53.31802766,BCT,MKD,OTH,SE,822G002087,822,,E0822009,,Dublin City,Dublin,02115,Kimmage E
8220DB002493,2493.0,Captain's Road,Captain's Road,Captain's Road,Bóthar an Chaptaein,False,ITM,712691.0,731119.0,-6.308644599,53.31833048,BCT,MKD,OTH,NW,822G002087,822,,E0822009,,Dublin City,Dublin,02115,Kimmage E
8220DB002492,2492.0,Stannaway Ave,Stannaway Ave,Stannaway Avenue,Asc Bhr na gCloch,False,ITM,712747.0,730895.0,-6.307884119,53.31630636,BCT,MKD,OTH,SE,822G002088,822,,E0822009,,Dublin City,Dublin,02115,Kimmage E
8220DB002488,2488.0,Kilfenora Road,Kilfenora Road,Stannaway Road,Br Chill Fhionnúrach,False,ITM,713347.0,731360.0,-6.298717458,53.32035543,BCT,MKD,OTH,SW,822G002089,822,,E0822010,,Dublin City,Dublin,02114,Kimmage D
8220DB002489,2489.0,Clonfert Road,Clonfert Road,Stannaway Road,Br Chluain Fearta,False,ITM,713234.0,731270.0,-6.300444842999999,53.31957113,BCT,MKD,OTH,SW,822G002089,822,,E0822010,,Dublin City,Dublin,02114,Kimmage D
8220DB002486,2486.0,Blarney Park,Blarney Park,Sundrive Road,Páirc na Blarnan,False,ITM,713718.0,731449.0,-6.2931197239999985,53.3210754,BCT,MKD,OTH,NW,822G002090,822,,E0822010,,Dublin City,Dublin,02114,Kimmage D
8220DB002497,2497.0,Sundrive Park,Sundrive Park,Sundrive Road,Páirc Ghrianréime,False,ITM,713801.0,731368.0,-6.291903583,53.32032995,BCT,MKD,OTH,SE,822G002090,822,,E0822010,,Dublin City,Dublin,02113,Kimmage C
8220DB002485,2485.0,Sundrive Road,Sundrive Road,Sundrive Road,Bóthar Ghrianréime,False,ITM,713840.0,731309.0,-6.291339674,53.31979158,BCT,MKD,OTH,NW,822G002090,822,,E0822010,,Dublin City,Dublin,02114,Kimmage D
8220DB002495,2495.0,Ferns Road,Ferns Road,Stannaway Road,Bóthar Fhearna,False,ITM,713470.0,731462.0,-6.29683569,53.32124536,BCT,MKD,OTH,NE,822G002091,822,,E0822010,,Dublin City,Dublin,02112,Kimmage B
8220DB002487,2487.0,Stannaway Road,Stannaway Road,Stannaway Road,Br Bhóthar na gCloch,False,ITM,713572.0,731528.0,-6.295281797,53.32181638,BCT,MKD,OTH,SW,822G002091,822,,E0822010,,Dublin City,Dublin,02114,Kimmage D
8220DB002500,2500.0,Beckett Bridge,Beckett Bridge,North Wall Quay,Droichead Beckett,False,ITM,717056.0,734498.0,-6.241916425,53.34773657,BCT,MKD,OTH,E,822G002092,822,,E0822073,,Dublin City,Dublin,02078,North Dock C
8220DB002501,2501.0,New Wapping Street,New Wapping Street,North Wall Quay,Sráid Wapping Nua,False,ITM,717427.0,734467.0,-6.236358699,53.34737591,BCT,MKD,OTH,E,822G002093,822,,E0822073,,Dublin City,Dublin,02077,North Dock B
8220DB002502,2502.0,New Wapping Street,New Wapping Street,,Sráid Wapping Nua,False,ITM,717495.0,734723.0,-6.235242942999999,53.34966038,BCT,MKD,OTH,N,822G002094,822,,E0822073,,Dublin City,Dublin,02077,North Dock B
8220DB004463,4463.0,Clonfert Road,,Stannaway Road,,False,ITM,713231.0,731285.0,-6.300484495,53.31970651,BCT,MKD,OTH,NE,822G002095,822,opp,E0822009,,Dublin City,Dublin,02112,Kimmage B
8220DB002494,2494.0,Stannaway Road,Stannaway Road,Stannaway Road,Br Bhóthar na gCloch,False,ITM,713225.0,731279.0,-6.300576649,53.3196539,BCT,MKD,OTH,NE,822G002095,822,opp,E0822009,,Dublin City,Dublin,02112,Kimmage B
8220DB002496,2496.0,Eamonn Ceannt Park,Eamonn Ceannt Park,Sundrive Road,Páirc Éamoinn Ceannt,False,ITM,713663.0,731552.0,-6.293907947,53.32201245,BCT,MKD,OTH,SE,822G002096,822,,E0822010,,Dublin City,Dublin,02113,Kimmage C
8220DB002471,2471.0,Larkfield Park,Larkfield Park,Larkfield Park,Gort na Fuiseoige,False,ITM,713988.0,731201.0,-6.28915819,53.31878959,BCT,MKD,OTH,SE,822G002097,822,,E0822010,,Dublin City,Dublin,02148,Terenure A
8220DB002484,2484.0,Larkfield Park,Larkfield Park,Larkfield Park,Gort na Fuiseoige,False,ITM,713989.0,731174.0,-6.2891528910000005,53.31854684,BCT,MKD,OTH,NW,822G002097,822,,E0822010,,Dublin City,Dublin,02148,Terenure A
8220DB002472,2472.0,Harolds Cross NS,Harolds Cross NS,Clareville Road,SN Chrois Araild,False,ITM,714228.0,731083.0,-6.285600295,53.31767791,BCT,MKD,OTH,E,822G002098,822,,E0822016,,Dublin City,Dublin,02148,Terenure A
8220DB002482,2482.0,Clareville Road,Clareville Road,Clareville Road,Bóthar Clareville,False,ITM,714505.0,731228.0,-6.2813926260000015,53.31892063,BCT,MKD,OTH,SW,822G002099,822,,E0822016,,Dublin City,Dublin,02148,Terenure A
8220DB002473,2473.0,Clareville Road,Clareville Road,Clareville Road,Bóthar Clareville,False,ITM,714369.0,731111.0,-6.283475031,53.31789901,BCT,MKD,OTH,E,822G002099,822,,E0822016,,Dublin City,Dublin,02148,Terenure A
8220DB002474,2474.0,Westfield Road,Westfield Road,Clareville Road,Br an Ghoirt Thiar,False,ITM,714467.0,731203.0,-6.281971709,53.31870427,BCT,MKD,OTH,NE,822G002099,822,,E0822016,,Dublin City,Dublin,02148,Terenure A
8220DB002467,2467.0,Cashel Road,Cashel Road,Cashel Road,Bóthar Chaisil,False,ITM,713003.0,731227.0,-6.303925627999999,53.31923419,BCT,MKD,OTH,SE,822G002100,822,,E0822009,,Dublin City,Dublin,02112,Kimmage B
8220DB002451,2451.0,St Agnes Park,St Agnes Park,St. Agnes Park,Páirc San Aignéas,False,ITM,712309.0,731208.0,-6.314343721,53.3192111,BCT,MKD,OTH,W,822G002101,822,,E0822009,,Dublin City,Dublin,02115,Kimmage E
8220DB002464,2464.0,St Agnes Park,St Agnes Park,St. Agnes Park,Páirc San Aignéas,False,ITM,712396.0,731244.0,-6.313025794,53.31951604,BCT,MKD,OTH,E,822G002102,822,opp,E0822009,,Dublin City,Dublin,02111,Kimmage A
8220DB002465,2465.0,Armagh Road,Armagh Road,Armagh Road,Bóthar Ard Mhacha,False,ITM,712667.0,731303.0,-6.308939282000001,53.31998847,BCT,MKD,OTH,NE,822G002103,822,,E0822009,,Dublin City,Dublin,02111,Kimmage A
8220DB002466,2466.0,Scoil Colm,Scoil Colm,Armagh Road,Scoil Choilm,False,ITM,712831.0,731381.0,-6.306451176,53.32065424,BCT,MKD,OTH,NE,822G002104,822,,E0822009,,Dublin City,Dublin,02111,Kimmage A
8220DB002481,2481.0,Kenilworth Square N,Kenilworth Square N,Kenilworth Square North,Cg Kenilworth Tdh,False,ITM,714726.0,731213.0,-6.278082699,53.31873807,BCT,MKD,OTH,SW,822G002105,822,,E0822016,,Dublin City,Dublin,02143,Rathmines West F
8220DB002476,2476.0,Kenilworth Square N,Kenilworth Square N,Kenilworth Square North,Cg Kenilworth Tdh,False,ITM,714754.0,731247.0,-6.2776503560000005,53.31903743,BCT,MKD,OTH,NE,822G002105,822,opp,E0822016,,Dublin City,Dublin,02143,Rathmines West F
8220DB002483,2483.0,Westfield Road,Westfield Road,Clareville Road,Br an Ghoirt Thiar,False,ITM,714459.0,731171.0,-6.282103267999999,53.31841855,BCT,MKD,OTH,SW,822G002106,822,opp,E0822016,,Dublin City,Dublin,02148,Terenure A
8220DB002479,2479.0,Grosvenor Road,Grosvenor Road,Grosvenor Road,Bóthar Grosvenor,False,ITM,715260.0,731399.0,-6.270004325,53.32029297,BCT,MKD,OTH,SW,822G002107,822,,E0822015,,Dublin City,Dublin,02143,Rathmines West F
8220DB002478,2478.0,Grosvenor Road,Grosvenor Road,Grosvenor Road,Bóthar Grosvenor,False,ITM,715273.0,731431.0,-6.269797669,53.32057759,BCT,MKD,OTH,NE,822G002107,822,,E0822015,,Dublin City,Dublin,02143,Rathmines West F
8220DB002475,2475.0,Kenilworth Park,Kenilworth Park,Kenilworth Park,Páirc Kenilworth,False,ITM,714592.0,731224.0,-6.280088932000001,53.31886589,BCT,MKD,OTH,E,822G002108,822,,E0822016,,Dublin City,Dublin,02148,Terenure A
8220DB002480,2480.0,Kenilworth Road,Kenilworth Road,Kenilworth Road,Bóthar Kenilworth,False,ITM,714964.0,731330.0,-6.274469937,53.31973748,BCT,MKD,OTH,SW,822G002109,822,,E0822015,,Dublin City,Dublin,02143,Rathmines West F
8220DB002477,2477.0,Kenilworth Road,Kenilworth Road,Kenilworth Road,Bóthar Kenilworth,False,ITM,714971.0,731344.0,-6.274359849,53.31986172,BCT,MKD,OTH,NE,822G002109,822,opp,E0822015,,Dublin City,Dublin,02143,Rathmines West F
8220DB002776,2776.0,Walkinstown Avenue Park,,Walkinstown Avenue,,False,ITM,710666.0,731357.0,-6.338940234,53.32089538,BCT,MKD,OTH,NW,822G002110,822,opp,E0822004,,Dublin City,Dublin,02158,Walkinstown A
8220DB002728,2728.0,Walkinstown Park,Walkinstown Park,Walkinstown Avenue,Pc Bhaile Bhailcín,False,ITM,710629.0,731409.0,-6.339477197999999,53.32137024,BCT,MKD,OTH,SE,822G002110,822,opp,E0822004,,Dublin City,Dublin,02158,Walkinstown A
8220DB004367,4367.0,Parkview Road,Parkview Road,Poppintree Park Lane Walk,Br Radharc na Páirce,False,ITM,713752.0,740095.0,-6.289501525,53.3987343,BCT,MKD,OTH,W,822G002111,822,,E0822012,,Dublin City,Dublin,02015,Ballymun A
8220DB004368,4368.0,Poppintree Park,Poppintree Park,Poppintree Park Lane Walk,Páirc Chrann Phapáin,False,ITM,713794.0,740106.0,-6.2888663110000005,53.39882406,BCT,MKD,OTH,E,822G002111,822,,E0822012,,Dublin City,Dublin,02015,Ballymun A
8220DB004369,4369.0,Oakwood Road,Oakwood Road,Jamestown Road,Bóthar Choill Darach,False,ITM,713560.0,739922.0,-6.292449465,53.39722158,BCT,MKD,OTH,NE,822G002112,822,,E0822024,,Dublin City,Dublin,02053,Finglas North C
8220DB004788,4788.0,Oakwood Road,Oakwood Road,Jamestown Road,Bóthar Choill Darach,False,ITM,713557.0,739890.0,-6.292506062,53.39693477,BCT,MKD,OTH,SW,822G002112,822,,E0822024,,Dublin City,Dublin,02053,Finglas North C
8220DB006273,6273.0,Sycamore Road,Sycamore Road,Sycamore Road,Br an tSeiceamair,False,ITM,713667.0,739713.0,-6.290916579,53.39532115,BCT,MKD,OTH,SE,822G002113,822,,E0822024,,Dublin City,Dublin,02053,Finglas North C
8220DB004370,4370.0,Sycamore Road,,Sycamore Road,,False,ITM,713588.0,739761.0,-6.292086567,53.39576932,BCT,MKD,OTH,SE,822G002113,822,,E0822024,,Dublin City,Dublin,02053,Finglas North C
8220DB004890,4890.0,Sycamore Park,Sycamore Park,Sycamore Road,Páirc an tSeiceamair,False,ITM,713671.0,739696.0,-6.290862584,53.39516758,BCT,MKD,OTH,NW,822G002113,822,,E0822024,,Dublin City,Dublin,02053,Finglas North C
8220DB004366,4366.0,Clune Road,Clune Road,Clune Road,Bóthar Mhic Clúin,False,ITM,713419.0,739250.0,-6.29480995,53.39121538,BCT,MKD,OTH,SE,822G002114,822,,E0822024,,Dublin City,Dublin,02053,Finglas North C
8220DB004322,4322.0,Ashington Park,Ashington Park,Ashington Park,Páirc Ashington,False,ITM,712372.0,737250.0,-6.311254667999999,53.37347317,BCT,MKD,OTH,W,822G002115,822,opp,E0822019,,Dublin City,Dublin,02006,Ashtown A
8220DB004338,4338.0,St. Patrick's Close,St. Patrick's Close,St Patrick Cathedral,Clós N Pádraig,False,ITM,715102.0,733513.0,-6.2716070560000015,53.33931709,BCT,MKD,OTH,SE,822G002116,822,,E0822091,,Dublin City,Dublin,02161,Wood Quay A
8220DB004363,4363.0,Berryfield Road,Berryfield Road,St. Helena's Road,Br Ghort na Sméar,False,ITM,712865.0,738178.0,-6.303517982000001,53.38170432,BCT,MKD,OTH,S,822G002117,822,opp,E0822062,,Dublin City,Dublin,02056,Finglas South C
8220DB001607,1607.0,Dunsink Drive,Dunsink Drive,St. Helena's Road,Céide Dhún Sinche,False,ITM,712870.0,738229.0,-6.303424647000001,53.38216139,BCT,MKD,OTH,N,822G002117,822,,E0822062,,Dublin City,Dublin,02056,Finglas South C
8220DB004365,4365.0,Poppintree Park,Poppintree Park,Poppintree Park Lane Walk,Pc Chrann Phapáin,False,ITM,714135.0,740481.0,-6.283605584,53.40211904,BCT,MKD,OTH,SW,822G002118,822,opp,E0822012,,Dublin City,Dublin,02015,Ballymun A
8220DB004781,4781.0,IDA Poppintree,IDA Poppintree,Poppintree Park Lane Walk,IDA Crann Phapáin,False,ITM,714111.0,740443.0,-6.283980063,53.40178288,BCT,MKD,OTH,NE,822G002118,822,opp,E0822012,,Dublin City,Dublin,02015,Ballymun A
8220DB000136,136.0,McKee Road,McKee Road,McKee Road, Bóthar Mhic Aoidh,False,ITM,713740.0,739610.0,-6.289856596,53.3943802,BCT,MKD,OTH,SW,822G002119,822,,E0822024,,Dublin City,Dublin,02053,Finglas North C
8220DB004377,4377.0,Clancy Court,Clancy Court,McKee Road,Mic Fhlannchaidh,False,ITM,713729.0,739615.0,-6.290020106,53.39442749,BCT,MKD,OTH,NE,822G002119,822,,E0822024,,Dublin City,Dublin,02053,Finglas North C
8220DB000179,179.0,Griffith Avenue,Griffith Avenue,Ballygall Road East,Ascaill Uí Ghríofa,False,ITM,714699.0,738066.0,-6.27600522,53.38030343,BCT,MKD,OTH,S,822G002120,822,,E0822022,,Dublin City,Dublin,02013,Ballygall C
8220DB000180,180.0,Ballygall Road East,,Ballygall Road East,,False,ITM,714678.0,737858.0,-6.276396175,53.37843957,BCT,MKD,OTH,S,822G002120,822,,E0822022,,Dublin City,Dublin,02027,Botanic A
8220DB000177,177.0,Ballygall Road East,Ballygall Road East,Ballygall Road East,Br Bhaile Gall Thoir,False,ITM,714684.0,738084.0,-6.276224035,53.38046838,BCT,MKD,OTH,E,822G002120,822,,E0822022,,Dublin City,Dublin,02014,Ballygall D
8220DB004378,4378.0,Ballygall Road,Ballygall Road,Ballygall Road East,Bóthar Bhaile Gall,False,ITM,714670.0,737902.0,-6.276500392000001,53.37883655,BCT,MKD,OTH,N,822G002120,822,,E0822022,,Dublin City,Dublin,02014,Ballygall D
8220DB001184,1184.0,Moland Street,Moland Street,Talbot Street,Sráid Moland,False,ITM,716253.0,734826.0,-6.253850227999999,53.35085993,BCT,MKD,OTH,E,822G002121,822,,E0822013,,Dublin City,Dublin,02073,Mountjoy A
8220DB000620,620.0,Talbot Street,Talbot Street,Talbot Street,Sráid Thalbóid,False,ITM,716409.0,734874.0,-6.251490614,53.3512568,BCT,MKD,OTH,E,822G002121,822,,E0822013,,Dublin City,Dublin,02073,Mountjoy A
8220DB004380,4380.0,Mabbot Street,Mabbot Street,Talbot Street,Sráid Mabóid,False,ITM,716279.0,734847.0,-6.253452187000001,53.35104285,BCT,MKD,OTH,E,822G002121,822,,E0822013,,Dublin City,Dublin,02073,Mountjoy A
8220DB004376,4376.0,Clancy Avenue,Clancy Avenue,McKee Road,Bóthar Mhic Aoidh,False,ITM,713554.0,739386.0,-6.292732391,53.39240806,BCT,MKD,OTH,NE,822G002122,822,,E0822024,,Dublin City,Dublin,02053,Finglas North C
8220DB004479,4479.0,McKee Road,McKee Road,McKee Road,Bóthar Mhic Aoidh,False,ITM,713464.0,739261.0,-6.294129777999999,53.39130453,BCT,MKD,OTH,NE,822G002122,822,,E0822024,,Dublin City,Dublin,02053,Finglas North C
8220DB000193,193.0,Finglas Park,Finglas Park,McKee Road,Páirc Fhionnghlaise,False,ITM,713466.0,739249.0,-6.294104035,53.39119631,BCT,MKD,OTH,SW,822G002122,822,,E0822024,,Dublin City,Dublin,02053,Finglas North C
8220DB004371,4371.0,Drumcliffe Drive,Drumcliffe Drive,Carnlough Road,Céide Dhroim Chliabh,False,ITM,713628.0,736440.0,-6.292679465,53.36592858,BCT,MKD,OTH,SW,822G002123,822,,E0822019,,Dublin City,Dublin,02035,Cabra West C
8220DB000822,822.0,Mulroy Road,Mulroy Road,Carnlough Road,Bóthar na Maoile Rua,False,ITM,713682.0,736574.0,-6.291820321,53.36712068,BCT,MKD,OTH,N,822G002123,822,,E0822019,,Dublin City,Dublin,02034,Cabra West B
8220DB000831,831.0,Mulroy Road,Mulroy Road,Carnlough Road,Bóthar na Maoile Rua,False,ITM,713713.0,736635.0,-6.291332813,53.36766197,BCT,MKD,OTH,S,822G002123,822,,E0822019,,Dublin City,Dublin,02034,Cabra West B
8220DB004938,4938.0,Finglas Village,Finglas Village,Mckee Avenue,Srbhl Fhionnghlaise,False,ITM,713184.0,739205.0,-6.298357457000001,53.39086155,BCT,MKD,OTH,S,822G002124,822,nr,E0822024,,Dublin City,Dublin,02053,Finglas North C
8220DB004375,4375.0,Jamestown Road,Jamestown Road,Jamestown Road,Br Bhaile Shéamais,False,ITM,713295.0,739298.0,-6.2966560970000005,53.39167317,BCT,MKD,OTH,NE,822G002125,822,,E0822024,,Dublin City,Dublin,02053,Finglas North C
8220DB004789,4789.0,Jamestown Road,,Jamestown Road,,False,ITM,713350.0,739420.0,-6.295785809,53.39275728,BCT,MKD,OTH,S,822G002125,822,,E0822024,,Dublin City,Dublin,02053,Finglas North C
8220DB004780,4780.0,Jamestown Road,,Jamestown Road,,False,ITM,713355.0,739466.0,-6.295694159,53.39316942,BCT,MKD,OTH,S,822G002125,822,,E0822024,,Dublin City,Dublin,02053,Finglas North C
8220DB003354,3354.0,Downpatrick Road,Downpatrick Road,Sundrive Road,Bóthar Dhún Pádraig,False,ITM,713438.0,732035.0,-6.297110797999999,53.32639947,BCT,MKD,OTH,S,822G002126,822,,E0822009,,Dublin City,Dublin,02100,Crumlin C
8220DB003361,3361.0,Downpatrick Road,Downpatrick Road,Sundrive Road,Bóthar Dhún Pádraig,False,ITM,713429.0,732017.0,-6.297252277,53.3262397,BCT,MKD,OTH,N,822G002126,822,,E0822009,,Dublin City,Dublin,02101,Crumlin D
8220DB003362,3362.0,St Kevin's College,St Kevin's College,Sundrive Road,Coláiste N Caoimhín,False,ITM,713375.0,732149.0,-6.298015307999999,53.32743702,BCT,MKD,OTH,N,822G002126,822,,E0822009,,Dublin City,Dublin,02101,Crumlin D
8220DB001401,1401.0,Clogher Road,Clogher Road,Clogher Road,Bóthar an Chlochair,False,ITM,713338.0,731921.0,-6.298651985,53.32539682,BCT,MKD,OTH,E,822G002127,822,,E0822009,,Dublin City,Dublin,02101,Crumlin D
8220DB003355,3355.0,Slane Road,Slane Road,Clogher Road,Br Bhaile Shláine,False,ITM,713400.0,731932.0,-6.297717801,53.32548236,BCT,MKD,OTH,W,822G002127,822,,E0822009,,Dublin City,Dublin,02112,Kimmage B
8220DB003357,3357.0,Clonmacnoise Grove,Clonmacnoise Grove,Clonmacnoise Road,Gn Chluain Mhic Nóis,False,ITM,713130.0,731535.0,-6.30191053,53.32197385,BCT,MKD,OTH,SW,822G002128,822,opp,E0822009,,Dublin City,Dublin,02112,Kimmage B
8220DB001392,1392.0,Bangor Circle,Bangor Circle,Clonmacnoise Road,Ciorcal Bheannchair,False,ITM,713148.0,731593.0,-6.301619786,53.32249102,BCT,MKD,OTH,S,822G002128,822,,E0822009,,Dublin City,Dublin,02112,Kimmage B
8220DB003353,3353.0,St Kevin's College,St Kevin's College,Sundrive Road,Coláiste N Caoimhín,False,ITM,713378.0,732183.0,-6.297958135,53.32774179999999,BCT,MKD,OTH,S,822G002129,822,opp,E0822017,,Dublin City,Dublin,02100,Crumlin C
8220DB003347,3347.0,Brookwood Grove,,Brookwood Avenue,,False,ITM,719673.0,738236.0,-6.201218207,53.38072771,BCT,MKD,OTH,NW,822G002130,822,opp,E0822036,,Dublin City,Dublin,02042,Clontarf West A
8220DB003364,3364.0,Brookwood Avenue,,Brookwood Avenue,,False,ITM,719676.0,738245.0,-6.201169731,53.38080787,BCT,MKD,OTH,SE,822G002130,822,,E0822036,,Dublin City,Dublin,02042,Clontarf West A
8220DB003350,3350.0,Health Centre,,Sybil Hill Road,,False,ITM,720159.0,737039.0,-6.1943721589999985,53.3698655,BCT,MKD,OTH,S,822G002132,822,,E0822042,,Dublin City,Dublin,02037,Clontarf East A
8220DB002816,2816.0,Glenmalure Square,Glenmalure Square,Milltown Road,Cg Ghleann Molúra,False,ITM,716858.0,730767.0,-6.246264168,53.31426575,BCT,MKD,OTH,S,822G002133,822,opp,E0822031,,Dublin City,Dublin,02135,Rathmines East B
8220DB003562,3562.0,Glenmalure Square,Glenmalure Square,Milltown Road,Cg Ghleann Molúra,False,ITM,716855.0,730799.0,-6.246297382000001,53.31455386,BCT,MKD,OTH,N,822G002133,822,,E0822031,,Dublin City,Dublin,02135,Rathmines East B
8220DB003952,3952.0,Rutland Avenue,Rutland Avenue,Crumlin Road,Ascaill Rutland,False,ITM,713602.0,732628.0,-6.294437584,53.33169122,BCT,MKD,OTH,NE,822G002134,822,,E0822017,,Dublin City,Dublin,02100,Crumlin C
8220DB004319,4319.0,Heuston Train Stn,Heuston Train Stn,Heuston Station,Stáisiún Heuston,False,ITM,713722.0,734309.0,-6.292033452,53.34676578,BCT,MKD,OTH,SE,822G002135,822,,E0822085,,Dublin City,Dublin,02152,Ushers A
8220DB003363,3363.0,Brookwood Avenue,,Brookwood Avenue,,False,ITM,719778.0,738119.0,-6.199685167,53.37965298,BCT,MKD,OTH,NW,822G002136,822,,E0822037,,Dublin City,Dublin,02042,Clontarf West A
8220DB003360,3360.0,Clonmacnoise Road,Clonmacnoise Road,Clonmacnoise Road,Br Chluain Mhic Nóis,False,ITM,712992.0,731510.0,-6.303989832,53.32177873,BCT,MKD,OTH,E,822G002137,822,,E0822009,,Dublin City,Dublin,02112,Kimmage B
8220DB003358,3358.0,Lismore Road,Lismore Road,Clonmacnoise Road,Bóthar Leasa Móire,False,ITM,713033.0,731439.0,-6.303400021,53.32113219,BCT,MKD,OTH,SW,822G002137,822,,E0822009,,Dublin City,Dublin,02112,Kimmage B
8220DB004466,4466.0,Glenwood Road,Glenwood Road,Glenwood Road,Br Ghleann na Coille,False,ITM,720412.0,739111.0,-6.189783047000001,53.38841946,BCT,MKD,OTH,NE,822G002138,822,,E0822044,,Dublin City,Dublin,02050,Edenmore
8220DB002717,2717.0,Seaview Avenue,Seaview Avenue,West Road,Asc Radharc na Mara,False,ITM,717326.0,735563.0,-6.237468647000001,53.35724331,BCT,MKD,OTH,SW,822G002139,822,,E0822052,,Dublin City,Dublin,02077,North Dock B
8220DB004468,4468.0,West Road,West Road,West Road,An Bóthar Thiar,False,ITM,717290.0,735511.0,-6.238028448,53.35678420000001,BCT,MKD,OTH,NE,822G002139,822,opp,E0822052,,Dublin City,Dublin,02077,North Dock B
8220DB004469,4469.0,East Road,East Road,East Road,An Bóthar Thoir,False,ITM,717812.0,735237.0,-6.23029286,53.35420697,BCT,MKD,OTH,NE,822G002140,822,,E0822052,,Dublin City,Dublin,02077,North Dock B
8220DB004472,4472.0,St Anne's Drive,St Anne's Drive,Watermill Drive,Céide San Anna,False,ITM,721211.0,737789.0,-6.1782849739999985,53.37636215,BCT,MKD,OTH,SW,822G002141,822,,E0822042,,Dublin City,Dublin,02037,Clontarf East A
8220DB004451,4451.0,Strand Road,Strand Road,Strand Road,Bóthar na Trá,False,ITM,719396.0,732129.0,-6.20768288,53.32593416,BCT,MKD,OTH,N,822G002142,822,,E0822028,,Dublin City,Dublin,02127,Pembroke East C
8220DB004455,4455.0,Ailesbury Road,Ailesbury Road,Ailesbury Road,Bóthar Ailesbury,False,ITM,718986.0,731531.0,-6.214058696,53.32065485,BCT,MKD,OTH,E,822G002143,822,,E0822029,,Dublin City,Dublin,02129,Pembroke East E
8220DB004456,4456.0,Whitefriars St,Whitefriars St,Aungier Street,Na mBráithre Bána,False,ITM,715494.0,733589.0,-6.265695957,53.33991441,BCT,MKD,OTH,S,822G002144,822,opp,E0822091,,Dublin City,Dublin,02145,Royal Exchange B
8220DB004458,4458.0,Military Cemetery,Military Cemetery,Blackhorse Avenue,An Reilig Mhíleata,False,ITM,712615.0,735806.0,-6.308118694,53.36045006,BCT,MKD,OTH,NW,822G002145,822,,E0822019,,Dublin City,Dublin,02036,Cabra West D
8220DB004485,4485.0,Naomh Fionnbarra GAA,Naomh Fionnbarra GAA,Faussagh Road,CLG Naomh Fionnbarra,False,ITM,713840.0,736402.0,-6.289509284,53.36554163,BCT,MKD,OTH,NW,822G002147,822,,E0822058,,Dublin City,Dublin,02031,Cabra East B
8220DB004494,4494.0,Hawkins Street,Hawkins Street,Hawkin's Street,Sráid Haicín,False,ITM,716044.0,734409.0,-6.257140692999999,53.34715999,BCT,MKD,OTH,S,822G002149,822,,E0822091,,Dublin City,Dublin,02117,Mansion House A
8220DB004483,4483.0,Corn Exchange Place,,Corn Exchange Place,,False,ITM,716128.0,734417.0,-6.255876807999999,53.34721343,BCT,MKD,OTH,S,822G002150,822,,E0822091,,Dublin City,Dublin,02117,Mansion House A
8220DB004473,4473.0,Artane Castle,Artane Castle,Kilmore Road,Caisleán Ard Aidhin,False,ITM,718765.0,738572.0,-6.214732607999999,53.38395063,BCT,MKD,OTH,SE,822G002151,822,,E0822036,,Dublin City,Dublin,02023,Beaumont C
8220DB004474,4474.0,Kilmore Road,Kilmore Road,Kilmore Road,Br na Coille Móire,False,ITM,718706.0,738601.0,-6.215608126,53.38422438,BCT,MKD,OTH,E,822G002152,822,,E0822036,,Dublin City,Dublin,02023,Beaumont C
8220DB004935,4935.0,St Attracta Road,St Attracta Road,Faussagh Road,Bóthar San Attracta,False,ITM,714255.0,736251.0,-6.283331347000001,53.36409573,BCT,MKD,OTH,E,822G002153,822,,E0822058,,Dublin City,Dublin,02031,Cabra East B
8220DB004500,4500.0,Faussagh Road,Faussagh Road,Faussagh Road,Bóthar an Fhásaigh,False,ITM,714229.0,736245.0,-6.283723969,53.36404744,BCT,MKD,OTH,W,822G002153,822,,E0822058,,Dublin City,Dublin,02031,Cabra East B
8220DB002094,2094.0,Coombe Hospital,Coombe Hospital,Cork Street,Ospidéal an Choim,False,ITM,713906.0,732976.0,-6.289750637999999,53.33475197,BCT,MKD,OTH,N,822G002154,822,,E0822071,,Dublin City,Dublin,02124,Merchants Quay F
8220DB004434,4434.0,Coombe Hospital,Coombe Hospital,Cork Street,Ospidéal an Choim,False,ITM,713936.0,733101.0,-6.289255479,53.33586838,BCT,MKD,OTH,NE,822G002154,822,opp,E0822071,,Dublin City,Dublin,02154,Ushers C
8220DB004389,4389.0,Clontarf Golf Club,Clontarf Golf Club,Collins Avenue East,Cl Glf Chluain Tarbh,False,ITM,719043.0,737430.0,-6.210986072000001,53.37363008,BCT,MKD,OTH,SE,822G002155,822,opp,E0822033,,Dublin City,Dublin,02043,Clontarf West B
8220DB000662,662.0,Clanmoyle Road,Clanmoyle Road,Collins Avenue East,Bóthar Chluain Maoil,False,ITM,718933.0,737454.0,-6.212629275,53.37387042,BCT,MKD,OTH,W,822G002155,822,opp,E0822033,,Dublin City,Dublin,02043,Clontarf West B
8220DB004390,4390.0,Railway Bridge,Railway Bridge,Collins Avenue East,Droichead Iarnróid,False,ITM,719279.0,737222.0,-6.20751976,53.37170853,BCT,MKD,OTH,SE,822G002156,822,,E0822033,,Dublin City,Dublin,02041,Clontarf East E
8220DB001460,1460.0,Carrow Road,Carrow Road,Galtymore Road,Bóthar na Ceathrún,False,ITM,711829.0,732660.0,-6.321032584,53.3323561,BCT,MKD,OTH,SW,822G002157,822,,E0822008,,Dublin City,Dublin,02098,Crumlin A
8220DB004399,4399.0,Galtymore Park,Galtymore Park,Galtymore Road,C Mór na nGaibhlte,False,ITM,711829.0,732679.0,-6.32102588,53.33252678,BCT,MKD,OTH,NE,822G002157,822,,E0822008,,Dublin City,Dublin,02098,Crumlin A
8220DB004400,4400.0,Drimnagh CU,Drimnagh CU,Galtymore Road,Comhar Creidmheasa,False,ITM,711930.0,732887.0,-6.319436745,53.33437392,BCT,MKD,OTH,NE,822G002158,822,,E0822008,,Dublin City,Dublin,02098,Crumlin A
8220DB001459,1459.0,Drimnagh CU,Drimnagh CU,Galtymore Road,Comhar Creidmheasa,False,ITM,711912.0,732852.0,-6.319719237,53.33406332,BCT,MKD,OTH,NE,822G002158,822,,E0822008,,Dublin City,Dublin,02098,Crumlin A
8220DB001245,1245.0,Glin Avenue,Glin Avenue,Glin Road,Ascaill an Ghleanna,False,ITM,719292.0,740149.0,-6.206219409,53.39799727,BCT,MKD,OTH,S,822G002159,822,,E0822049,,Dublin City,Dublin,02083,Priorswood D
8220DB004388,4388.0,Glin Road,Glin Road,Glin Road,Bóthar an Ghleanna,False,ITM,719304.0,740231.0,-6.206008076,53.39873112,BCT,MKD,OTH,N,822G002159,822,,E0822049,,Dublin City,Dublin,02083,Priorswood D
8220DB005059,5059.0,Macroom Road,Macroom Road,Glin Road,Br Mhaigh Chromtha,False,ITM,719333.0,740382.0,-6.205515154,53.40008092,BCT,MKD,OTH,N,822G002159,822,,E0822049,,Dublin City,Dublin,02083,Priorswood D
8220DB001236,1236.0,Colaiste Dhulaigh,,Barryscourt Road,,False,ITM,718978.0,739950.0,-6.211013455,53.39628058,BCT,MKD,OTH,SW,822G002160,822,opp,E0822035,,Dublin City,Dublin,02071,Kilmore C
8220DB004383,4383.0,Coolock Library,Coolock Library,Barryscourt Road,Leabharlann,False,ITM,718970.0,739954.0,-6.2111321739999985,53.39631831,BCT,MKD,OTH,NE,822G002160,822,,E0822035,,Dublin City,Dublin,02071,Kilmore C
8220DB000518,518.0,Waterloo Avenue,Waterloo Avenue,North Strand Road,Ascaill Waterloo,False,ITM,717091.0,735746.0,-6.240929402000001,53.35893921,BCT,MKD,OTH,NE,822G002161,822,,E0822082,,Dublin City,Dublin,02009,Ballybough A
8220DB004384,4384.0,Bayview Avenue,Bayview Avenue,North Strand Road,Asc Rc an Chuain,False,ITM,716976.0,735603.0,-6.242709026,53.35768013,BCT,MKD,OTH,NE,822G002161,822,,E0822082,,Dublin City,Dublin,02009,Ballybough A
8220DB000617,617.0,Strandville Avenue,Strandville Avenue,North Strand Road,Asc Bhaile na Trá,False,ITM,717022.0,735628.0,-6.242009096,53.35789452,BCT,MKD,OTH,SW,822G002161,822,,E0822082,,Dublin City,Dublin,02076,North Dock A
8220DB004385,4385.0,St Brendan's Church,St Brendan's Church,Malahide Road,Eaglais Bhréanainn,False,ITM,719801.0,739108.0,-6.198964679,53.38853139,BCT,MKD,OTH,NE,822G002162,822,,E0822035,,Dublin City,Dublin,02072,Kilmore D
8220DB001274,1274.0,St Brendans Church,St Brendans Church,Malahide Road,Séipéal N Breandán,False,ITM,719866.0,739155.0,-6.197970193,53.38893882,BCT,MKD,OTH,SW,822G002162,822,,E0822035,,Dublin City,Dublin,02064,Harmonstown A
8220DB004386,4386.0,Watermill Drive,Watermill Drive,Watermill Drive,Muilinn Uisce,False,ITM,721414.0,737982.0,-6.175161594,53.37804915,BCT,MKD,OTH,NE,822GA00452,822,,E0822042,,Dublin City,Dublin,02037,Clontarf East A
8220DB000655,655.0,Watermill Drive,Watermill Drive,Watermill Drive,Ce an Mhuilinn Uisce,False,ITM,721397.0,737947.0,-6.175430402000001,53.37773867,BCT,MKD,OTH,SW,822GA00451,822,,E0822042,,Dublin City,Dublin,02037,Clontarf East A
8220DB000656,656.0,St Anne's Avenue,St Anne's Avenue,Watermill Drive,Ascaill San Anna,False,ITM,721249.0,737802.0,-6.177709191,53.37647020000001,BCT,MKD,OTH,SW,822GA00451,822,,E0822042,,Dublin City,Dublin,02037,Clontarf East A
8220DB004432,4432.0,Griffith Downs,Griffith Downs,Swords Road,Mulláin Uí Ghríofa,False,ITM,716533.0,737766.0,-6.248563719,53.37720747,BCT,MKD,OTH,SW,822G002164,822,,E0822025,,Dublin City,Dublin,02093,Whitehall D
8220DB004414,4414.0,Convent Lawns,Convent Lawns,Kylemore Road,Plásóga an Chlochair,False,ITM,709868.0,733948.0,-6.350014322000001,53.34433702,BCT,MKD,OTH,NW,822G002165,822,,E0822002,,Dublin City,Dublin,02105,Drumfinn
8220DB004406,4406.0,Carriglea Ind Est,Carriglea Ind Est,Naas Road,Eastát Tionsclaíoch,False,ITM,710676.0,732158.0,-6.3385106360000005,53.32808882,BCT,MKD,OTH,E,822G002166,822,,E0822003,,Dublin City,Dublin,02107,Inchicore B
8220DB001447,1447.0,Victoria Quay,Victoria Quay,Victoria Island,Cé Victoria,False,ITM,713979.0,734300.0,-6.288178749,53.34662965,BCT,MKD,OTH,W,822G002167,822,,E0822096,,Dublin City,Dublin,02153,Ushers B
