date_of_sale,address,county,price,vat_exclusive,property_description,property_size,place_id,geocoding_url,latitude,longitude,formatted_address,eircode,accuracy,region,electoral_district_id,electoral_district,bus_distance,train_distance
04/01/2010,"4 Hawthorn Court, Collooney",Sligo,220000.0,No,Second-Hand Dwelling house /Apartment,,ChIJ4xNvds3BXkgRWH1Yko5Cd2c,"https://maps.googleapis.com/maps/api/geocode/json?address=4+Hawthorn+Court,+Collooney,+Sligo,+Ireland&key=AIzaSyA1vJtESoYOSSuM_yTI1j1jpPGpxx_VGyk",54.18179749999999,-8.4865215,"4 Hawthorn Ct, Rathrippin, Collooney, Co. Sligo, F91 N2P2, Ireland",F91 N2P2,ROOFTOP,Border,31046,Collooney,0.045027724929806535,0.7519177670635949
06/01/2010,"25 Markievicz Heights, Sligo",Sligo,227000.0,No,Second-Hand Dwelling house /Apartment,,ChIJbQiVj8fpXkgRcP6imyYn23c,"https://maps.googleapis.com/maps/api/geocode/json?address=25+Markievicz+Heights,+Sligo,+Ireland&key=AIzaSyA1vJtESoYOSSuM_yTI1j1jpPGpxx_VGyk",54.25572,-8.4641057,"25 Markievicz Heights, Tonaphubble, Sligo, F91 C6TY, Ireland",F91 C6TY,ROOFTOP,Border,31001,Sligo East,0.11274320323850598,2.148973068859504
08/01/2010,"28  Temple Manor, Balllinacarrow",Sligo,200000.0,Yes,New Dwelling house /Apartment,greater than 125 sq metres,ChIJow4e96nAXkgRXJBdy7-R32o,"https://maps.googleapis.com/maps/api/geocode/json?address=28+Temple+Manor,+Balllinacarrow,+Sligo,+Ireland&key=AIzaSyA1vJtESoYOSSuM_yTI1j1jpPGpxx_VGyk",54.1304543,-8.5658312,"28 Temple Manor, Ballynacarrow South, Ballinacarrow, Co. Sligo, F56 YC43, Ireland",F56 YC43,ROOFTOP,Border,31081,Temple,0.4889930208492394,5.532285819252415
12/01/2010,"No. 11, Cartron Estate, Sligo",Sligo,85000.0,No,Second-Hand Dwelling house /Apartment,,ChIJG5xxBTjoXkgRZ1oovZhQUbg,"https://maps.googleapis.com/maps/api/geocode/json?address=No.+11,+Cartron+Estate,+Sligo,+Ireland&key=AIzaSyA1vJtESoYOSSuM_yTI1j1jpPGpxx_VGyk",54.279804399999996,-8.471613699999999,"11 Cartron Estate, Ballytivnan, Sligo, F91 RYW8, Ireland",F91 RYW8,ROOFTOP,Border,31002,Sligo North,0.07434537662282904,1.0941336494020515
13/01/2010,"2  Cois Na Dun, Carrownanty, Ballymote",Sligo,128640.97,Yes,New Dwelling house /Apartment,greater than or equal to 38 sq metres and less than 125 sq metres,ChIJr1MDxB2_XkgROqYh_GIMCkM,"https://maps.googleapis.com/maps/api/geocode/json?address=2+Cois+Na+Dun,+Carrownanty,+Ballymote,+Sligo,+Ireland&key=AIzaSyA1vJtESoYOSSuM_yTI1j1jpPGpxx_VGyk",54.09051789999999,-8.5224729,"2 Cois Na Dún, Stoneparks, Ballymote, Co. Sligo, F56 X891, Ireland",F56 X891,ROOFTOP,Border,31036,Ballymote,0.5180494276751345,0.2694508871531896
14/01/2010,"3 Cluainin Na Mbo, Enniscrone",Sligo,205000.0,No,Second-Hand Dwelling house /Apartment,,ChIJA9SNqYExWUgR4v4Qvyal9Dc,"https://maps.googleapis.com/maps/api/geocode/json?address=3+Cluainin+Na+Mbo,+Enniscrone,+Sligo,+Ireland&key=AIzaSyA1vJtESoYOSSuM_yTI1j1jpPGpxx_VGyk",54.2253505,-9.092288,"3 Cluainín Na mBó, Carrowhubbuck South, Enniscrone, Co. Sligo, F26 R924, Ireland",F26 R924,ROOFTOP,Border,31026,Kilglass,1.3199143480125504,39.100157269412854
15/01/2010,"No. 42 The Chestnut, Woodstream, Coolaney",Sligo,125000.0,Yes,New Dwelling house /Apartment,greater than or equal to 38 sq metres and less than 125 sq metres,EihXb29kc3RyZWFtLCBDb29sYW5leSwgQ28uIFNsaWdvLCBJcmVsYW5kIi4qLAoUChIJLfqIySbHXkgRzusk-z5olh8SFAoSCcndooJLxl5IEaAI3zepxwAY,"https://maps.googleapis.com/maps/api/geocode/json?address=No.+42+The+Chestnut,+Woodstream,+Coolaney,+Sligo,+Ireland&key=AIzaSyA1vJtESoYOSSuM_yTI1j1jpPGpxx_VGyk",54.16722370000001,-8.607503399999999,"Woodstream, Coolaney, Co. Sligo, Ireland",,GEOMETRIC_CENTER,Border,31073,Coolaney,0.6134562727818812,7.6316426091148415
18/01/2010,"10 The Downs, Ballymote",Sligo,158589.86,Yes,New Dwelling house /Apartment,greater than or equal to 38 sq metres and less than 125 sq metres,ChIJoYkiOsnpXkgRZPJB9mp8tw0,"https://maps.googleapis.com/maps/api/geocode/json?address=10+The+Downs,+Ballymote,+Sligo,+Ireland&key=AIzaSyA1vJtESoYOSSuM_yTI1j1jpPGpxx_VGyk",54.26093760000001,-8.4713931,"10 Crozon Downs, Knocknaganny, Sligo, F91 Y75X, Ireland",F91 Y75X,ROOFTOP,Border,31003,Sligo West,0.1040992919306258,1.4073668800563797
20/01/2010,"22 St Annes Terrace, Sligo",Sligo,122460.73,No,Second-Hand Dwelling house /Apartment,,ChIJ3wCEYjXoXkgRds8-nnDz6B0,"https://maps.googleapis.com/maps/api/geocode/json?address=22+St+Annes+Terrace,+Sligo,+Ireland&key=AIzaSyA1vJtESoYOSSuM_yTI1j1jpPGpxx_VGyk",54.27034279999999,-8.467931499999999,"22 St Annes Terrace, Abbeyquarter North, Sligo, F91 V2HX, Ireland",F91 V2HX,ROOFTOP,Border,31001,Sligo East,0.14261130032696265,0.9274786384370434
20/01/2010,"62 The Hawthorns, Carraroe",Sligo,230000.0,Yes,New Dwelling house /Apartment,greater than or equal to 38 sq metres and less than 125 sq metres,ChIJBStKa8HpXkgRDF8iRVbiBVQ,"https://maps.googleapis.com/maps/api/geocode/json?address=62+The+Hawthorns,+Carraroe,+Sligo,+Ireland&key=AIzaSyA1vJtESoYOSSuM_yTI1j1jpPGpxx_VGyk",54.250213,-8.4671871,"62 The Hawthorns, Tullynagracken North, Carraroe, Co. Sligo, F91 A09D, Ireland",F91 A09D,ROOFTOP,Border,31052,Kilmacowen,0.4798993866467624,2.6045947643903222
21/01/2010,"11 Old Bundoran Road, Sligo",Sligo,116955.4,No,Second-Hand Dwelling house /Apartment,,ChIJrSHGaUHoXkgRmN0X37cprzA,"https://maps.googleapis.com/maps/api/geocode/json?address=11+Old+Bundoran+Road,+Sligo,+Ireland&key=AIzaSyA1vJtESoYOSSuM_yTI1j1jpPGpxx_VGyk",54.2864698,-8.4666639,"11 Old Bundoran Rd, Rathbraghan, Sligo, F91 A4W5, Ireland",F91 A4W5,ROOFTOP,Border,31002,Sligo North,0.06639433230882273,1.8858922004084688
26/01/2010,"Largan, Coolaney",Sligo,80000.0,No,Second-Hand Dwelling house /Apartment,,ChIJU-VKpAfBXkgRAq5Ou6fHACY,"https://maps.googleapis.com/maps/api/geocode/json?address=Largan,+Coolaney,+Sligo,+Ireland&key=AIzaSyA1vJtESoYOSSuM_yTI1j1jpPGpxx_VGyk",54.188010999999996,-8.536359500000001,"Largan, River View, Co. Sligo, Ireland",,APPROXIMATE,Border,31038,Ballysadare East,2.7432340182744355,2.700566513296744
26/01/2010,"Lisruntagh, Cloonamahon",Sligo,195000.0,No,Second-Hand Dwelling house /Apartment,,ChIJ6xw9thLAXkgRAtVOu6fHACY,"https://maps.googleapis.com/maps/api/geocode/json?address=Lisruntagh,+Cloonamahon,+Sligo,+Ireland&key=AIzaSyA1vJtESoYOSSuM_yTI1j1jpPGpxx_VGyk",54.14967339999999,-8.490793499999999,"Lisruntagh, River View, Co. Sligo, Ireland",,APPROXIMATE,Border,31055,Lisconny,0.9479465189751536,4.095921339583275
02/02/2010,"14 Earls Court, Ballymote",Sligo,120000.0,No,Second-Hand Dwelling house /Apartment,,ChIJueo-fPG2REgR4bJVr12riqA,"https://maps.googleapis.com/maps/api/geocode/json?address=14+Earls+Court,+Ballymote,+Sligo,+Ireland&key=AIzaSyA1vJtESoYOSSuM_yTI1j1jpPGpxx_VGyk",52.26761,-8.73075,"Ballyadam, Earls Court, Co. Cork, Ireland",,APPROXIMATE,South-West (IE),18227,Churchtown,187.02280536640274,202.9844976040308
02/02/2010,"14 Earls Court, Stonepark, Ballymote",Sligo,177500.0,Yes,New Dwelling house /Apartment,greater than 125 sq metres,ChIJSbdQyhy_XkgRxJ1UymUc4cw,"https://maps.googleapis.com/maps/api/geocode/json?address=14+Earls+Court,+Stonepark,+Ballymote,+Sligo,+Ireland&key=AIzaSyA1vJtESoYOSSuM_yTI1j1jpPGpxx_VGyk",54.0931019,-8.5174451,"14 Earls Ct, Stoneparks, Ballymote, Co. Sligo, F56 NW20, Ireland",F56 NW20,ROOFTOP,Border,31036,Ballymote,0.5538640570031375,0.5759089015470339
08/02/2010,"33 Ard Cairn, Cairns Hill, Sligo",Sligo,180000.0,No,Second-Hand Dwelling house /Apartment,,ChIJg5_v3cbpXkgRhr8ZRlnJSL8,"https://maps.googleapis.com/maps/api/geocode/json?address=33+Ard+Cairn,+Cairns+Hill,+Sligo,+Ireland&key=AIzaSyA1vJtESoYOSSuM_yTI1j1jpPGpxx_VGyk",54.2533336,-8.4668435,"33 Ardcairn, Cairns Hill, Sligo, F91 Y7H9, Ireland",F91 Y7H9,ROOFTOP,Border,31001,Sligo East,0.2128790003928781,2.295032381220837
08/02/2010,"The Waterfront, Upper Rosses Point, Rosses Point, Sligo",Sligo,200000.0,No,Second-Hand Dwelling house /Apartment,,ChIJA3EIw9TcXkgRhJ950dldnUE,"https://maps.googleapis.com/maps/api/geocode/json?address=The+Waterfront,+Upper+Rosses+Point,+Rosses+Point,+Sligo,+Ireland&key=AIzaSyA1vJtESoYOSSuM_yTI1j1jpPGpxx_VGyk",54.305206999999996,-8.5589181,"Upper, Rosses Point, Co. Sligo, F91 DXT4, Ireland",F91 DXT4,GEOMETRIC_CENTER,Border,31048,Drumcliff West,0.4466314174231196,6.172722627383269
09/02/2010,"2 Old Market Street, Sligo",Sligo,120000.0,Yes,New Dwelling house /Apartment,greater than or equal to 38 sq metres and less than 125 sq metres,ChIJY63A3TToXkgRw_uh2DFXPBQ,"https://maps.googleapis.com/maps/api/geocode/json?address=2+Old+Market+Street,+Sligo,+Ireland&key=AIzaSyA1vJtESoYOSSuM_yTI1j1jpPGpxx_VGyk",54.2690267,-8.4717605,"2 Old Market St, Abbeyquarter North, Sligo, F91 Y921, Ireland",F91 Y921,ROOFTOP,Border,31001,Sligo East,0.041658867434481,0.7391403623734709
09/02/2010,"48 Avondale, Sligo",Sligo,85000.0,No,Second-Hand Dwelling house /Apartment,,ChIJexJUeUfoXkgRntEuSa2etiA,"https://maps.googleapis.com/maps/api/geocode/json?address=48+Avondale,+Sligo,+Ireland&key=AIzaSyA1vJtESoYOSSuM_yTI1j1jpPGpxx_VGyk",54.282282499999994,-8.4711455,"48 Avondale, Ballytivnan, Sligo, F91 E9EK, Ireland",F91 E9EK,ROOFTOP,Border,31002,Sligo North,0.12341513562356562,1.3368054228281687
10/02/2010,"4 Dominic Street, Sligo",Sligo,100000.0,No,Second-Hand Dwelling house /Apartment,,ChIJjwhInzToXkgRE3TNGJE0jtM,"https://maps.googleapis.com/maps/api/geocode/json?address=4+Dominic+Street,+Sligo,+Ireland&key=AIzaSyA1vJtESoYOSSuM_yTI1j1jpPGpxx_VGyk",54.26941280000001,-8.4747066,"4 Dominick St, Abbeyquarter North, Sligo, Ireland",,ROOFTOP,Border,31003,Sligo West,0.09307716764726126,0.5510538537617797
10/02/2010,"No. 70 The Ash, Woodstream, Coolaney",Sligo,180000.0,Yes,New Dwelling house /Apartment,greater than or equal to 38 sq metres and less than 125 sq metres,EihXb29kc3RyZWFtLCBDb29sYW5leSwgQ28uIFNsaWdvLCBJcmVsYW5kIi4qLAoUChIJLfqIySbHXkgRzusk-z5olh8SFAoSCcndooJLxl5IEaAI3zepxwAY,"https://maps.googleapis.com/maps/api/geocode/json?address=No.+70+The+Ash,+Woodstream,+Coolaney,+Sligo,+Ireland&key=AIzaSyA1vJtESoYOSSuM_yTI1j1jpPGpxx_VGyk",54.16722370000001,-8.607503399999999,"Woodstream, Coolaney, Co. Sligo, Ireland",,GEOMETRIC_CENTER,Border,31073,Coolaney,0.6134562727818812,7.6316426091148415
12/02/2010,"51 The Meadows, Enniscrone",Sligo,213000.0,Yes,New Dwelling house /Apartment,greater than 125 sq metres,ChIJBWGPPNgzWUgRmFLmbxvnN8c,"https://maps.googleapis.com/maps/api/geocode/json?address=51+The+Meadows,+Enniscrone,+Sligo,+Ireland&key=AIzaSyA1vJtESoYOSSuM_yTI1j1jpPGpxx_VGyk",54.2117196,-9.081066400000001,"51 The Meadows, Frankford, Enniscrone, Co. Sligo, F26 VW83, Ireland",F26 VW83,ROOFTOP,Border,31026,Kilglass,0.7209233525129496,38.239580453246106
19/02/2010,"39 The Meadows, Enniscrone",Sligo,162995.59,Yes,New Dwelling house /Apartment,greater than or equal to 38 sq metres and less than 125 sq metres,ChIJpY3EL9gzWUgRrIsWATqBW_M,"https://maps.googleapis.com/maps/api/geocode/json?address=39+The+Meadows,+Enniscrone,+Sligo,+Ireland&key=AIzaSyA1vJtESoYOSSuM_yTI1j1jpPGpxx_VGyk",54.211962199999995,-9.0804726,"39 The Meadows, Frankford, Enniscrone, Co. Sligo, F26 X825, Ireland",F26 X825,ROOFTOP,Border,31026,Kilglass,0.7516011945105648,38.2029353451096
19/02/2010,"St. Gerard'S, Strandhill Road, Sligo",Sligo,245000.0,No,Second-Hand Dwelling house /Apartment,,ChIJR0gB9YHCXkgRxHl9bNxi8UM,"https://maps.googleapis.com/maps/api/geocode/json?address=St.+Gerard'S,+Strandhill+Road,+Sligo,+Ireland&key=AIzaSyA1vJtESoYOSSuM_yTI1j1jpPGpxx_VGyk",54.271728599999996,-8.500566300000001,"Strandhill Rd, Rathedmond, Sligo, Ireland",,GEOMETRIC_CENTER,Border,31003,Sligo West,0.3053800392351621,1.1785069675684972
22/02/2010,"Lislahelly, Drumcliffe",Sligo,450000.0,No,Second-Hand Dwelling house /Apartment,,ChIJFabZ7jXmXkgR74N2yE2GzFA,"https://maps.googleapis.com/maps/api/geocode/json?address=Lislahelly,+Drumcliffe,+Sligo,+Ireland&key=AIzaSyA1vJtESoYOSSuM_yTI1j1jpPGpxx_VGyk",54.332367700000006,-8.449001299999999,"Lislahelly, Drum, Co. Sligo, Ireland",,APPROXIMATE,Border,31042,Carney,1.949382354473287,7.031808437543112
24/02/2010,"77 The Hawthorns, Carraroe, Sligo",Sligo,207048.0,Yes,New Dwelling house /Apartment,greater than or equal to 38 sq metres and less than 125 sq metres,ChIJgRfkcMHpXkgRc1sG7viQ9Mw,"https://maps.googleapis.com/maps/api/geocode/json?address=77+The+Hawthorns,+Carraroe,+Sligo,+Ireland&key=AIzaSyA1vJtESoYOSSuM_yTI1j1jpPGpxx_VGyk",54.24947599999999,-8.4676349,"77 The Hawthorns, Tullynagracken North, Carraroe, Co. Sligo, F91 VK0D, Ireland",F91 VK0D,ROOFTOP,Border,31052,Kilmacowen,0.4722223136241613,2.670670140207681
26/02/2010,"41 Ard-Na-Veigh, Maugheraboy, Sligo",Sligo,200000.0,No,Second-Hand Dwelling house /Apartment,,ChIJAWIdTSvoXkgR6KEZiSH6iMU,"https://maps.googleapis.com/maps/api/geocode/json?address=41+Ard-Na-Veigh,+Maugheraboy,+Sligo,+Ireland&key=AIzaSyA1vJtESoYOSSuM_yTI1j1jpPGpxx_VGyk",54.26695600000001,-8.490569500000001,"41 Árd Na Veigh, Magheraboy, Sligo, F91 A71F, Ireland",F91 A71F,ROOFTOP,Border,31003,Sligo West,0.1894766908543197,0.7859078605688342
01/03/2010,"Rhue, Tubbercurry",Sligo,190000.0,Yes,New Dwelling house /Apartment,greater than 125 sq metres,ChIJeUSyFbu2XkgRjQ-rQ7vLfkA,"https://maps.googleapis.com/maps/api/geocode/json?address=Rhue,+Tubbercurry,+Sligo,+Ireland&key=AIzaSyA1vJtESoYOSSuM_yTI1j1jpPGpxx_VGyk",54.04195,-8.76857,"Rue, Rhue, Co. Sligo, Ireland",,APPROXIMATE,Border,31082,Tobercurry,0.73054036217643,16.96804355979741
02/03/2010,"Knockadoo, Coolaney",Sligo,134327.0,No,Second-Hand Dwelling house /Apartment,,ChIJJQBeBrnHXkgRKPZwTiwBlk0,"https://maps.googleapis.com/maps/api/geocode/json?address=Knockadoo,+Coolaney,+Sligo,+Ireland&key=AIzaSyA1vJtESoYOSSuM_yTI1j1jpPGpxx_VGyk",54.152069499999996,-8.665467999999999,"Knockadoo, Rockfield, Co. Sligo, Ireland",,APPROXIMATE,Border,31067/31069,Branchfield/Carrownaskeagh,2.7476213127550397,11.741493078885545
02/03/2010,"Tievboy, Ballymote",Sligo,257000.0,No,Second-Hand Dwelling house /Apartment,,ChIJJVlFpOK-XkgRMHcxl6nHAAo,"https://maps.googleapis.com/maps/api/geocode/json?address=Tievboy,+Ballymote,+Sligo,+Ireland&key=AIzaSyA1vJtESoYOSSuM_yTI1j1jpPGpxx_VGyk",54.08982880000001,-8.5171827,"Ballymote, Co. Sligo, Ireland",,APPROXIMATE,Border,31036,Ballymote,0.20583941233824712,0.28932828889253426
08/03/2010,"36 Stella Maris, Ballisodare",Sligo,114000.0,No,Second-Hand Dwelling house /Apartment,,ChIJ38lbYY3BXkgRMN0xl6nHAAo,"https://maps.googleapis.com/maps/api/geocode/json?address=36+Stella+Maris,+Ballisodare,+Sligo,+Ireland&key=AIzaSyA1vJtESoYOSSuM_yTI1j1jpPGpxx_VGyk",54.212116200000004,-8.5090366,"Knockmuldoney, Ballysadare, Co. Sligo, Ireland",,APPROXIMATE,Border,31046,Collooney,0.17761974869644262,2.9927909186801656
09/03/2010,"31 Temple Manor, Ballinacarrow",Sligo,176211.0,Yes,New Dwelling house /Apartment,greater than 125 sq metres,ChIJqXsdA6rAXkgREkBWnU6YSKY,"https://maps.googleapis.com/maps/api/geocode/json?address=31+Temple+Manor,+Ballinacarrow,+Sligo,+Ireland&key=AIzaSyA1vJtESoYOSSuM_yTI1j1jpPGpxx_VGyk",54.13010970000001,-8.5663237,"31 Temple Manor, Ballynacarrow South, Ballinacarrow, Co. Sligo, F56 XN30, Ireland",F56 XN30,ROOFTOP,Border,31081,Temple,0.5389851840487981,5.517070559053726
16/03/2010,"Kyle'S House, Rathlee",Sligo,405000.0,No,Second-Hand Dwelling house /Apartment,,ChIJocMguJ4yWUgR8Kgxl6nHAAo,"https://maps.googleapis.com/maps/api/geocode/json?address=Kyle'S+House,+Rathlee,+Sligo,+Ireland&key=AIzaSyA1vJtESoYOSSuM_yTI1j1jpPGpxx_VGyk",54.275310499999996,-9.024561300000002,"Rathlee, Co. Sligo, Ireland",,APPROXIMATE,Border,31025,Easky West,0.23416099163376505,35.21138462986282
18/03/2010,"Ardogelly, Templeboy",Sligo,210000.0,No,Second-Hand Dwelling house /Apartment,,ChIJtQlK1KjPXkgRa1G5zCV9WhY,"https://maps.googleapis.com/maps/api/geocode/json?address=Ardogelly,+Templeboy,+Sligo,+Ireland&key=AIzaSyA1vJtESoYOSSuM_yTI1j1jpPGpxx_VGyk",54.25019520000001,-8.780281500000001,"Ardogelly, Co. Sligo, Ireland",,APPROXIMATE,Border,31017,Aughris,0.9804452708517336,19.50475931559044
22/03/2010,"15 Flowerhill, Bunninadden, Ballymote",Sligo,149779.73,Yes,New Dwelling house /Apartment,less than 38 sq metres,ChIJ-SNvVnG5XkgROaxUOkJqaiY,"https://maps.googleapis.com/maps/api/geocode/json?address=15+Flowerhill,+Bunninadden,+Ballymote,+Sligo,+Ireland&key=AIzaSyA1vJtESoYOSSuM_yTI1j1jpPGpxx_VGyk",54.055513,-8.602049300000001,"15 Flowerhill, Ballynaraw North, Bunnanaddan, Co. Sligo, F56 YA27, Ireland",F56 YA27,ROOFTOP,Border,31072,Cloonoghill,0.3513619839672977,6.425414644461376
22/03/2010,"4 Mclynn Terrace, Pearse Road, Sligo",Sligo,142500.0,No,Second-Hand Dwelling house /Apartment,,ChIJmayU5crpXkgRR68Jpx4k2d4,"https://maps.googleapis.com/maps/api/geocode/json?address=4+Mclynn+Terrace,+Pearse+Road,+Sligo,+Ireland&key=AIzaSyA1vJtESoYOSSuM_yTI1j1jpPGpxx_VGyk",54.26651070000001,-8.4695957,"McGlynn's Terrace, Pearse Rd, Abbeyquarter South, Sligo, Ireland",,ROOFTOP,Border,31001,Sligo East,0.15768190203573856,1.0082149294205769
22/03/2010,"43 The Chesnut, Woodstream, Coolaney",Sligo,125000.0,Yes,New Dwelling house /Apartment,less than 38 sq metres,EihXb29kc3RyZWFtLCBDb29sYW5leSwgQ28uIFNsaWdvLCBJcmVsYW5kIi4qLAoUChIJLfqIySbHXkgRzusk-z5olh8SFAoSCcndooJLxl5IEaAI3zepxwAY,"https://maps.googleapis.com/maps/api/geocode/json?address=43+The+Chesnut,+Woodstream,+Coolaney,+Sligo,+Ireland&key=AIzaSyA1vJtESoYOSSuM_yTI1j1jpPGpxx_VGyk",54.16722370000001,-8.607503399999999,"Woodstream, Coolaney, Co. Sligo, Ireland",,GEOMETRIC_CENTER,Border,31073,Coolaney,0.6134562727818812,7.6316426091148415
22/03/2010,"48 Courthouse Drive, Grange",Sligo,160000.0,No,Second-Hand Dwelling house /Apartment,,ChIJj1nQmlHnXkgRwVqUPrs43bI,"https://maps.googleapis.com/maps/api/geocode/json?address=48+Courthouse+Drive,+Grange,+Sligo,+Ireland&key=AIzaSyA1vJtESoYOSSuM_yTI1j1jpPGpxx_VGyk",54.390355299999996,-8.523831399999999,"48 Court House Dr, Newtown, Grange, Co. Sligo, F91 F2P7, Ireland",F91 F2P7,ROOFTOP,Border,31057,Lissadill North,0.2968835580363299,13.409832487698546
22/03/2010,"Cois Na Sidhe, Ballyweelin, Rosses Point",Sligo,835000.0,No,Second-Hand Dwelling house /Apartment,,ChIJeYWv6bPCXkgRBXpcSsO79H4,"https://maps.googleapis.com/maps/api/geocode/json?address=Cois+Na+Sidhe,+Ballyweelin,+Rosses+Point,+Sligo,+Ireland&key=AIzaSyA1vJtESoYOSSuM_yTI1j1jpPGpxx_VGyk",54.30349320000001,-8.529359699999999,"Cois Na Sidhe, Ballyweelin, Rosses Point, Co. Sligo, Ireland",,ROOFTOP,Border,31048,Drumcliff West,1.0600958753268246,4.622425581064343
23/03/2010,"Carrowgun, Enniscrone",Sligo,50000.0,No,Second-Hand Dwelling house /Apartment,,ChIJ1wCmf3wxWUgRgAcyl6nHAAo,"https://maps.googleapis.com/maps/api/geocode/json?address=Carrowgun,+Enniscrone,+Sligo,+Ireland&key=AIzaSyA1vJtESoYOSSuM_yTI1j1jpPGpxx_VGyk",54.213681799999996,-9.0908352,"Enniscrone, Co. Sligo, Ireland",,APPROXIMATE,Border,31026,Kilglass,0.06199422578657169,38.888990811341
25/03/2010,"7 Laurel Lodge Ardfinn, Strandhill Road, Sligo",Sligo,149779.0,Yes,New Dwelling house /Apartment,greater than or equal to 38 sq metres and less than 125 sq metres,ChIJuZZfbynoXkgRhnMtc7pwng8,"https://maps.googleapis.com/maps/api/geocode/json?address=7+Laurel+Lodge+Ardfinn,+Strandhill+Road,+Sligo,+Ireland&key=AIzaSyA1vJtESoYOSSuM_yTI1j1jpPGpxx_VGyk",54.272804,-8.493696000000002,"Laurel Lodge, Ard Finn, Sligo, Ireland",,ROOFTOP,Border,31003,Sligo West,0.5610159042073332,0.7336374994973089
26/03/2010,"Holy Well Road, Sligo",Sligo,151000.0,No,Second-Hand Dwelling house /Apartment,,EhtIb2x5d2VsbCBSZCwgU2xpZ28sIElyZWxhbmQiLiosChQKEgld_PJyveleSBFnyHdFJsr7OxIUChIJ6a58Z7XpXkgRgHMxl6nHAAo,"https://maps.googleapis.com/maps/api/geocode/json?address=Holy+Well+Road,+Sligo,+Ireland&key=AIzaSyA1vJtESoYOSSuM_yTI1j1jpPGpxx_VGyk",54.25699350000001,-8.448282899999999,"Holywell Rd, Sligo, Ireland",,GEOMETRIC_CENTER,Border,31041,Calry,0.5706120048803719,2.7511578184326493
29/03/2010,"'Lawndale', Cornageeha, Sligo",Sligo,260000.0,No,Second-Hand Dwelling house /Apartment,,ChIJ71HoTcTpXkgRQuNOu6fHACY,"https://maps.googleapis.com/maps/api/geocode/json?address='Lawndale',+Cornageeha,+Sligo,+Ireland&key=AIzaSyA1vJtESoYOSSuM_yTI1j1jpPGpxx_VGyk",54.256707999999996,-8.4746629,"Cornageeha, Co. Sligo, Ireland",,APPROXIMATE,Border,31003,Sligo West,0.1529200590108009,1.7636317251546911
29/03/2010,"Lirios, Streedagh Road, Grange",Sligo,320000.0,No,Second-Hand Dwelling house /Apartment,,ChIJ22vPcqvfXkgR0PdocnI8yBM,"https://maps.googleapis.com/maps/api/geocode/json?address=Lirios,+Streedagh+Road,+Grange,+Sligo,+Ireland&key=AIzaSyA1vJtESoYOSSuM_yTI1j1jpPGpxx_VGyk",54.404437699999995,-8.560153699999999,"Streedagh, Co. Sligo, Ireland",,GEOMETRIC_CENTER,Border,31057,Lissadill North,2.691404209729275,15.544302961033061
30/03/2010,"6 The Inlet, Castlecove, Enniscrone",Sligo,105000.0,No,Second-Hand Dwelling house /Apartment,,ChIJx0RQW30xWUgRM3HkYUP5a9s,"https://maps.googleapis.com/maps/api/geocode/json?address=6+The+Inlet,+Castlecove,+Enniscrone,+Sligo,+Ireland&key=AIzaSyA1vJtESoYOSSuM_yTI1j1jpPGpxx_VGyk",54.213265299999996,-9.0847965,"6 The Inlet, Trotts, Enniscrone, Co. Sligo, F26 Y168, Ireland",F26 Y168,ROOFTOP,Border,31026,Kilglass,0.4516065131478759,38.49386809424931
01/04/2010,"48 Crozon Park, Sligo",Sligo,230000.0,No,Second-Hand Dwelling house /Apartment,,ChIJecjPUMnpXkgRoegr1I9F290,"https://maps.googleapis.com/maps/api/geocode/json?address=48+Crozon+Park,+Sligo,+Ireland&key=AIzaSyA1vJtESoYOSSuM_yTI1j1jpPGpxx_VGyk",54.2622605,-8.472100900000001,"48 Crozon Park, Knocknaganny, Sligo, F91 C8XF, Ireland",F91 C8XF,ROOFTOP,Border,31003,Sligo West,0.16243953822273474,1.2569129168947493
01/04/2010,"No. 3 Brookgrove, Farmhill, Off Strandhill Road",Sligo,229074.88,Yes,New Dwelling house /Apartment,greater than 125 sq metres,ChIJ1XybhynoXkgRD5NglWTGX70,"https://maps.googleapis.com/maps/api/geocode/json?address=No.+3+Brookgrove,+Farmhill,+Off+Strandhill+Road,+Sligo,+Ireland&key=AIzaSyA1vJtESoYOSSuM_yTI1j1jpPGpxx_VGyk",54.272036,-8.4954933,"3 Strandhill Rd, Brooke Grove, Rathedmond, Sligo, F91 T2D6, Ireland",F91 T2D6,ROOFTOP,Border,31003,Sligo West,0.5674674394239334,0.8479456208533429
01/04/2010,"No. 5 Sea Crest, Top Road, Strandhill",Sligo,197500.0,No,Second-Hand Dwelling house /Apartment,,ChIJI1xpL9PCXkgRL6uvmmWwbh8,"https://maps.googleapis.com/maps/api/geocode/json?address=No.+5+Sea+Crest,+Top+Road,+Strandhill,+Sligo,+Ireland&key=AIzaSyA1vJtESoYOSSuM_yTI1j1jpPGpxx_VGyk",54.30538470000001,-8.558661500000001,"Sea Crest, Rosses Upper, Rosses Point, Co. Sligo, Ireland",,ROOFTOP,Border,31048,Drumcliff West,0.4269350630981908,6.171110570147707
09/04/2010,"68 The Ash, Woodstream, Coolaney",Sligo,158590.3,Yes,New Dwelling house /Apartment,greater than 125 sq metres,ChIJb1Xt5MjpXkgRTNWhPBiLQJw,"https://maps.googleapis.com/maps/api/geocode/json?address=68+The+Ash,+Woodstream,+Coolaney,+Sligo,+Ireland&key=AIzaSyA1vJtESoYOSSuM_yTI1j1jpPGpxx_VGyk",54.25963309999999,-8.469422900000001,"The Ash, Highfield Rd, Commons, Sligo, Ireland",,ROOFTOP,Border,31003,Sligo West,0.12955769033764936,1.5970281534949815
09/04/2010,"Carnaree, Ballymote",Sligo,120000.0,No,Second-Hand Dwelling house /Apartment,,ChIJJVlFpOK-XkgRMHcxl6nHAAo,"https://maps.googleapis.com/maps/api/geocode/json?address=Carnaree,+Ballymote,+Sligo,+Ireland&key=AIzaSyA1vJtESoYOSSuM_yTI1j1jpPGpxx_VGyk",54.08982880000001,-8.5171827,"Ballymote, Co. Sligo, Ireland",,APPROXIMATE,Border,31036,Ballymote,0.20583941233824712,0.28932828889253426
09/04/2010,"Carricknagat, Ballisodare",Sligo,275000.0,No,Second-Hand Dwelling house /Apartment,,ChIJG86gJ8HBXkgRjfvzMDj0xMg,"https://maps.googleapis.com/maps/api/geocode/json?address=Carricknagat,+Ballisodare,+Sligo,+Ireland&key=AIzaSyA1vJtESoYOSSuM_yTI1j1jpPGpxx_VGyk",54.19416139999999,-8.501692,"Carricknagat, River View, Co. Sligo, Ireland",,APPROXIMATE,Border,31038,Ballysadare East,0.489557172479413,0.9590180051710552
12/04/2010,"Carnaree, Ballymote",Sligo,280000.0,No,Second-Hand Dwelling house /Apartment,,ChIJJVlFpOK-XkgRMHcxl6nHAAo,"https://maps.googleapis.com/maps/api/geocode/json?address=Carnaree,+Ballymote,+Sligo,+Ireland&key=AIzaSyA1vJtESoYOSSuM_yTI1j1jpPGpxx_VGyk",54.08982880000001,-8.5171827,"Ballymote, Co. Sligo, Ireland",,APPROXIMATE,Border,31036,Ballymote,0.20583941233824712,0.28932828889253426
14/04/2010,"118 Rusheen Ard, Caltragh",Sligo,165000.0,No,Second-Hand Dwelling house /Apartment,,ChIJu8fCRs_pXkgR8WVuiI2WxcY,"https://maps.googleapis.com/maps/api/geocode/json?address=118+Rusheen+Ard,+Caltragh,+Sligo,+Ireland&key=AIzaSyA1vJtESoYOSSuM_yTI1j1jpPGpxx_VGyk",54.25823949999999,-8.4729086,"118 Rusheen Árd, Cornageeha, Caltragh, Co. Sligo, F91 C86H, Ireland",F91 C86H,ROOFTOP,Border,31003,Sligo West,0.2222762429418708,1.6377081605731605
14/04/2010,"20 Fairways, Tubbercurry",Sligo,66079.3,Yes,New Dwelling house /Apartment,greater than or equal to 38 sq metres and less than 125 sq metres,EiMyMCBUaGUgRmFpcndheXMsIENvLiBTbGlnbywgSXJlbGFuZCIaEhgKFAoSCaUOr309t15IEREFqCORhsN6EBQ,"https://maps.googleapis.com/maps/api/geocode/json?address=20+Fairways,+Tubbercurry,+Sligo,+Ireland&key=AIzaSyA1vJtESoYOSSuM_yTI1j1jpPGpxx_VGyk",54.052587100000004,-8.7119537,"20 The Fairways, Oghambaun, Co. Sligo, Ireland",,RANGE_INTERPOLATED,Border,31082,Tobercurry,1.1812652965022268,13.086021192343091
14/04/2010,"21 Seaview Drive, Cartron, Sligo",Sligo,190000.0,No,Second-Hand Dwelling house /Apartment,,ChIJ8VnHzTvoXkgRmAdTLIzXXT4,"https://maps.googleapis.com/maps/api/geocode/json?address=21+Seaview+Drive,+Cartron,+Sligo,+Ireland&key=AIzaSyA1vJtESoYOSSuM_yTI1j1jpPGpxx_VGyk",54.28158829999999,-8.480039199999998,"21 Seaview Dr, Cartron, Sligo, F91 T2R1, Ireland",F91 T2R1,ROOFTOP,Border,31002,Sligo North,0.13061162785509586,1.051915430439857
14/04/2010,"27 Fairways, Tubbercurry",Sligo,66079.3,Yes,New Dwelling house /Apartment,greater than or equal to 38 sq metres and less than 125 sq metres,EiMyNyBUaGUgRmFpcndheXMsIENvLiBTbGlnbywgSXJlbGFuZCIaEhgKFAoSCaUOr309t15IEREFqCORhsN6EBs,"https://maps.googleapis.com/maps/api/geocode/json?address=27+Fairways,+Tubbercurry,+Sligo,+Ireland&key=AIzaSyA1vJtESoYOSSuM_yTI1j1jpPGpxx_VGyk",54.052587100000004,-8.7119537,"27 The Fairways, Oghambaun, Co. Sligo, Ireland",,RANGE_INTERPOLATED,Border,31082,Tobercurry,1.1812652965022268,13.086021192343091
15/04/2010,"59 The Hawthorn, 'Woodstream', Carrownacleigha, Coolaney",Sligo,102511.02,Yes,New Dwelling house /Apartment,greater than or equal to 38 sq metres and less than 125 sq metres,EilXb29kc3RyZWFtLCBSb2NrZmllbGQsIENvLiBTbGlnbywgSXJlbGFuZCIuKiwKFAoSCS36iMkmx15IEc7rJPs-aJYfEhQKEglBrvJIIMdeSBFyc8cZqMcAJg,"https://maps.googleapis.com/maps/api/geocode/json?address=59+The+Hawthorn,+'Woodstream',+Carrownacleigha,+Coolaney,+Sligo,+Ireland&key=AIzaSyA1vJtESoYOSSuM_yTI1j1jpPGpxx_VGyk",54.166804299999995,-8.6088439,"Woodstream, Rockfield, Co. Sligo, Ireland",,GEOMETRIC_CENTER,Border,31073,Coolaney,0.6929084089105029,7.7285392629293455
15/04/2010,"6 (Otherwise 6A) Upper John Street, Sligo",Sligo,50000.0,No,Second-Hand Dwelling house /Apartment,,ChIJ_YBu-jLoXkgRL2VABaABxpc,"https://maps.googleapis.com/maps/api/geocode/json?address=6+(Otherwise+6A)+Upper+John+Street,+Sligo,+Ireland&key=AIzaSyA1vJtESoYOSSuM_yTI1j1jpPGpxx_VGyk",54.26988589999999,-8.479897099999999,"6A Upper John St, Abbeyquarter North, Sligo, F91 EK4P, Ireland",F91 EK4P,ROOFTOP,Border,31003,Sligo West,0.21664151438620904,0.269059321362056
15/04/2010,"6 (Otherwise 6A) Upper John Street, Sligo",Sligo,50000.0,No,Second-Hand Dwelling house /Apartment,,ChIJ_YBu-jLoXkgRL2VABaABxpc,"https://maps.googleapis.com/maps/api/geocode/json?address=6+(Otherwise+6A)+Upper+John+Street,+Sligo,+Ireland&key=AIzaSyA1vJtESoYOSSuM_yTI1j1jpPGpxx_VGyk",54.26988589999999,-8.479897099999999,"6A Upper John St, Abbeyquarter North, Sligo, F91 EK4P, Ireland",F91 EK4P,ROOFTOP,Border,31003,Sligo West,0.21664151438620904,0.269059321362056
15/04/2010,"Rathscanlon, Charlestown Road, Tubbercurry",Sligo,60000.0,No,Second-Hand Dwelling house /Apartment,,ChIJs7q_0t22XkgRgbvXOehTAYg,"https://maps.googleapis.com/maps/api/geocode/json?address=Rathscanlon,+Charlestown+Road,+Tubbercurry,+Sligo,+Ireland&key=AIzaSyA1vJtESoYOSSuM_yTI1j1jpPGpxx_VGyk",54.04826869999999,-8.736569900000001,"Charlestown Rd, Rathscanlan, Co. Sligo, Ireland",,GEOMETRIC_CENTER,Border,31082,Tobercurry,0.6226119086411716,14.763437323574074
16/04/2010,"12 Waterside Lane, Strandhill",Sligo,290000.0,Yes,New Dwelling house /Apartment,greater than or equal to 38 sq metres and less than 125 sq metres,ChIJpRjWGxLDXkgRbagzIiye8Y4,"https://maps.googleapis.com/maps/api/geocode/json?address=12+Waterside+Lane,+Strandhill,+Sligo,+Ireland&key=AIzaSyA1vJtESoYOSSuM_yTI1j1jpPGpxx_VGyk",54.2723483,-8.582145299999999,"12 Waterside Ln, Larass, Strandhill, Co. Sligo, F91 N6Y2, Ireland",F91 N6Y2,ROOFTOP,Border,31053,Knockaree,0.10114867968247376,6.475784944367791
16/04/2010,"Fetherneen, Ballinacarrow",Sligo,140000.0,No,Second-Hand Dwelling house /Apartment,,ChIJoTb0ZEPHXkgRO_a2RqNt0I8,"https://maps.googleapis.com/maps/api/geocode/json?address=Fetherneen,+Ballinacarrow,+Sligo,+Ireland&key=AIzaSyA1vJtESoYOSSuM_yTI1j1jpPGpxx_VGyk",54.1394946,-8.599948800000002,"Fetherneen, Rockfield, Co. Sligo, Ireland",,APPROXIMATE,Border,31081,Temple,2.6113585786110747,7.685018528105624
19/04/2010,"22 Cois Na Habhainn, Gurteen",Sligo,105000.0,Yes,New Dwelling house /Apartment,greater than or equal to 38 sq metres and less than 125 sq metres,ChIJjb8QFIW8XkgRX2EXrG4ynDc,"https://maps.googleapis.com/maps/api/geocode/json?address=22+Cois+Na+Habhainn,+Gurteen,+Sligo,+Ireland&key=AIzaSyA1vJtESoYOSSuM_yTI1j1jpPGpxx_VGyk",53.99204770000001,-8.517503199999998,"22 Cois Na h'Abhainn, Gorteen, Co. Sligo, F56 AX75, Ireland",F56 AX75,ROOFTOP,Border,31007,Cuilmore,0.5430508219185437,10.695239368818546
19/04/2010,"95 Crozon Park, Sligo",Sligo,123333.33,No,Second-Hand Dwelling house /Apartment,,ChIJa1Z2DszpXkgRc37Uu9BMZt8,"https://maps.googleapis.com/maps/api/geocode/json?address=95+Crozon+Park,+Sligo,+Ireland&key=AIzaSyA1vJtESoYOSSuM_yTI1j1jpPGpxx_VGyk",54.2635387,-8.474081199999999,"95 Crozon Park, Knocknaganny, Sligo, F91 DY2T, Ireland",F91 DY2T,ROOFTOP,Border,31003,Sligo West,0.07838757679202439,1.0696625121628478
19/04/2010,"Kilmacshalgan, Dromore West",Sligo,190000.0,No,Second-Hand Dwelling house /Apartment,,ChIJs92yksjNXkgREKsxl6nHAAo,"https://maps.googleapis.com/maps/api/geocode/json?address=Kilmacshalgan,+Dromore+West,+Sligo,+Ireland&key=AIzaSyA1vJtESoYOSSuM_yTI1j1jpPGpxx_VGyk",54.2495094,-8.879926199999998,"Knockaculleen, Dromore West, Co. Sligo, Ireland",,APPROXIMATE,Border,31023,Dromore,0.3070196047240764,25.947446964294876
20/04/2010,"6 St. Anne'S Terrace, Sligo",Sligo,103000.0,No,Second-Hand Dwelling house /Apartment,,ChIJRRr7XTXoXkgRBTPAyXXXebY,"https://maps.googleapis.com/maps/api/geocode/json?address=6+St.+Anne'S+Terrace,+Sligo,+Ireland&key=AIzaSyA1vJtESoYOSSuM_yTI1j1jpPGpxx_VGyk",54.26975239999999,-8.4682082,"6 St Annes Terrace, Abbeyquarter North, Sligo, F91 XWF3, Ireland",F91 XWF3,ROOFTOP,Border,31001,Sligo East,0.1016062249223244,0.9256049443072656
22/04/2010,"21 Cois Na Habhainn, Gurteen",Sligo,100000.0,Yes,New Dwelling house /Apartment,greater than or equal to 38 sq metres and less than 125 sq metres,ChIJq3WNE4W8XkgR1w4jDj1cSQY,"https://maps.googleapis.com/maps/api/geocode/json?address=21+Cois+Na+Habhainn,+Gurteen,+Sligo,+Ireland&key=AIzaSyA1vJtESoYOSSuM_yTI1j1jpPGpxx_VGyk",53.99214749999999,-8.517469699999998,"21 Cois Na h'Abhainn, Gorteen, Co. Sligo, F56 H048, Ireland",F56 H048,ROOFTOP,Border,31007,Cuilmore,0.5357398182787273,10.684186022406095
22/04/2010,"56 White Strand, Aylesbury Park, Knappaghmore",Sligo,175682.0,Yes,New Dwelling house /Apartment,less than 38 sq metres,ChIJ6z1aoIXCXkgRTXcZhCYUSDw,"https://maps.googleapis.com/maps/api/geocode/json?address=56+White+Strand,+Aylesbury+Park,+Knappaghmore,+Sligo,+Ireland&key=AIzaSyA1vJtESoYOSSuM_yTI1j1jpPGpxx_VGyk",54.27344640000001,-8.511939,"56 Whitestrand, Aylesbury Park, Sligo, F91 RY6F, Ireland",F91 RY6F,ROOFTOP,Border,31053,Knockaree,0.17585572727374982,1.9205138164225115
22/04/2010,"64 The Hawthorn, Carrownacleigha, Coolaney",Sligo,101360.56,Yes,New Dwelling house /Apartment,greater than or equal to 38 sq metres and less than 125 sq metres,ChIJQa7ySCDHXkgRcnPHGajHACY,"https://maps.googleapis.com/maps/api/geocode/json?address=64+The+Hawthorn,+Carrownacleigha,+Coolaney,+Sligo,+Ireland&key=AIzaSyA1vJtESoYOSSuM_yTI1j1jpPGpxx_VGyk",54.167980799999995,-8.619836099999999,"Carrownacleigha, Rockfield, Co. Sligo, Ireland",,APPROXIMATE,Border,31073,Coolaney,0.12076354567904912,8.384400010307376
26/04/2010,"4 Larkhill Road, Sligo",Sligo,85000.0,No,Second-Hand Dwelling house /Apartment,,ChIJXSxnoyroXkgR5Wd2JoUDsn8,"https://maps.googleapis.com/maps/api/geocode/json?address=4+Larkhill+Road,+Sligo,+Ireland&key=AIzaSyA1vJtESoYOSSuM_yTI1j1jpPGpxx_VGyk",54.267488,-8.496269,"4 Larkhill Rd, Knappagh Beg, Sligo, F91 NW6E, Ireland",F91 NW6E,ROOFTOP,Border,31003,Sligo West,0.07244451811705596,1.0397253072486317
26/04/2010,"Carrowcarden, Enniscrone",Sligo,300000.0,No,Second-Hand Dwelling house /Apartment,,ChIJ8Q3PWD8xWUgRbhZxFsKTifQ,"https://maps.googleapis.com/maps/api/geocode/json?address=Carrowcarden,+Enniscrone,+Sligo,+Ireland&key=AIzaSyA1vJtESoYOSSuM_yTI1j1jpPGpxx_VGyk",54.19625600000001,-9.1091747,"Carrowcardin, Knockroe, Co. Sligo, Ireland",,APPROXIMATE,Border,31020,Castleconor West,2.2131428492229106,39.98721056441836
27/04/2010,"20 Cois Abhainn, Gurteen",Sligo,103964.75,Yes,New Dwelling house /Apartment,greater than or equal to 38 sq metres and less than 125 sq metres,ChIJOeKYE4W8XkgRA5XSubRe9-Y,"https://maps.googleapis.com/maps/api/geocode/json?address=20+Cois+Abhainn,+Gurteen,+Sligo,+Ireland&key=AIzaSyA1vJtESoYOSSuM_yTI1j1jpPGpxx_VGyk",53.992188399999996,-8.5174184,"20 Cois Na h'Abhainn, Gorteen, Co. Sligo, F56 HH00, Ireland",F56 HH00,ROOFTOP,Border,31007,Cuilmore,0.5343477988767074,10.679707606342602
27/04/2010,"20 Cois Na Habahainn, Gurteen",Sligo,103964.75,Yes,New Dwelling house /Apartment,greater than or equal to 38 sq metres and less than 125 sq metres,ChIJOeKYE4W8XkgRA5XSubRe9-Y,"https://maps.googleapis.com/maps/api/geocode/json?address=20+Cois+Na+Habahainn,+Gurteen,+Sligo,+Ireland&key=AIzaSyA1vJtESoYOSSuM_yTI1j1jpPGpxx_VGyk",53.992188399999996,-8.5174184,"20 Cois Na h'Abhainn, Gorteen, Co. Sligo, F56 HH00, Ireland",F56 HH00,ROOFTOP,Border,31007,Cuilmore,0.5343477988767074,10.679707606342602
27/04/2010,"Grattan St, Ballymote",Sligo,80000.0,No,Second-Hand Dwelling house /Apartment,,ChIJAdzddP2-XkgRd7U-Hz0tyJU,"https://maps.googleapis.com/maps/api/geocode/json?address=Grattan+St,+Ballymote,+Sligo,+Ireland&key=AIzaSyA1vJtESoYOSSuM_yTI1j1jpPGpxx_VGyk",54.088958,-8.513276,"Grattan Street, Ballymote, Co. Sligo, Ireland",,GEOMETRIC_CENTER,Border,31036,Ballymote,0.16724128310891478,0.4949159916406
28/04/2010,"Dunneil, Dromore West",Sligo,150000.0,Yes,New Dwelling house /Apartment,greater than or equal to 38 sq metres and less than 125 sq metres,ChIJs92yksjNXkgREKsxl6nHAAo,"https://maps.googleapis.com/maps/api/geocode/json?address=Dunneil,+Dromore+West,+Sligo,+Ireland&key=AIzaSyA1vJtESoYOSSuM_yTI1j1jpPGpxx_VGyk",54.2495094,-8.879926199999998,"Knockaculleen, Dromore West, Co. Sligo, Ireland",,APPROXIMATE,Border,31023,Dromore,0.3070196047240764,25.947446964294876
29/04/2010,"11 The Green, Ocean Links, Strandhill",Sligo,320000.0,No,Second-Hand Dwelling house /Apartment,,ChIJI_l3znDDXkgRUvOWRsf_ris,"https://maps.googleapis.com/maps/api/geocode/json?address=11+The+Green,+Ocean+Links,+Strandhill,+Sligo,+Ireland&key=AIzaSyA1vJtESoYOSSuM_yTI1j1jpPGpxx_VGyk",54.26495,-8.599079999999999,"Carrowbunnaun, Ocean Links, Co. Sligo, Ireland",,APPROXIMATE,Border,31053,Knockaree,0.5231959638845197,7.619594997021418
29/04/2010,"18 Carrowhubbock Holkiday Village, Enniscrone",Sligo,140000.0,No,Second-Hand Dwelling house /Apartment,,ChIJt0bvyX4xWUgR_ZD8FBjlMu0,"https://maps.googleapis.com/maps/api/geocode/json?address=18+Carrowhubbock+Holkiday+Village,+Enniscrone,+Sligo,+Ireland&key=AIzaSyA1vJtESoYOSSuM_yTI1j1jpPGpxx_VGyk",54.2185924,-9.0927242,"18 Carrowhubbock Holiday Village, Carrowhubbuck South, Enniscrone, Co. Sligo, F26 WN77, Ireland",F26 WN77,ROOFTOP,Border,31026,Kilglass,0.5713885430037017,39.0554790451376
29/04/2010,"Carrowreagh Cooper, Tubbercurry",Sligo,125000.0,No,Second-Hand Dwelling house /Apartment,,ChIJRxsQ6uC2XkgRQCcyl6nHAAo,"https://maps.googleapis.com/maps/api/geocode/json?address=Carrowreagh+Cooper,+Tubbercurry,+Sligo,+Ireland&key=AIzaSyA1vJtESoYOSSuM_yTI1j1jpPGpxx_VGyk",54.05522579999999,-8.7298236,"Tobercurry, Co. Sligo, Ireland",,APPROXIMATE,Border,31082,Tobercurry,0.13139174013179564,14.12265879563936
30/04/2010,"Calry, Sligo",Sligo,135000.0,No,Second-Hand Dwelling house /Apartment,,ChIJKy9M-NDoXkgRkM3fN6nHABg,"https://maps.googleapis.com/maps/api/geocode/json?address=Calry,+Sligo,+Ireland&key=AIzaSyA1vJtESoYOSSuM_yTI1j1jpPGpxx_VGyk",54.28435210000001,-8.3944489,"Colgagh, Calry, Co. Sligo, Ireland",,APPROXIMATE,Border,31041,Calry,0.07470019021430584,5.843603164184836
07/05/2010,"Larkhill Lodge, Larkhill Road, Sligo",Sligo,590000.0,No,Second-Hand Dwelling house /Apartment,,ChIJCdUzJ4DCXkgRijFfQ1AA-uo,"https://maps.googleapis.com/maps/api/geocode/json?address=Larkhill+Lodge,+Larkhill+Road,+Sligo,+Ireland&key=AIzaSyA1vJtESoYOSSuM_yTI1j1jpPGpxx_VGyk",54.26808689999999,-8.497436800000001,"Larkhill Lodge, Larkhill Rd, Knappagh Beg, Sligo, Ireland",,ROOFTOP,Border,31003,Sligo West,0.16507581165934962,1.0761269824939064
07/05/2010,"Lugdoon, Templeboy",Sligo,120000.0,No,Second-Hand Dwelling house /Apartment,,ChIJHyQyg-XOXkgRwqG6GajHACY,"https://maps.googleapis.com/maps/api/geocode/json?address=Lugdoon,+Templeboy,+Sligo,+Ireland&key=AIzaSyA1vJtESoYOSSuM_yTI1j1jpPGpxx_VGyk",54.2266889,-8.804186900000003,"Lugdoon, Co. Sligo, Ireland",,APPROXIMATE,Border,31030,Templeboy North,1.915290253356863,20.60951236274905
07/05/2010,"No 1 Cluainin Na Mbo, Carrowhubbock South, Enniscrone",Sligo,166500.0,No,Second-Hand Dwelling house /Apartment,,ChIJB0nmB4ExWUgRj18EzAY2Fhs,"https://maps.googleapis.com/maps/api/geocode/json?address=No+1+Cluainin+Na+Mbo,+Carrowhubbock+South,+Enniscrone,+Sligo,+Ireland&key=AIzaSyA1vJtESoYOSSuM_yTI1j1jpPGpxx_VGyk",54.22549770000001,-9.0927149,"1 Cluainín Na mBó, Carrowhubbuck South, Enniscrone, Co. Sligo, F26 HY27, Ireland",F26 HY27,ROOFTOP,Border,31026,Kilglass,1.3373243706125684,39.1295050994031
07/05/2010,"St. Anne'S, Killeenduff, Easkey",Sligo,260000.0,No,Second-Hand Dwelling house /Apartment,,ChIJf5UJBKPSXkgR3buKHf8uyZE,"https://maps.googleapis.com/maps/api/geocode/json?address=St.+Anne'S,+Killeenduff,+Easkey,+Sligo,+Ireland&key=AIzaSyA1vJtESoYOSSuM_yTI1j1jpPGpxx_VGyk",54.2853225,-8.960550900000003,"Shannonspark West, Keadue, Co. Sligo, Ireland",,GEOMETRIC_CENTER,Border,31025,Easky West,0.10543705393330788,31.08269957598268
11/05/2010,"12 Old Bundoran Road, Sligo",Sligo,135500.0,No,Second-Hand Dwelling house /Apartment,,ChIJvWHSaUHoXkgR4Ma0tkHv3wY,"https://maps.googleapis.com/maps/api/geocode/json?address=12+Old+Bundoran+Road,+Sligo,+Ireland&key=AIzaSyA1vJtESoYOSSuM_yTI1j1jpPGpxx_VGyk",54.2865076,-8.466617800000002,"12 Old Bundoran Rd, Rathbraghan, Sligo, F91 C2H0, Ireland",F91 C2H0,ROOFTOP,Border,31002,Sligo North,0.07124153374285751,1.891048286016444
12/05/2010,"1 The Fairways, Tubbercurry",Sligo,102703.38,Yes,New Dwelling house /Apartment,greater than or equal to 38 sq metres and less than 125 sq metres,EiIxIFRoZSBGYWlyd2F5cywgQ28uIFNsaWdvLCBJcmVsYW5kIhoSGAoUChIJpQ6vfT23XkgREQWoI5GGw3oQAQ,"https://maps.googleapis.com/maps/api/geocode/json?address=1+The+Fairways,+Tubbercurry,+Sligo,+Ireland&key=AIzaSyA1vJtESoYOSSuM_yTI1j1jpPGpxx_VGyk",54.052587100000004,-8.7119537,"1 The Fairways, Oghambaun, Co. Sligo, Ireland",,RANGE_INTERPOLATED,Border,31082,Tobercurry,1.1812652965022268,13.086021192343091
12/05/2010,"12 The Fairways, Tubbercurry",Sligo,102703.32,Yes,New Dwelling house /Apartment,greater than or equal to 38 sq metres and less than 125 sq metres,EiMxMiBUaGUgRmFpcndheXMsIENvLiBTbGlnbywgSXJlbGFuZCIaEhgKFAoSCaUOr309t15IEREFqCORhsN6EAw,"https://maps.googleapis.com/maps/api/geocode/json?address=12+The+Fairways,+Tubbercurry,+Sligo,+Ireland&key=AIzaSyA1vJtESoYOSSuM_yTI1j1jpPGpxx_VGyk",54.052587100000004,-8.7119537,"12 The Fairways, Oghambaun, Co. Sligo, Ireland",,RANGE_INTERPOLATED,Border,31082,Tobercurry,1.1812652965022268,13.086021192343091
12/05/2010,"13 The Fairways, Tubbercurry",Sligo,102703.32,Yes,New Dwelling house /Apartment,greater than or equal to 38 sq metres and less than 125 sq metres,EiMxMyBUaGUgRmFpcndheXMsIENvLiBTbGlnbywgSXJlbGFuZCIaEhgKFAoSCaUOr309t15IEREFqCORhsN6EA0,"https://maps.googleapis.com/maps/api/geocode/json?address=13+The+Fairways,+Tubbercurry,+Sligo,+Ireland&key=AIzaSyA1vJtESoYOSSuM_yTI1j1jpPGpxx_VGyk",54.052587100000004,-8.7119537,"13 The Fairways, Oghambaun, Co. Sligo, Ireland",,RANGE_INTERPOLATED,Border,31082,Tobercurry,1.1812652965022268,13.086021192343091
12/05/2010,"14 The Fairways, Tubbercurry",Sligo,102703.38,Yes,New Dwelling house /Apartment,greater than or equal to 38 sq metres and less than 125 sq metres,EiMxNCBUaGUgRmFpcndheXMsIENvLiBTbGlnbywgSXJlbGFuZCIaEhgKFAoSCaUOr309t15IEREFqCORhsN6EA4,"https://maps.googleapis.com/maps/api/geocode/json?address=14+The+Fairways,+Tubbercurry,+Sligo,+Ireland&key=AIzaSyA1vJtESoYOSSuM_yTI1j1jpPGpxx_VGyk",54.052587100000004,-8.7119537,"14 The Fairways, Oghambaun, Co. Sligo, Ireland",,RANGE_INTERPOLATED,Border,31082,Tobercurry,1.1812652965022268,13.086021192343091
12/05/2010,"15 The Fairways, Tubercurry",Sligo,102703.38,Yes,New Dwelling house /Apartment,greater than or equal to 38 sq metres and less than 125 sq metres,EiMxNSBUaGUgRmFpcndheXMsIENvLiBTbGlnbywgSXJlbGFuZCIaEhgKFAoSCaUOr309t15IEREFqCORhsN6EA8,"https://maps.googleapis.com/maps/api/geocode/json?address=15+The+Fairways,+Tubercurry,+Sligo,+Ireland&key=AIzaSyA1vJtESoYOSSuM_yTI1j1jpPGpxx_VGyk",54.052587100000004,-8.7119537,"15 The Fairways, Oghambaun, Co. Sligo, Ireland",,RANGE_INTERPOLATED,Border,31082,Tobercurry,1.1812652965022268,13.086021192343091
12/05/2010,"16 The Fairways, Tubbercurry",Sligo,102703.38,Yes,New Dwelling house /Apartment,greater than or equal to 38 sq metres and less than 125 sq metres,EiMxNiBUaGUgRmFpcndheXMsIENvLiBTbGlnbywgSXJlbGFuZCIaEhgKFAoSCaUOr309t15IEREFqCORhsN6EBA,"https://maps.googleapis.com/maps/api/geocode/json?address=16+The+Fairways,+Tubbercurry,+Sligo,+Ireland&key=AIzaSyA1vJtESoYOSSuM_yTI1j1jpPGpxx_VGyk",54.052587100000004,-8.7119537,"16 The Fairways, Oghambaun, Co. Sligo, Ireland",,RANGE_INTERPOLATED,Border,31082,Tobercurry,1.1812652965022268,13.086021192343091
12/05/2010,"2 The Fairways, Tubbercurry",Sligo,102703.38,Yes,New Dwelling house /Apartment,greater than or equal to 38 sq metres and less than 125 sq metres,EiIyIFRoZSBGYWlyd2F5cywgQ28uIFNsaWdvLCBJcmVsYW5kIhoSGAoUChIJpQ6vfT23XkgREQWoI5GGw3oQAg,"https://maps.googleapis.com/maps/api/geocode/json?address=2+The+Fairways,+Tubbercurry,+Sligo,+Ireland&key=AIzaSyA1vJtESoYOSSuM_yTI1j1jpPGpxx_VGyk",54.052587100000004,-8.7119537,"2 The Fairways, Oghambaun, Co. Sligo, Ireland",,RANGE_INTERPOLATED,Border,31082,Tobercurry,1.1812652965022268,13.086021192343091
12/05/2010,"3 The Fairways, Tubbercurry",Sligo,102703.38,Yes,New Dwelling house /Apartment,greater than or equal to 38 sq metres and less than 125 sq metres,EiIzIFRoZSBGYWlyd2F5cywgQ28uIFNsaWdvLCBJcmVsYW5kIhoSGAoUChIJpQ6vfT23XkgREQWoI5GGw3oQAw,"https://maps.googleapis.com/maps/api/geocode/json?address=3+The+Fairways,+Tubbercurry,+Sligo,+Ireland&key=AIzaSyA1vJtESoYOSSuM_yTI1j1jpPGpxx_VGyk",54.052587100000004,-8.7119537,"3 The Fairways, Oghambaun, Co. Sligo, Ireland",,RANGE_INTERPOLATED,Border,31082,Tobercurry,1.1812652965022268,13.086021192343091
12/05/2010,"4 The Fairways, Tubercurry",Sligo,102703.38,Yes,New Dwelling house /Apartment,greater than or equal to 38 sq metres and less than 125 sq metres,EiI0IFRoZSBGYWlyd2F5cywgQ28uIFNsaWdvLCBJcmVsYW5kIhoSGAoUChIJpQ6vfT23XkgREQWoI5GGw3oQBA,"https://maps.googleapis.com/maps/api/geocode/json?address=4+The+Fairways,+Tubercurry,+Sligo,+Ireland&key=AIzaSyA1vJtESoYOSSuM_yTI1j1jpPGpxx_VGyk",54.052587100000004,-8.7119537,"4 The Fairways, Oghambaun, Co. Sligo, Ireland",,RANGE_INTERPOLATED,Border,31082,Tobercurry,1.1812652965022268,13.086021192343091
12/05/2010,"5 The Fairways, Tubbercurry",Sligo,102703.38,Yes,New Dwelling house /Apartment,greater than or equal to 38 sq metres and less than 125 sq metres,EiI1IFRoZSBGYWlyd2F5cywgQ28uIFNsaWdvLCBJcmVsYW5kIhoSGAoUChIJpQ6vfT23XkgREQWoI5GGw3oQBQ,"https://maps.googleapis.com/maps/api/geocode/json?address=5+The+Fairways,+Tubbercurry,+Sligo,+Ireland&key=AIzaSyA1vJtESoYOSSuM_yTI1j1jpPGpxx_VGyk",54.052587100000004,-8.7119537,"5 The Fairways, Oghambaun, Co. Sligo, Ireland",,RANGE_INTERPOLATED,Border,31082,Tobercurry,1.1812652965022268,13.086021192343091
12/05/2010,"6 The Fairways, Tubbercurry",Sligo,102703.38,Yes,New Dwelling house /Apartment,greater than or equal to 38 sq metres and less than 125 sq metres,EiI2IFRoZSBGYWlyd2F5cywgQ28uIFNsaWdvLCBJcmVsYW5kIhoSGAoUChIJpQ6vfT23XkgREQWoI5GGw3oQBg,"https://maps.googleapis.com/maps/api/geocode/json?address=6+The+Fairways,+Tubbercurry,+Sligo,+Ireland&key=AIzaSyA1vJtESoYOSSuM_yTI1j1jpPGpxx_VGyk",54.052587100000004,-8.7119537,"6 The Fairways, Oghambaun, Co. Sligo, Ireland",,RANGE_INTERPOLATED,Border,31082,Tobercurry,1.1812652965022268,13.086021192343091
12/05/2010,"7 The Fairways, Tubbercurry",Sligo,102703.38,Yes,New Dwelling house /Apartment,greater than or equal to 38 sq metres and less than 125 sq metres,EiI3IFRoZSBGYWlyd2F5cywgQ28uIFNsaWdvLCBJcmVsYW5kIhoSGAoUChIJpQ6vfT23XkgREQWoI5GGw3oQBw,"https://maps.googleapis.com/maps/api/geocode/json?address=7+The+Fairways,+Tubbercurry,+Sligo,+Ireland&key=AIzaSyA1vJtESoYOSSuM_yTI1j1jpPGpxx_VGyk",54.052587100000004,-8.7119537,"7 The Fairways, Oghambaun, Co. Sligo, Ireland",,RANGE_INTERPOLATED,Border,31082,Tobercurry,1.1812652965022268,13.086021192343091
12/05/2010,"8 The Fairways, Tubbercurry",Sligo,102703.38,Yes,New Dwelling house /Apartment,greater than or equal to 38 sq metres and less than 125 sq metres,EiI4IFRoZSBGYWlyd2F5cywgQ28uIFNsaWdvLCBJcmVsYW5kIhoSGAoUChIJpQ6vfT23XkgREQWoI5GGw3oQCA,"https://maps.googleapis.com/maps/api/geocode/json?address=8+The+Fairways,+Tubbercurry,+Sligo,+Ireland&key=AIzaSyA1vJtESoYOSSuM_yTI1j1jpPGpxx_VGyk",54.052587100000004,-8.7119537,"8 The Fairways, Oghambaun, Co. Sligo, Ireland",,RANGE_INTERPOLATED,Border,31082,Tobercurry,1.1812652965022268,13.086021192343091
12/05/2010,"9 The Fairways, Tubbercurry",Sligo,102703.38,Yes,New Dwelling house /Apartment,greater than or equal to 38 sq metres and less than 125 sq metres,EiI5IFRoZSBGYWlyd2F5cywgQ28uIFNsaWdvLCBJcmVsYW5kIhoSGAoUChIJpQ6vfT23XkgREQWoI5GGw3oQCQ,"https://maps.googleapis.com/maps/api/geocode/json?address=9+The+Fairways,+Tubbercurry,+Sligo,+Ireland&key=AIzaSyA1vJtESoYOSSuM_yTI1j1jpPGpxx_VGyk",54.052587100000004,-8.7119537,"9 The Fairways, Oghambaun, Co. Sligo, Ireland",,RANGE_INTERPOLATED,Border,31082,Tobercurry,1.1812652965022268,13.086021192343091
12/05/2010,"No 10 Ardfinn Grove, Ardfinn, Strandhill Road, Sligo",Sligo,220264.31,Yes,New Dwelling house /Apartment,greater than or equal to 38 sq metres and less than 125 sq metres,ChIJ_YV2UinoXkgRmOCbrOikDbs,"https://maps.googleapis.com/maps/api/geocode/json?address=No+10+Ardfinn+Grove,+Ardfinn,+Strandhill+Road,+Sligo,+Ireland&key=AIzaSyA1vJtESoYOSSuM_yTI1j1jpPGpxx_VGyk",54.27293620000001,-8.491597500000001,"10 Ard Finn Grove, Rathedmond, Sligo, F91 VPD6, Ireland",F91 VPD6,ROOFTOP,Border,31003,Sligo West,0.5176918373714207,0.5996920907943607
13/05/2010,"22 Old Fort Road, Kevinsfort",Sligo,460000.0,No,Second-Hand Dwelling house /Apartment,,ChIJTRNZ-4DCXkgRWwcmsNt3xWA,"https://maps.googleapis.com/maps/api/geocode/json?address=22+Old+Fort+Road,+Kevinsfort,+Sligo,+Ireland&key=AIzaSyA1vJtESoYOSSuM_yTI1j1jpPGpxx_VGyk",54.2684295,-8.5020249,"22 Old Fort Rd, Kevinsfort, Sligo, F91 C2D9, Ireland",F91 C2D9,ROOFTOP,Border,31003,Sligo West,0.4273100335203117,1.3396649167847468
13/05/2010,"Rathrobin, Dunally",Sligo,105000.0,No,Second-Hand Dwelling house /Apartment,,ChIJxRYZ243oXkgRfwty9iJTMH0,"https://maps.googleapis.com/maps/api/geocode/json?address=Rathrobin,+Dunally,+Sligo,+Ireland&key=AIzaSyA1vJtESoYOSSuM_yTI1j1jpPGpxx_VGyk",54.2977475,-8.433882800000001,"Rath Robin, Doonally, Calry, Co. Sligo, Ireland",,ROOFTOP,Border,31041,Calry,2.3384580485222557,4.2326979762468175
13/05/2010,"Ross, Riverstown",Sligo,50000.0,No,Second-Hand Dwelling house /Apartment,,ChIJK6ZZPiiVXkgRwB0yl6nHAAo,"https://maps.googleapis.com/maps/api/geocode/json?address=Ross,+Riverstown,+Sligo,+Ireland&key=AIzaSyA1vJtESoYOSSuM_yTI1j1jpPGpxx_VGyk",54.13043979999999,-8.3952508,"Cuiltylough, Riverstown, Co. Sligo, Ireland",,APPROXIMATE,Border,31059,Riverstown,0.07039216867119019,8.996467533978938
14/05/2010,"2 Harmony Hill, Sligo",Sligo,97500.0,No,Second-Hand Dwelling house /Apartment,,ChIJlSGrhjToXkgRLJPek_hO-ls,"https://maps.googleapis.com/maps/api/geocode/json?address=2+Harmony+Hill,+Sligo,+Ireland&key=AIzaSyA1vJtESoYOSSuM_yTI1j1jpPGpxx_VGyk",54.2697757,-8.474939,"2 Harmony Hill, Abbeyquarter North, Sligo, F91 VW89, Ireland",F91 VW89,ROOFTOP,Border,31003,Sligo West,0.0960560549155844,0.5176309063041563
14/05/2010,"9 The Stirrups, Tonaphubble, Sligo",Sligo,200000.0,No,Second-Hand Dwelling house /Apartment,,ChIJObAWx7fpXkgRMErJ_4jpL4U,"https://maps.googleapis.com/maps/api/geocode/json?address=9+The+Stirrups,+Tonaphubble,+Sligo,+Ireland&key=AIzaSyA1vJtESoYOSSuM_yTI1j1jpPGpxx_VGyk",54.2596204,-8.4627927,"9 The Stirrups, Tonaphubble, Sligo, F91 Y2R6, Ireland",F91 Y2R6,ROOFTOP,Border,31001,Sligo East,0.16979550388283113,1.855399120412756
20/05/2010,"25 Martin Savage Terrace, Sligo",Sligo,110000.0,No,Second-Hand Dwelling house /Apartment,,ChIJ25KLWrPpXkgR8Am76mZ_c4Q,"https://maps.googleapis.com/maps/api/geocode/json?address=25+Martin+Savage+Terrace,+Sligo,+Ireland&key=AIzaSyA1vJtESoYOSSuM_yTI1j1jpPGpxx_VGyk",54.2683059,-8.458996699999998,"25 Martin Savage Terrace, Cleaveragh Demesne, Sligo, F91 AX8K, Ireland",F91 AX8K,ROOFTOP,Border,31001,Sligo East,0.06959313232855904,1.5451667667384985
21/05/2010,"18 Castlegove, Colloney",Sligo,215000.0,No,Second-Hand Dwelling house /Apartment,,ChIJiyE3R8zBXkgRHbWd-uO3aF0,"https://maps.googleapis.com/maps/api/geocode/json?address=18+Castlegove,+Colloney,+Sligo,+Ireland&key=AIzaSyA1vJtESoYOSSuM_yTI1j1jpPGpxx_VGyk",54.18294870000001,-8.4904351,"18 Castle Cove, Rathrippin, Collooney, Co. Sligo, F91 E9R7, Ireland",F91 E9R7,ROOFTOP,Border,31046,Collooney,0.18670032891355312,0.4851647317435175
24/05/2010,"87 Cloondara, Ballisodare",Sligo,188000.0,No,Second-Hand Dwelling house /Apartment,,ChIJZW3rkpHBXkgRvM5K4gs73MY,"https://maps.googleapis.com/maps/api/geocode/json?address=87+Cloondara,+Ballisodare,+Sligo,+Ireland&key=AIzaSyA1vJtESoYOSSuM_yTI1j1jpPGpxx_VGyk",54.208490399999995,-8.5171463,"87 Cloondara, Kilboglashy, Ballysadare, Co. Sligo, F91 XCN8, Ireland",F91 XCN8,ROOFTOP,Border,31038,Ballysadare East,0.6190010370841067,2.841353263018952
25/05/2010,"2 Elm Court, Lisadell Park, Carney",Sligo,132158.58,Yes,New Dwelling house /Apartment,less than 38 sq metres,ChIJDaQkmmTdXkgR4Ksxl6nHAAo,"https://maps.googleapis.com/maps/api/geocode/json?address=2+Elm+Court,+Lisadell+Park,+Carney,+Sligo,+Ireland&key=AIzaSyA1vJtESoYOSSuM_yTI1j1jpPGpxx_VGyk",54.33867040000001,-8.5277091,"Cullagh More, Carney, Co. Sligo, Ireland",,APPROXIMATE,Border,31056,Lissadill East,0.13670579029991375,7.952043509685604
26/05/2010,"Pier Road, Enniscrone",Sligo,70000.0,Yes,New Dwelling house /Apartment,less than 38 sq metres,ChIJqSbB_nsxWUgRRXQQ_AhEY_o,"https://maps.googleapis.com/maps/api/geocode/json?address=Pier+Road,+Enniscrone,+Sligo,+Ireland&key=AIzaSyA1vJtESoYOSSuM_yTI1j1jpPGpxx_VGyk",54.2169491,-9.092718200000002,"Pier Rd, Enniscrone, Co. Sligo, Ireland",,GEOMETRIC_CENTER,Border,31026,Kilglass,0.39026595382047147,39.0395355695312
27/05/2010,"Tullycusheen, Tubbercurry",Sligo,90000.0,No,Second-Hand Dwelling house /Apartment,,ChIJRxsQ6uC2XkgRQCcyl6nHAAo,"https://maps.googleapis.com/maps/api/geocode/json?address=Tullycusheen,+Tubbercurry,+Sligo,+Ireland&key=AIzaSyA1vJtESoYOSSuM_yTI1j1jpPGpxx_VGyk",54.05522579999999,-8.7298236,"Tobercurry, Co. Sligo, Ireland",,APPROXIMATE,Border,31082,Tobercurry,0.13139174013179564,14.12265879563936
28/05/2010,"118 Rathbraughan Park, Sligo",Sligo,15000.0,No,Second-Hand Dwelling house /Apartment,,ChIJI6saJkHoXkgRkVnH-SVnpB0,"https://maps.googleapis.com/maps/api/geocode/json?address=118+Rathbraughan+Park,+Sligo,+Ireland&key=AIzaSyA1vJtESoYOSSuM_yTI1j1jpPGpxx_VGyk",54.28562339999999,-8.4685143,"118 Rathbraughan Park, Ballytivnan, Sligo, F91 H9C6, Ireland",F91 H9C6,ROOFTOP,Border,31002,Sligo North,0.09342804871291928,1.7422811962650615
03/06/2010,"37 Cloondara, Ballisodare, Sligo",Sligo,172000.0,No,Second-Hand Dwelling house /Apartment,,ChIJJ8XwEJLBXkgRDJJ9MOToftY,"https://maps.googleapis.com/maps/api/geocode/json?address=37+Cloondara,+Ballisodare,+Sligo,+Ireland&key=AIzaSyA1vJtESoYOSSuM_yTI1j1jpPGpxx_VGyk",54.209221299999996,-8.515204800000001,"37 Cloondara, Kilboglashy, Ballysadare, Co. Sligo, F91 X2V6, Ireland",F91 X2V6,ROOFTOP,Border,31038,Ballysadare East,0.4729947043085228,2.8508231928013075
03/06/2010,"Mount Edward, Ballinful",Sligo,160000.0,No,Second-Hand Dwelling house /Apartment,,ChIJ1dvhlrHdXkgRUaq6GajHACY,"https://maps.googleapis.com/maps/api/geocode/json?address=Mount+Edward,+Ballinful,+Sligo,+Ireland&key=AIzaSyA1vJtESoYOSSuM_yTI1j1jpPGpxx_VGyk",54.3617644,-8.5811683,"Ballinphull, Ballinfull, Co. Sligo, Ireland",,APPROXIMATE,Border,31056,Lissadill East,0.5221563801379815,11.840404867561547
08/06/2010,"Holly Cottage, Croagh, Dromore West",Sligo,82000.0,No,Second-Hand Dwelling house /Apartment,,ChIJ2TjRqAVIW0gRpTMEQx4_Llw,"https://maps.googleapis.com/maps/api/geocode/json?address=Holly+Cottage,+Croagh,+Dromore+West,+Sligo,+Ireland&key=AIzaSyA1vJtESoYOSSuM_yTI1j1jpPGpxx_VGyk",52.534819799999994,-8.871313899999997,"Croagh, Co. Limerick, Ireland",,APPROXIMATE,Mid-West,21115,Dromard,158.6124390157807,174.3422288321645
10/06/2010,"Rannatruffaun, Geevagh",Sligo,120000.0,No,Second-Hand Dwelling house /Apartment,,ChIJD6e8JwiTXkgRZUSRpMwCkl0,"https://maps.googleapis.com/maps/api/geocode/json?address=Rannatruffaun,+Geevagh,+Sligo,+Ireland&key=AIzaSyA1vJtESoYOSSuM_yTI1j1jpPGpxx_VGyk",54.1030336,-8.2896334,"Rannatruffaun East, Co. Sligo, Ireland",,APPROXIMATE,Border,31010,Killadoon,2.5799591665130026,15.166185542838447
11/06/2010,"12  Meadowbank, Straduff, Geevagh",Sligo,160667.4,Yes,New Dwelling house /Apartment,greater than 125 sq metres,ChIJLxZE2lCSXkgRIaYI4eAsOsQ,"https://maps.googleapis.com/maps/api/geocode/json?address=12+Meadowbank,+Straduff,+Geevagh,+Sligo,+Ireland&key=AIzaSyA1vJtESoYOSSuM_yTI1j1jpPGpxx_VGyk",54.1012873,-8.2539006,"12 Meadowbank, Ballyculleen, Geevagh, Co. Sligo, F52 P038, Ireland",F52 P038,ROOFTOP,Border,31005,Ballynashee,0.3122006495296263,17.468413116500678
11/06/2010,"8 Ardfinn Crescent, Ardfinn, Strandhill Road",Sligo,234513.27,Yes,New Dwelling house /Apartment,greater than 125 sq metres,ChIJn8yL_IHCXkgRjxjk134Dv24,"https://maps.googleapis.com/maps/api/geocode/json?address=8+Ardfinn+Crescent,+Ardfinn,+Strandhill+Road,+Sligo,+Ireland&key=AIzaSyA1vJtESoYOSSuM_yTI1j1jpPGpxx_VGyk",54.271167500000004,-8.4986309,"Strandhill Rd, Rathedmond, Sligo, Ireland",,GEOMETRIC_CENTER,Border,31003,Sligo West,0.4398180880941864,1.0581497120813437
14/06/2010,"4  Cluainin Na Mbo, Enniscrone",Sligo,170000.0,No,Second-Hand Dwelling house /Apartment,,ChIJC4IWqYExWUgRmUi9wZqm24k,"https://maps.googleapis.com/maps/api/geocode/json?address=4+Cluainin+Na+Mbo,+Enniscrone,+Sligo,+Ireland&key=AIzaSyA1vJtESoYOSSuM_yTI1j1jpPGpxx_VGyk",54.2252071,-9.092341699999999,"4 Cluainín Na mBó, Carrowhubbuck South, Enniscrone, Co. Sligo, F26 W953, Ireland",F26 W953,ROOFTOP,Border,31026,Kilglass,1.3040721286736292,39.10193305704802
18/06/2010,"32 Ard Laighne, Coolaney",Sligo,210000.0,Yes,New Dwelling house /Apartment,less than 38 sq metres,ChIJ4XjExCnHXkgRnH2zOGmDKis,"https://maps.googleapis.com/maps/api/geocode/json?address=32+Ard+Laighne,+Coolaney,+Sligo,+Ireland&key=AIzaSyA1vJtESoYOSSuM_yTI1j1jpPGpxx_VGyk",54.1705622,-8.596730899999999,"32 Ard Laighne, Cúil Áine, Co. Sligo, F56 DD21, Ireland",F56 DD21,ROOFTOP,Border,31073,Coolaney,0.5048075758802222,6.85607760371587
18/06/2010,"Kilkillogue, Mullaghmore",Sligo,265000.0,No,Second-Hand Dwelling house /Apartment,,ChIJ18u0ZY3hXkgRwHkxl6nHAAo,"https://maps.googleapis.com/maps/api/geocode/json?address=Kilkillogue,+Mullaghmore,+Sligo,+Ireland&key=AIzaSyA1vJtESoYOSSuM_yTI1j1jpPGpxx_VGyk",54.4655463,-8.4494544,"Kilkilloge, Mullaghmore, Co. Sligo, Ireland",,APPROXIMATE,Border,31044,Cliffony North,3.5439935680944514,21.60787936441435
18/06/2010,Rosses Point,Sligo,315000.0,No,Second-Hand Dwelling house /Apartment,,ChIJ0xxr7SzdXkgRAKwxl6nHAAo,"https://maps.googleapis.com/maps/api/geocode/json?address=Rosses+Point,+Sligo,+Ireland&key=AIzaSyA1vJtESoYOSSuM_yTI1j1jpPGpxx_VGyk",54.304754599999995,-8.5640206,"Rosses Upper, Rosses Point, Co. Sligo, Ireland",,APPROXIMATE,Border,31048,Drumcliff West,0.18010821971320126,6.413713422511003
21/06/2010,"Number 62, The Hawthorn, Woodstream, Coolaney",Sligo,101321.58,Yes,New Dwelling house /Apartment,greater than or equal to 38 sq metres and less than 125 sq metres,EihXb29kc3RyZWFtLCBDb29sYW5leSwgQ28uIFNsaWdvLCBJcmVsYW5kIi4qLAoUChIJLfqIySbHXkgRzusk-z5olh8SFAoSCcndooJLxl5IEaAI3zepxwAY,"https://maps.googleapis.com/maps/api/geocode/json?address=Number+62,+The+Hawthorn,+Woodstream,+Coolaney,+Sligo,+Ireland&key=AIzaSyA1vJtESoYOSSuM_yTI1j1jpPGpxx_VGyk",54.16722370000001,-8.607503399999999,"Woodstream, Coolaney, Co. Sligo, Ireland",,GEOMETRIC_CENTER,Border,31073,Coolaney,0.6134562727818812,7.6316426091148415
23/06/2010,"No. 10 Meadowbank, Straduff, Geevagh",Sligo,163014.0,Yes,New Dwelling house /Apartment,greater than 125 sq metres,ChIJ2Vx6voaSXkgRlAKxBTtBSCg,"https://maps.googleapis.com/maps/api/geocode/json?address=No.+10+Meadowbank,+Straduff,+Geevagh,+Sligo,+Ireland&key=AIzaSyA1vJtESoYOSSuM_yTI1j1jpPGpxx_VGyk",54.1151113,-8.2200658,"Straduff, Co. Sligo, Ireland",,APPROXIMATE,Border,31005,Ballynashee,2.6597090209155074,19.583839939764665
28/06/2010,"5 Ardfinn Grove, Ardfinn, Strandhill Road, Sligo",Sligo,220264.31,Yes,New Dwelling house /Apartment,greater than or equal to 38 sq metres and less than 125 sq metres,ChIJ2RGpTynoXkgRAcyfrhYLqMc,"https://maps.googleapis.com/maps/api/geocode/json?address=5+Ardfinn+Grove,+Ardfinn,+Strandhill+Road,+Sligo,+Ireland&key=AIzaSyA1vJtESoYOSSuM_yTI1j1jpPGpxx_VGyk",54.273073600000004,-8.4920657,"5 Ard Finn Grove, Rathedmond, Sligo, F91 T8NR, Ireland",F91 T8NR,ROOFTOP,Border,31003,Sligo West,0.5419655835052398,0.6319277327785592
29/06/2010,"11 The Plains, Strandhill",Sligo,225000.0,No,Second-Hand Dwelling house /Apartment,,ChIJ0-xtDG7DXkgRMHkxl6nHAAo,"https://maps.googleapis.com/maps/api/geocode/json?address=11+The+Plains,+Strandhill,+Sligo,+Ireland&key=AIzaSyA1vJtESoYOSSuM_yTI1j1jpPGpxx_VGyk",54.26999010000001,-8.598940299999999,"Carrowbunnaun, Strandhill, Co. Sligo, Ireland",,APPROXIMATE,Border,31053,Knockaree,0.14295551237184345,7.57096080326218
29/06/2010,"18 Laurel Lodge, Ardfinn, Strandhill Road, Sligo",Sligo,295000.0,Yes,New Dwelling house /Apartment,greater than or equal to 38 sq metres and less than 125 sq metres,ChIJuZZfbynoXkgRhnMtc7pwng8,"https://maps.googleapis.com/maps/api/geocode/json?address=18+Laurel+Lodge,+Ardfinn,+Strandhill+Road,+Sligo,+Ireland&key=AIzaSyA1vJtESoYOSSuM_yTI1j1jpPGpxx_VGyk",54.272804,-8.493696000000002,"Laurel Lodge, Ard Finn, Sligo, Ireland",,ROOFTOP,Border,31003,Sligo West,0.5610159042073332,0.7336374994973089
29/06/2010,"Kilmacannon, Ballinful",Sligo,105000.0,No,Second-Hand Dwelling house /Apartment,,ChIJOw9BE33cXkgRHn7ywUlKsws,"https://maps.googleapis.com/maps/api/geocode/json?address=Kilmacannon,+Ballinful,+Sligo,+Ireland&key=AIzaSyA1vJtESoYOSSuM_yTI1j1jpPGpxx_VGyk",54.3449174,-8.6300745,"Kilmacannon, Co. Sligo, Ireland",,APPROXIMATE,Border,31058,Lissadill West,1.5130230963537592,12.535558375903234
30/06/2010,"3 Union Street, Sligo",Sligo,210000.0,No,Second-Hand Dwelling house /Apartment,,ChIJoVuaLDLoXkgRP2rBXZS-0os,"https://maps.googleapis.com/maps/api/geocode/json?address=3+Union+Street,+Sligo,+Ireland&key=AIzaSyA1vJtESoYOSSuM_yTI1j1jpPGpxx_VGyk",54.273262100000004,-8.4798162,"3 Union St, Abbeyquarter North, Sligo, F91 T440, Ireland",F91 T440,ROOFTOP,Border,31002,Sligo North,0.20719268284166692,0.19405091592728865
02/07/2010,"16  The Estuary, Enniscrone",Sligo,175000.0,No,Second-Hand Dwelling house /Apartment,,ChIJuZyUX30xWUgRO2KIt30CcKg,"https://maps.googleapis.com/maps/api/geocode/json?address=16+The+Estuary,+Enniscrone,+Sligo,+Ireland&key=AIzaSyA1vJtESoYOSSuM_yTI1j1jpPGpxx_VGyk",54.21360319999999,-9.0841019,"16 The Estuary, Trotts, Enniscrone, Co. Sligo, F26 A290, Ireland",F26 A290,ROOFTOP,Border,31026,Kilglass,0.496265374472193,38.45159191963775
02/07/2010,"32 Cedar Drive, Sligo",Sligo,95000.0,No,Second-Hand Dwelling house /Apartment,,ChIJpcg2cyvoXkgR4AiWLjuCaDY,"https://maps.googleapis.com/maps/api/geocode/json?address=32+Cedar+Drive,+Sligo,+Ireland&key=AIzaSyA1vJtESoYOSSuM_yTI1j1jpPGpxx_VGyk",54.26904099999999,-8.491894,"32 Cedar Dr, Knappagh Beg, Magheraboy, Co. Sligo, F91 AKN6, Ireland",F91 AKN6,ROOFTOP,Border,31003,Sligo West,0.18515832609797314,0.7072545562168525
02/07/2010,"No. 7 Burma Road, Strandhill",Sligo,180000.0,No,Second-Hand Dwelling house /Apartment,,ChIJ0-xtDG7DXkgRMHkxl6nHAAo,"https://maps.googleapis.com/maps/api/geocode/json?address=No.+7+Burma+Road,+Strandhill,+Sligo,+Ireland&key=AIzaSyA1vJtESoYOSSuM_yTI1j1jpPGpxx_VGyk",54.26999010000001,-8.598940299999999,"Carrowbunnaun, Strandhill, Co. Sligo, Ireland",,APPROXIMATE,Border,31053,Knockaree,0.14295551237184345,7.57096080326218
05/07/2010,"Straduff, Geevagh",Sligo,40000.0,No,Second-Hand Dwelling house /Apartment,,ChIJ2Vx6voaSXkgRlAKxBTtBSCg,"https://maps.googleapis.com/maps/api/geocode/json?address=Straduff,+Geevagh,+Sligo,+Ireland&key=AIzaSyA1vJtESoYOSSuM_yTI1j1jpPGpxx_VGyk",54.1151113,-8.2200658,"Straduff, Co. Sligo, Ireland",,APPROXIMATE,Border,31005,Ballynashee,2.6597090209155074,19.583839939764665
13/07/2010,"8 The Inlet, Castlecove, Enniscrone",Sligo,99500.0,No,Second-Hand Dwelling house /Apartment,,ChIJVQdaXX0xWUgROzc_XCXV3xg,"https://maps.googleapis.com/maps/api/geocode/json?address=8+The+Inlet,+Castlecove,+Enniscrone,+Sligo,+Ireland&key=AIzaSyA1vJtESoYOSSuM_yTI1j1jpPGpxx_VGyk",54.21361329999999,-9.0849039,"8 The Inlet, Trotts, Enniscrone, Co. Sligo, F26 X962, Ireland",F26 X962,ROOFTOP,Border,31026,Kilglass,0.444153490193228,38.50369554644821
13/07/2010,"Cloonagh, Ballinfull",Sligo,125000.0,No,Second-Hand Dwelling house /Apartment,,ChIJVc2eB3PcXkgRK3DvyKlV72U,"https://maps.googleapis.com/maps/api/geocode/json?address=Cloonagh,+Ballinfull,+Sligo,+Ireland&key=AIzaSyA1vJtESoYOSSuM_yTI1j1jpPGpxx_VGyk",54.364489,-8.6359274,"Cloonagh, Co. Sligo, Ireland",,APPROXIMATE,Border,31058,Lissadill West,0.4050208407989845,14.298681973755526
13/07/2010,"No. 1 Sonas Retirement Village, Enniscrone",Sligo,132158.0,Yes,New Dwelling house /Apartment,greater than or equal to 38 sq metres and less than 125 sq metres,ChIJK3fd2XoxWUgR4OL20MeRH0M,"https://maps.googleapis.com/maps/api/geocode/json?address=No.+1+Sonas+Retirement+Village,+Enniscrone,+Sligo,+Ireland&key=AIzaSyA1vJtESoYOSSuM_yTI1j1jpPGpxx_VGyk",54.21293860000001,-9.093224300000001,"Main St, Carrowhubbuck South, Enniscrone, Co. Sligo, Ireland",,GEOMETRIC_CENTER,Border,31026,Kilglass,0.09914007190095853,39.037979086000036
14/07/2010,"133 Rusheen Ard, Caltragh, Sligo",Sligo,186000.0,No,Second-Hand Dwelling house /Apartment,,EiAxMzMgUnVzaGVlbiDDgXJkLCBTbGlnbywgSXJlbGFuZCIbEhkKFAoSCRPAjTvP6V5IEVswkqNccpiwEIUB,"https://maps.googleapis.com/maps/api/geocode/json?address=133+Rusheen+Ard,+Caltragh,+Sligo,+Ireland&key=AIzaSyA1vJtESoYOSSuM_yTI1j1jpPGpxx_VGyk",54.2588825,-8.4729791,"133 Rusheen Árd, Cornageeha, Sligo, Ireland",,RANGE_INTERPOLATED,Border,31003,Sligo West,0.1990191527860478,1.5694741988389018
14/07/2010,"2 Breffni Road, Mullaghmore",Sligo,216000.0,No,Second-Hand Dwelling house /Apartment,,ChIJ18u0ZY3hXkgRwHkxl6nHAAo,"https://maps.googleapis.com/maps/api/geocode/json?address=2+Breffni+Road,+Mullaghmore,+Sligo,+Ireland&key=AIzaSyA1vJtESoYOSSuM_yTI1j1jpPGpxx_VGyk",54.4655463,-8.4494544,"Kilkilloge, Mullaghmore, Co. Sligo, Ireland",,APPROXIMATE,Border,31044,Cliffony North,3.5439935680944514,21.60787936441435
14/07/2010,"47 Glencarraig, Balinode",Sligo,182000.0,No,Second-Hand Dwelling house /Apartment,,ChIJG7O5FU7oXkgRusoEIko_cV4,"https://maps.googleapis.com/maps/api/geocode/json?address=47+Glencarraig,+Balinode,+Sligo,+Ireland&key=AIzaSyA1vJtESoYOSSuM_yTI1j1jpPGpxx_VGyk",54.276016399999996,-8.4561668,"47 Glencarrig, Bellanode, Ballinode, Co. Sligo, F91 T3H6, Ireland",F91 T3H6,ROOFTOP,Border,31002,Sligo North,0.18554738049162808,1.7305019265470392
14/07/2010,"99 St Bridgets Place, Sligo",Sligo,110000.0,No,Second-Hand Dwelling house /Apartment,,ChIJ6elBqsvpXkgR-VGPStjpaRc,"https://maps.googleapis.com/maps/api/geocode/json?address=99+St+Bridgets+Place,+Sligo,+Ireland&key=AIzaSyA1vJtESoYOSSuM_yTI1j1jpPGpxx_VGyk",54.2654171,-8.4704329,"99 St Brigid's Pl, Abbeyquarter South, Sligo, F91 HYH5, Ireland",F91 HYH5,ROOFTOP,Border,31001,Sligo East,0.09626566055873394,1.0463825378496179
16/07/2010,"6 Mulberry Close, Ballinode",Sligo,205000.0,No,Second-Hand Dwelling house /Apartment,,ChIJm171UFDoXkgRDie4TPPcmcg,"https://maps.googleapis.com/maps/api/geocode/json?address=6+Mulberry+Close,+Ballinode,+Sligo,+Ireland&key=AIzaSyA1vJtESoYOSSuM_yTI1j1jpPGpxx_VGyk",54.27838029999999,-8.4523084,"6 Mulberry Cl, Farranacardy, Ballinode, Co. Sligo, F91 E7P6, Ireland",F91 E7P6,ROOFTOP,Border,31002,Sligo North,0.04528267895160115,2.0489580745465785
16/07/2010,"6 The Estuary, Enniscrone",Sligo,120000.0,No,Second-Hand Dwelling house /Apartment,,ChIJe4gj3NczWUgRn-Vu3zTKLS8,"https://maps.googleapis.com/maps/api/geocode/json?address=6+The+Estuary,+Enniscrone,+Sligo,+Ireland&key=AIzaSyA1vJtESoYOSSuM_yTI1j1jpPGpxx_VGyk",54.213974500000006,-9.0836079,"6 The Estuary, Trotts, Enniscrone, Co. Sligo, F26 P862, Ireland",F26 P862,ROOFTOP,Border,31026,Kilglass,0.5309897066735618,38.422650971466425
16/07/2010,"Carrownatawy, Ballinacarrow",Sligo,125000.0,No,Second-Hand Dwelling house /Apartment,,ChIJtdLfoajAXkgRAswjT9RjQGY,"https://maps.googleapis.com/maps/api/geocode/json?address=Carrownatawy,+Ballinacarrow,+Sligo,+Ireland&key=AIzaSyA1vJtESoYOSSuM_yTI1j1jpPGpxx_VGyk",54.13409679999999,-8.560462,"Ballynacarrow South, Ballynacarrow, Co. Sligo, Ireland",,APPROXIMATE,Border,31081,Temple,0.04586259887380671,5.712617650596595
16/07/2010,"Carrownatawy, Ballinacarrow",Sligo,125000.0,No,Second-Hand Dwelling house /Apartment,,ChIJtdLfoajAXkgRAswjT9RjQGY,"https://maps.googleapis.com/maps/api/geocode/json?address=Carrownatawy,+Ballinacarrow,+Sligo,+Ireland&key=AIzaSyA1vJtESoYOSSuM_yTI1j1jpPGpxx_VGyk",54.13409679999999,-8.560462,"Ballynacarrow South, Ballynacarrow, Co. Sligo, Ireland",,APPROXIMATE,Border,31081,Temple,0.04586259887380671,5.712617650596595
23/07/2010,"Brescia, Strandhill Rd, Sligo",Sligo,225000.0,No,Second-Hand Dwelling house /Apartment,,ChIJR0gB9YHCXkgRxHl9bNxi8UM,"https://maps.googleapis.com/maps/api/geocode/json?address=Brescia,+Strandhill+Rd,+Sligo,+Ireland&key=AIzaSyA1vJtESoYOSSuM_yTI1j1jpPGpxx_VGyk",54.271728599999996,-8.500566300000001,"Strandhill Rd, Rathedmond, Sligo, Ireland",,GEOMETRIC_CENTER,Border,31003,Sligo West,0.3053800392351621,1.1785069675684972
27/07/2010,"Fortland, Easkey",Sligo,176211.45,Yes,New Dwelling house /Apartment,greater than 125 sq metres,ChIJWdj07lzNXkgRAYtCxwe7Kx4,"https://maps.googleapis.com/maps/api/geocode/json?address=Fortland,+Easkey,+Sligo,+Ireland&key=AIzaSyA1vJtESoYOSSuM_yTI1j1jpPGpxx_VGyk",54.26815020000001,-8.957878599999997,"Fortland, Keadue, Co. Sligo, Ireland",,APPROXIMATE,Border,31024,Easky East,2.009311359413324,30.88483458529164
29/07/2010,"54 The Meadows, Enniscrone",Sligo,193832.0,Yes,New Dwelling house /Apartment,greater than 125 sq metres,ChIJO15AGNgzWUgRdeYV27chWcQ,"https://maps.googleapis.com/maps/api/geocode/json?address=54+The+Meadows,+Enniscrone,+Sligo,+Ireland&key=AIzaSyA1vJtESoYOSSuM_yTI1j1jpPGpxx_VGyk",54.21190920000001,-9.081676199999999,"54 The Meadows, Frankford, Enniscrone, Co. Sligo, F26 NX23, Ireland",F26 NX23,ROOFTOP,Border,31026,Kilglass,0.6770738732986089,38.280618961096785
29/07/2010,"Tanrego, Beltra",Sligo,175000.0,No,Second-Hand Dwelling house /Apartment,,ChIJPYx8wRrEXkgRIPaAA8kH0vA,"https://maps.googleapis.com/maps/api/geocode/json?address=Tanrego,+Beltra,+Sligo,+Ireland&key=AIzaSyA1vJtESoYOSSuM_yTI1j1jpPGpxx_VGyk",54.222901199999995,-8.6200425,"Tanrego House, Tanrego West, Beltra, Co. Sligo, Ireland",,ROOFTOP,Border,31021,Dromard East,1.364389462378033,9.093010837152232
30/07/2010,"4 The Courtyard, O'Connell Street, Ballymote",Sligo,85000.0,No,Second-Hand Dwelling house /Apartment,,ChIJhdxNdzToXkgRAX6dQSMM2SE,"https://maps.googleapis.com/maps/api/geocode/json?address=4+The+Courtyard,+O'Connell+Street,+Ballymote,+Sligo,+Ireland&key=AIzaSyA1vJtESoYOSSuM_yTI1j1jpPGpxx_VGyk",54.2713321,-8.4753144,"O'Connell St, Abbeyquarter North, Sligo, Ireland",,GEOMETRIC_CENTER,Border,31003,Sligo West,0.060686299693603576,0.4357427916330896
30/07/2010,"Carrowleam, Coolaney",Sligo,100000.0,No,Second-Hand Dwelling house /Apartment,,ChIJyd2igkvGXkgRoAjfN6nHABg,"https://maps.googleapis.com/maps/api/geocode/json?address=Carrowleam,+Coolaney,+Sligo,+Ireland&key=AIzaSyA1vJtESoYOSSuM_yTI1j1jpPGpxx_VGyk",54.17380929999999,-8.6008023,"Coolaney, Co. Sligo, Ireland",,APPROXIMATE,Border,31073,Coolaney,0.10075235298822884,7.031425132929092
11/08/2010,"6 Rusheen Ard, Caltragh",Sligo,133916.3,Yes,New Dwelling house /Apartment,greater than 125 sq metres,ChIJa2NhHM_pXkgRmyKHmHXGVn0,"https://maps.googleapis.com/maps/api/geocode/json?address=6+Rusheen+Ard,+Caltragh,+Sligo,+Ireland&key=AIzaSyA1vJtESoYOSSuM_yTI1j1jpPGpxx_VGyk",54.25944200000001,-8.4745239,"6 Rusheen Árd, Knocknaganny, Caltragh, Co. Sligo, F91 XY8E, Ireland",F91 XY8E,ROOFTOP,Border,31003,Sligo West,0.10643136838642672,1.4759946350928517
12/08/2010,"26 Cedar Drive, Sligo, Sligo",Sligo,120000.0,No,Second-Hand Dwelling house /Apartment,,ChIJq8avDivoXkgR40DsONlWVJk,"https://maps.googleapis.com/maps/api/geocode/json?address=26+Cedar+Drive,+Sligo,+Sligo,+Ireland&key=AIzaSyA1vJtESoYOSSuM_yTI1j1jpPGpxx_VGyk",54.269069200000004,-8.4924648,"26 Cedar Dr, Magheraboy, Sligo, F91 XC3D, Ireland",F91 XC3D,ROOFTOP,Border,31003,Sligo West,0.2214167159940614,0.7382408172740097
13/08/2010,"Killanley, Castleconnor",Sligo,290000.0,Yes,New Dwelling house /Apartment,greater than or equal to 38 sq metres and less than 125 sq metres,ChIJZ5o5Vsg2WUgRsNbfN6nHABg,"https://maps.googleapis.com/maps/api/geocode/json?address=Killanley,+Castleconnor,+Sligo,+Ireland&key=AIzaSyA1vJtESoYOSSuM_yTI1j1jpPGpxx_VGyk",54.1536061,-9.1209836,"Castleconor, Knockroe, Co. Mayo, Ireland",,APPROXIMATE,West,29006,Ardnaree North,1.2450615953062616,39.79281750976099
13/08/2010,"Scarden, Strandhill Road",Sligo,150000.0,No,Second-Hand Dwelling house /Apartment,,ChIJR0gB9YHCXkgRxHl9bNxi8UM,"https://maps.googleapis.com/maps/api/geocode/json?address=Scarden,+Strandhill+Road,+Sligo,+Ireland&key=AIzaSyA1vJtESoYOSSuM_yTI1j1jpPGpxx_VGyk",54.271728599999996,-8.500566300000001,"Strandhill Rd, Rathedmond, Sligo, Ireland",,GEOMETRIC_CENTER,Border,31003,Sligo West,0.3053800392351621,1.1785069675684972
16/08/2010,"Apt 11 The Mill, Coolaney",Sligo,50000.0,Yes,New Dwelling house /Apartment,greater than or equal to 38 sq metres and less than 125 sq metres,ChIJj_tLfUroXkgRZZnu3Ly54iA,"https://maps.googleapis.com/maps/api/geocode/json?address=Apt+11+The+Mill,+Coolaney,+Sligo,+Ireland&key=AIzaSyA1vJtESoYOSSuM_yTI1j1jpPGpxx_VGyk",54.2712958,-8.467274699999999,"Riverside, Abbeyquarter North, Sligo, Ireland",,GEOMETRIC_CENTER,Border,31001,Sligo East,0.2352697488385929,0.9545469030565686
17/08/2010,"13 Fatima Avenue, Sligo",Sligo,160000.0,No,Second-Hand Dwelling house /Apartment,,ChIJcTj8F7bpXkgReH0l92WOj4s,"https://maps.googleapis.com/maps/api/geocode/json?address=13+Fatima+Avenue,+Sligo,+Ireland&key=AIzaSyA1vJtESoYOSSuM_yTI1j1jpPGpxx_VGyk",54.26184540000001,-8.4642198,"13 Fatima Ave, Commons, Sligo, F91 DCD4, Ireland",F91 DCD4,ROOFTOP,Border,31001,Sligo East,0.08495304640647035,1.612723747537717
17/08/2010,"29 Dromroe, Castlebaldwin",Sligo,115000.0,Yes,New Dwelling house /Apartment,greater than or equal to 38 sq metres and less than 125 sq metres,ChIJ_2eFE7WVXkgRnDq3ClpankQ,"https://maps.googleapis.com/maps/api/geocode/json?address=29+Dromroe,+Castlebaldwin,+Sligo,+Ireland&key=AIzaSyA1vJtESoYOSSuM_yTI1j1jpPGpxx_VGyk",54.078461499999996,-8.3803305,"29 Dromroe, Drumderry, Castlebaldwin, Co. Sligo, F52 TX34, Ireland",F52 TX34,ROOFTOP,Border,31054,Lakeview,0.27130514558336777,9.22772671664456
18/08/2010,"Derrycliffe, Bunduff, Castlegal, Cliffoney",Sligo,475000.0,No,Second-Hand Dwelling house /Apartment,,ChIJ7W_yRSviXkgRsnTHGajHACY,"https://maps.googleapis.com/maps/api/geocode/json?address=Derrycliffe,+Bunduff,+Castlegal,+Cliffoney,+Sligo,+Ireland&key=AIzaSyA1vJtESoYOSSuM_yTI1j1jpPGpxx_VGyk",54.447642200000004,-8.4271844,"Bunduff, The Woods, Co. Sligo, Ireland",,APPROXIMATE,Border,31044,Cliffony North,2.0985973430585716,19.836406198546293
18/08/2010,Rosses Point,Sligo,537000.0,No,Second-Hand Dwelling house /Apartment,,ChIJ0xxr7SzdXkgRAKwxl6nHAAo,"https://maps.googleapis.com/maps/api/geocode/json?address=Rosses+Point,+Sligo,+Ireland&key=AIzaSyA1vJtESoYOSSuM_yTI1j1jpPGpxx_VGyk",54.304754599999995,-8.5640206,"Rosses Upper, Rosses Point, Co. Sligo, Ireland",,APPROXIMATE,Border,31048,Drumcliff West,0.18010821971320126,6.413713422511003
19/08/2010,"25, Summerhill Village, Sligo",Sligo,85000.0,No,Second-Hand Dwelling house /Apartment,,ChIJM-PL48zpXkgRoNJg3iDX4sU,"https://maps.googleapis.com/maps/api/geocode/json?address=25,+Summerhill+Village,+Sligo,+Ireland&key=AIzaSyA1vJtESoYOSSuM_yTI1j1jpPGpxx_VGyk",54.2659691,-8.4775349,"25 Summerhill Village, Knocknaganny, Sligo, F91 VAX7, Ireland",F91 VAX7,ROOFTOP,Border,31003,Sligo West,0.27642411649397336,0.7279565028924153
19/08/2010,"9 Ardfinn Grove, Ardfinn, Strandhill Road",Sligo,220264.0,Yes,New Dwelling house /Apartment,greater than or equal to 38 sq metres and less than 125 sq metres,ChIJ8UD0TSnoXkgRxDRgURouASs,"https://maps.googleapis.com/maps/api/geocode/json?address=9+Ardfinn+Grove,+Ardfinn,+Strandhill+Road,+Sligo,+Ireland&key=AIzaSyA1vJtESoYOSSuM_yTI1j1jpPGpxx_VGyk",54.2729593,-8.4916591,"9 Ard Finn Grove, Rathedmond, Sligo, F91 W3CE, Ireland",F91 W3CE,ROOFTOP,Border,31003,Sligo West,0.5213548112188033,0.6039961359399482
23/08/2010,"34 Glencarrig, Ballinode",Sligo,150000.0,No,Second-Hand Dwelling house /Apartment,,ChIJ32xCJ07oXkgRegM45YONQAM,"https://maps.googleapis.com/maps/api/geocode/json?address=34+Glencarrig,+Ballinode,+Sligo,+Ireland&key=AIzaSyA1vJtESoYOSSuM_yTI1j1jpPGpxx_VGyk",54.2766534,-8.4549036,"34 Glencarrig, Bellanode, Ballinode, Co. Sligo, F91 C9C1, Ireland",F91 C9C1,ROOFTOP,Border,31002,Sligo North,0.2159994645537409,1.8285864185254683
23/08/2010,"Kilfree, Gurteen",Sligo,47000.0,No,Second-Hand Dwelling house /Apartment,,ChIJe-jYcmq7XkgRUWZoNC6ii_c,"https://maps.googleapis.com/maps/api/geocode/json?address=Kilfree,+Gurteen,+Sligo,+Ireland&key=AIzaSyA1vJtESoYOSSuM_yTI1j1jpPGpxx_VGyk",53.9782247,-8.546526799999999,"Kilfree, Co. Sligo, Ireland",,APPROXIMATE,Border,31009,Kilfree,2.506530148431172,12.344967458492048
27/08/2010,"Tullyhill, Rathcormack",Sligo,155000.0,No,Second-Hand Dwelling house /Apartment,,ChIJnyHHe9_nXkgR83_HUf7F5VQ,"https://maps.googleapis.com/maps/api/geocode/json?address=Tullyhill,+Rathcormack,+Sligo,+Ireland&key=AIzaSyA1vJtESoYOSSuM_yTI1j1jpPGpxx_VGyk",54.31227999999999,-8.47673,"Tully, Tully Hill, Co. Sligo, Ireland",,APPROXIMATE,Border,31047,Drumcliff East,0.7067816595179894,4.4695158728095015
01/09/2010,"66 White Strand, Aylesbury Park",Sligo,230000.0,Yes,New Dwelling house /Apartment,less than 38 sq metres,ChIJl6ixBYXCXkgRlAMSkKJs_lo,"https://maps.googleapis.com/maps/api/geocode/json?address=66+White+Strand,+Aylesbury+Park,+Sligo,+Ireland&key=AIzaSyA1vJtESoYOSSuM_yTI1j1jpPGpxx_VGyk",54.27408459999999,-8.5112056,"66 Whitestrand, Aylesbury Park, Sligo, F91 EVP4, Ireland",F91 EVP4,ROOFTOP,Border,31053,Knockaree,0.2186101523277664,1.879422624914045
02/09/2010,"7 Greenfort, Sligo, Sligo",Sligo,162500.0,No,Second-Hand Dwelling house /Apartment,,ChIJE2eSdsfpXkgRcZqA355fsHQ,"https://maps.googleapis.com/maps/api/geocode/json?address=7+Greenfort,+Sligo,+Sligo,+Ireland&key=AIzaSyA1vJtESoYOSSuM_yTI1j1jpPGpxx_VGyk",54.2547542,-8.464333900000002,"7 Greenfort, Carns (Duke), Sligo, F91 WYR5, Ireland",F91 WYR5,ROOFTOP,Border,31001,Sligo East,0.0882733567473721,2.232478528307833
03/09/2010,"10  Abbeyville Park, Sligo",Sligo,130000.0,No,Second-Hand Dwelling house /Apartment,,ChIJw-ND8kroXkgRghGIm0yoI7c,"https://maps.googleapis.com/maps/api/geocode/json?address=10+Abbeyville+Park,+Sligo,+Ireland&key=AIzaSyA1vJtESoYOSSuM_yTI1j1jpPGpxx_VGyk",54.270756799999994,-8.4657386,"10 Abbeyville Park, Abbeyquarter North, Sligo, F91 YEX4, Ireland",F91 YEX4,ROOFTOP,Border,31001,Sligo East,0.1922192699571968,1.0602848438533554
03/09/2010,"Ballinacarrow, Ballymote",Sligo,105000.0,No,Second-Hand Dwelling house /Apartment,,ChIJJVlFpOK-XkgRMHcxl6nHAAo,"https://maps.googleapis.com/maps/api/geocode/json?address=Ballinacarrow,+Ballymote,+Sligo,+Ireland&key=AIzaSyA1vJtESoYOSSuM_yTI1j1jpPGpxx_VGyk",54.08982880000001,-8.5171827,"Ballymote, Co. Sligo, Ireland",,APPROXIMATE,Border,31036,Ballymote,0.20583941233824712,0.28932828889253426
03/09/2010,"Kilcummin, Cloonacool, Tubbercurry",Sligo,197500.0,No,Second-Hand Dwelling house /Apartment,,ChIJWzh1pevJXkgRlNA8gq5wvZI,"https://maps.googleapis.com/maps/api/geocode/json?address=Kilcummin,+Cloonacool,+Tubbercurry,+Sligo,+Ireland&key=AIzaSyA1vJtESoYOSSuM_yTI1j1jpPGpxx_VGyk",54.1294178,-8.781162400000001,"Kilcummin, Co. Sligo, Ireland",,APPROXIMATE,Border,31078/31071,Loughill/Cloonacool,2.0328958045777794,17.58291675895741
06/09/2010,"2 Mountain Park, Coolaney",Sligo,150000.0,No,Second-Hand Dwelling house /Apartment,,ChIJRWLS0tfGXkgRsVkC0cJtwAc,"https://maps.googleapis.com/maps/api/geocode/json?address=2+Mountain+Park,+Coolaney,+Sligo,+Ireland&key=AIzaSyA1vJtESoYOSSuM_yTI1j1jpPGpxx_VGyk",54.17174929999999,-8.598374399999999,"2 Mountain Park, Cúil Áine, Co. Sligo, F56 W018, Ireland",F56 W018,ROOFTOP,Border,31073,Coolaney,0.3640967278241207,6.92714754853828
06/09/2010,"24 Pearse Crescent, Sligo",Sligo,115000.0,No,Second-Hand Dwelling house /Apartment,,ChIJs8OBtMnpXkgR2eg_9BjI0p0,"https://maps.googleapis.com/maps/api/geocode/json?address=24+Pearse+Crescent,+Sligo,+Ireland&key=AIzaSyA1vJtESoYOSSuM_yTI1j1jpPGpxx_VGyk",54.26039420000001,-8.4671059,"24 Pearse Rd, Pearse Cres, Commons, Sligo, F91 D68P, Ireland",F91 D68P,ROOFTOP,Border,31001,Sligo East,0.1810449367686089,1.6103940750074486
06/09/2010,"3  Abbey Drive, Ballisodare",Sligo,30000.0,No,Second-Hand Dwelling house /Apartment,,ChIJK0mTYI7BXkgRp5yPCmzSvHM,"https://maps.googleapis.com/maps/api/geocode/json?address=3+Abbey+Drive,+Ballisodare,+Sligo,+Ireland&key=AIzaSyA1vJtESoYOSSuM_yTI1j1jpPGpxx_VGyk",54.2123539,-8.5190635,"3 Abbey Dr, Knockmuldoney, Ballysadare, Co. Sligo, F91 C8K0, Ireland",F91 C8K0,ROOFTOP,Border,31038,Ballysadare East,0.7331005679861395,3.276510163494924
06/09/2010,"55 White Strand, Aylesbury Park, Knappaghmore",Sligo,171805.0,Yes,New Dwelling house /Apartment,less than 38 sq metres,ChIJHa6LoIXCXkgR5LNoA7qGggQ,"https://maps.googleapis.com/maps/api/geocode/json?address=55+White+Strand,+Aylesbury+Park,+Knappaghmore,+Sligo,+Ireland&key=AIzaSyA1vJtESoYOSSuM_yTI1j1jpPGpxx_VGyk",54.27349950000001,-8.5119045,"55 Whitestrand, Aylesbury Park, Sligo, F91 TYC2, Ireland",F91 TYC2,ROOFTOP,Border,31053,Knockaree,0.17656745463830192,1.9187009546943867
07/09/2010,"47 Dorrins Strand, Strandhill",Sligo,203348.02,Yes,New Dwelling house /Apartment,greater than or equal to 38 sq metres and less than 125 sq metres,ChIJA3WzDBLDXkgRQdFjy5rpt-E,"https://maps.googleapis.com/maps/api/geocode/json?address=47+Dorrins+Strand,+Strandhill,+Sligo,+Ireland&key=AIzaSyA1vJtESoYOSSuM_yTI1j1jpPGpxx_VGyk",54.271651799999994,-8.5831241,"47 Dorrin's Strand, Larass, Strandhill, Co. Sligo, F91 E6W6, Ireland",F91 E6W6,ROOFTOP,Border,31053,Knockaree,0.057268448432183365,6.539724700895237
08/09/2010,"79  Rusheen Ard, Caltragh, Sligo",Sligo,182000.0,No,Second-Hand Dwelling house /Apartment,,ChIJYfBBoM_pXkgRTtiU7PM144o,"https://maps.googleapis.com/maps/api/geocode/json?address=79+Rusheen+Ard,+Caltragh,+Sligo,+Ireland&key=AIzaSyA1vJtESoYOSSuM_yTI1j1jpPGpxx_VGyk",54.2583774,-8.475533300000002,"79 Rusheen Árd, Cornageeha, Caltragh, Co. Sligo, F91 KPN7, Ireland",F91 KPN7,ROOFTOP,Border,31003,Sligo West,0.08256939379650292,1.5695803281148792
09/09/2010,"18  Castlewood Towers, Rockwood Parade, Sligo",Sligo,146666.0,Yes,New Dwelling house /Apartment,greater than or equal to 38 sq metres and less than 125 sq metres,ChIJCQALWzToXkgRizqyrTEGcW8,"https://maps.googleapis.com/maps/api/geocode/json?address=18+Castlewood+Towers,+Rockwood+Parade,+Sligo,+Ireland&key=AIzaSyA1vJtESoYOSSuM_yTI1j1jpPGpxx_VGyk",54.27112469999999,-8.472634300000001,"Rockwood Parade, Abbeyquarter North, Sligo, Ireland",,GEOMETRIC_CENTER,Border,31001,Sligo East,0.10308847571142823,0.6112149076308446
09/09/2010,"24 Summerhill Village, Sligo",Sligo,85000.0,No,Second-Hand Dwelling house /Apartment,,ChIJLTW548zpXkgRi62ck6CjDgI,"https://maps.googleapis.com/maps/api/geocode/json?address=24+Summerhill+Village,+Sligo,+Ireland&key=AIzaSyA1vJtESoYOSSuM_yTI1j1jpPGpxx_VGyk",54.2659397,-8.477465800000001,"24 Summerhill Village, Knocknaganny, Sligo, F91 PPF3, Ireland",F91 PPF3,ROOFTOP,Border,31003,Sligo West,0.27095607387979537,0.7327439479154798
09/09/2010,"Carrowreagh-Knox, Tubbercurry, Sligo",Sligo,145000.0,No,Second-Hand Dwelling house /Apartment,,ChIJRxsQ6uC2XkgRQCcyl6nHAAo,"https://maps.googleapis.com/maps/api/geocode/json?address=Carrowreagh-Knox,+Tubbercurry,+Sligo,+Ireland&key=AIzaSyA1vJtESoYOSSuM_yTI1j1jpPGpxx_VGyk",54.05522579999999,-8.7298236,"Tobercurry, Co. Sligo, Ireland",,APPROXIMATE,Border,31082,Tobercurry,0.13139174013179564,14.12265879563936
10/09/2010,"Top Road, Carrowdough, Strandhill",Sligo,200000.0,No,Second-Hand Dwelling house /Apartment,,ChIJhT8AZnHDXkgRY0DQmNrmdM0,"https://maps.googleapis.com/maps/api/geocode/json?address=Top+Road,+Carrowdough,+Strandhill,+Sligo,+Ireland&key=AIzaSyA1vJtESoYOSSuM_yTI1j1jpPGpxx_VGyk",54.2653142,-8.596841900000001,"46 Top Rd, Carrowbunnaun, Strandhill, Co. Sligo, F91 DT66, Ireland",F91 DT66,ROOFTOP,Border,31053,Knockaree,0.5397930237979239,7.470740091062423
13/09/2010,"11 Meadowbank, Geevagh",Sligo,88105.71,Yes,New Dwelling house /Apartment,greater than 125 sq metres,ChIJxyDX2lCSXkgRc_akmCwVKRg,"https://maps.googleapis.com/maps/api/geocode/json?address=11+Meadowbank,+Geevagh,+Sligo,+Ireland&key=AIzaSyA1vJtESoYOSSuM_yTI1j1jpPGpxx_VGyk",54.10126460000001,-8.253622199999999,"11 Meadowbank, Ballyculleen, Geevagh, Co. Sligo, F52 WP04, Ireland",F52 WP04,ROOFTOP,Border,31005,Ballynashee,0.2980594349029455,17.486307611648932
14/09/2010,"'The Elms', Ballymote",Sligo,410000.0,No,Second-Hand Dwelling house /Apartment,,ChIJ4a9aZ-K-XkgRXbFfTtvU4Fs,"https://maps.googleapis.com/maps/api/geocode/json?address='The+Elms',+Ballymote,+Sligo,+Ireland&key=AIzaSyA1vJtESoYOSSuM_yTI1j1jpPGpxx_VGyk",54.087625,-8.519724499999999,"Ballymote, Co. Sligo, Ireland",,GEOMETRIC_CENTER,Border,31036,Ballymote,0.28187849293629225,0.09328761222100247
14/09/2010,"Apartment 11, Castlewood House, Rockwood Parade",Sligo,228000.0,Yes,New Dwelling house /Apartment,less than 38 sq metres,ChIJCQALWzToXkgRizqyrTEGcW8,"https://maps.googleapis.com/maps/api/geocode/json?address=Apartment+11,+Castlewood+House,+Rockwood+Parade,+Sligo,+Ireland&key=AIzaSyA1vJtESoYOSSuM_yTI1j1jpPGpxx_VGyk",54.27112469999999,-8.472634300000001,"Rockwood Parade, Abbeyquarter North, Sligo, Ireland",,GEOMETRIC_CENTER,Border,31001,Sligo East,0.10308847571142823,0.6112149076308446
15/09/2010,"Cabragh, Rathlee",Sligo,60000.0,No,Second-Hand Dwelling house /Apartment,,EhtDYWJyYWdoLCBDby4gU2xpZ28sIElyZWxhbmQiLiosChQKEgmZLROTgzJZSBHDqh8iLvRSkRIUChIJocMguJ4yWUgR8Kgxl6nHAAo,"https://maps.googleapis.com/maps/api/geocode/json?address=Cabragh,+Rathlee,+Sligo,+Ireland&key=AIzaSyA1vJtESoYOSSuM_yTI1j1jpPGpxx_VGyk",54.26649870000001,-9.0313106,"Cabragh, Co. Sligo, Ireland",,GEOMETRIC_CENTER,Border,31025,Easky West,1.3078673410573367,35.657599336829854
16/09/2010,"94 Fairways, Tubbercurry",Sligo,107929.55,Yes,New Dwelling house /Apartment,greater than or equal to 38 sq metres and less than 125 sq metres,ChIJGwsVkj23XkgRO6TtIPxLXKE,"https://maps.googleapis.com/maps/api/geocode/json?address=94+Fairways,+Tubbercurry,+Sligo,+Ireland&key=AIzaSyA1vJtESoYOSSuM_yTI1j1jpPGpxx_VGyk",54.052628500000004,-8.7088299,"94 The Fairways, Oghambaun, Tobercurry, Co. Sligo, F91 RX88, Ireland",F91 RX88,ROOFTOP,Border,31082,Tobercurry,1.38305506325024,12.890419035992975
16/09/2010,"Apartment No. 20, Quayside",Sligo,127753.0,Yes,New Dwelling house /Apartment,greater than or equal to 38 sq metres and less than 125 sq metres,ChIJf0yN4jXoXkgRt7j7BwDk1vU,"https://maps.googleapis.com/maps/api/geocode/json?address=Apartment+No.+20,+Quayside,+Sligo,+Ireland&key=AIzaSyA1vJtESoYOSSuM_yTI1j1jpPGpxx_VGyk",54.273701,-8.472379,"Dartry View, Rathquarter, Sligo, Ireland",,GEOMETRIC_CENTER,Border,31002,Sligo North,0.12418764540413968,0.6470934471146644
16/09/2010,"No 5 Weir View, Stephen Street, Sligo",Sligo,125000.0,No,Second-Hand Dwelling house /Apartment,,ChIJ-2LWajToXkgRtgxqt7IlP8Q,"https://maps.googleapis.com/maps/api/geocode/json?address=No+5+Weir+View,+Stephen+Street,+Sligo,+Ireland&key=AIzaSyA1vJtESoYOSSuM_yTI1j1jpPGpxx_VGyk",54.272084,-8.473869699999998,"Garavogue Weir View, Stephen St, Sligo, Ireland",,GEOMETRIC_CENTER,Border,31002,Sligo North,0.049724862803598106,0.5228027847462848
17/09/2010,"Lough Bo, Geevagh",Sligo,87500.0,No,Second-Hand Dwelling house /Apartment,,ChIJEZFddXCTXkgRN0_ybPdTkNs,"https://maps.googleapis.com/maps/api/geocode/json?address=Lough+Bo,+Geevagh,+Sligo,+Ireland&key=AIzaSyA1vJtESoYOSSuM_yTI1j1jpPGpxx_VGyk",54.1125331,-8.311115599999999,"Lough Bo, Co. Sligo, Ireland",,APPROXIMATE,Border,31010,Killadoon,2.0024910367880526,13.937602576231965
20/09/2010,"86 Fairways, Tubbercurry",Sligo,105000.0,No,Second-Hand Dwelling house /Apartment,,ChIJVZN_fD23XkgReyyz_7lItb8,"https://maps.googleapis.com/maps/api/geocode/json?address=86+Fairways,+Tubbercurry,+Sligo,+Ireland&key=AIzaSyA1vJtESoYOSSuM_yTI1j1jpPGpxx_VGyk",54.053189100000004,-8.7116814,"86 The Fairways, Oghambaun, Tobercurry, Co. Sligo, F91 H2P9, Ireland",F91 H2P9,ROOFTOP,Border,31082,Tobercurry,1.1916626138811843,13.048867222377806
20/09/2010,"Cloonskirt, Sooey",Sligo,200000.0,No,Second-Hand Dwelling house /Apartment,,ChIJGY1ebjvrXkgRznOoI0gjyWA,"https://maps.googleapis.com/maps/api/geocode/json?address=Cloonskirt,+Sooey,+Sligo,+Ireland&key=AIzaSyA1vJtESoYOSSuM_yTI1j1jpPGpxx_VGyk",54.157662800000004,-8.383509,"Clooskirt, Fannybrook, Co. Sligo, Ireland",,APPROXIMATE,Border,31037,Ballynakill,0.4671886705213613,7.928810182257608
21/09/2010,"9 Bushy Park, Ballisodare",Sligo,157000.0,No,Second-Hand Dwelling house /Apartment,,ChIJu49SMPLBXkgRV2fZ7IdfBFE,"https://maps.googleapis.com/maps/api/geocode/json?address=9+Bushy+Park,+Ballisodare,+Sligo,+Ireland&key=AIzaSyA1vJtESoYOSSuM_yTI1j1jpPGpxx_VGyk",54.21315,-8.503640899999999,"9 Bushy Park, Ballysadare, Co. Sligo, F91 C2H3, Ireland",F91 C2H3,ROOFTOP,Border,31046,Collooney,0.4077480821777797,3.0168539899622187
21/09/2010,"Apartment 9, Coolaney Town Centre, Coolaney",Sligo,50000.0,Yes,New Dwelling house /Apartment,greater than or equal to 38 sq metres and less than 125 sq metres,ChIJO0Ot79bGXkgReC7uTUqDcxQ,"https://maps.googleapis.com/maps/api/geocode/json?address=Apartment+9,+Coolaney+Town+Centre,+Coolaney,+Sligo,+Ireland&key=AIzaSyA1vJtESoYOSSuM_yTI1j1jpPGpxx_VGyk",54.17477629999999,-8.598155300000002,"9 Bruach na hAbhainn, Cúil Áine, Co. Sligo, F56 H585, Ireland",F56 H585,ROOFTOP,Border,31073,Coolaney,0.2161293543266527,6.841418034696942
21/09/2010,"Kilkilloge, Mullaghmore",Sligo,295000.0,Yes,New Dwelling house /Apartment,greater than or equal to 38 sq metres and less than 125 sq metres,ChIJ18u0ZY3hXkgRwHkxl6nHAAo,"https://maps.googleapis.com/maps/api/geocode/json?address=Kilkilloge,+Mullaghmore,+Sligo,+Ireland&key=AIzaSyA1vJtESoYOSSuM_yTI1j1jpPGpxx_VGyk",54.4655463,-8.4494544,"Kilkilloge, Mullaghmore, Co. Sligo, Ireland",,APPROXIMATE,Border,31044,Cliffony North,3.5439935680944514,21.60787936441435
22/09/2010,"17 Keenaghan Crescent, Ballymote",Sligo,108000.0,No,Second-Hand Dwelling house /Apartment,,ChIJOTEMY_y-XkgRvvxWwk-aN_g,"https://maps.googleapis.com/maps/api/geocode/json?address=17+Keenaghan+Crescent,+Ballymote,+Sligo,+Ireland&key=AIzaSyA1vJtESoYOSSuM_yTI1j1jpPGpxx_VGyk",54.08494899999999,-8.510540400000002,"17 Keenaghan Cres, Keenaghan, Ballymote, Co. Sligo, F56 KT32, Ireland",F56 KT32,ROOFTOP,Border,31036,Ballymote,0.4210618408725639,0.7591473822746444
22/09/2010,"Shroove, Monasteraden",Sligo,46625.0,No,Second-Hand Dwelling house /Apartment,,ChIJJywK3jajXkgREnTHGajHACY,"https://maps.googleapis.com/maps/api/geocode/json?address=Shroove,+Monasteraden,+Sligo,+Ireland&key=AIzaSyA1vJtESoYOSSuM_yTI1j1jpPGpxx_VGyk",53.95701379999999,-8.4944709,"Sroove, Co. Sligo, Ireland",,APPROXIMATE,Border,31006,Coolavin,1.5534521795444234,14.691325703066184
23/09/2010,"Apt. No. 3, The Mill Centre, Coolaney",Sligo,50000.0,Yes,New Dwelling house /Apartment,greater than or equal to 38 sq metres and less than 125 sq metres,ChIJj_tLfUroXkgRZZnu3Ly54iA,"https://maps.googleapis.com/maps/api/geocode/json?address=Apt.+No.+3,+The+Mill+Centre,+Coolaney,+Sligo,+Ireland&key=AIzaSyA1vJtESoYOSSuM_yTI1j1jpPGpxx_VGyk",54.2712958,-8.467274699999999,"Riverside, Abbeyquarter North, Sligo, Ireland",,GEOMETRIC_CENTER,Border,31001,Sligo East,0.2352697488385929,0.9545469030565686
23/09/2010,"House At Cregg, Rosses Point Road, Ballincar",Sligo,635000.0,No,Second-Hand Dwelling house /Apartment,,ChIJ30xsjKrCXkgRYnTHGajHACY,"https://maps.googleapis.com/maps/api/geocode/json?address=House+At+Cregg,+Rosses+Point+Road,+Ballincar,+Sligo,+Ireland&key=AIzaSyA1vJtESoYOSSuM_yTI1j1jpPGpxx_VGyk",54.30607679999999,-8.513343599999999,"Cregg, Co. Sligo, Ireland",,APPROXIMATE,Border,31048,Drumcliff West,0.5351716488731799,4.265388762869817
24/09/2010,"8 Gort Na Cladach, Enniscrone",Sligo,260000.0,No,Second-Hand Dwelling house /Apartment,,ChIJfQrmHIIxWUgRiOW1eznXjdE,"https://maps.googleapis.com/maps/api/geocode/json?address=8+Gort+Na+Cladach,+Enniscrone,+Sligo,+Ireland&key=AIzaSyA1vJtESoYOSSuM_yTI1j1jpPGpxx_VGyk",54.2232828,-9.095155000000002,"8 Gort Na Cladach, Carrowhubbuck South, Enniscrone, Co. Sligo, F26 YW70, Ireland",F26 YW70,ROOFTOP,Border,31026,Kilglass,1.1119739702608604,39.261812535081155
24/09/2010,"Apt. No. 4 The Mill Centre, Coolaney",Sligo,50000.0,Yes,New Dwelling house /Apartment,greater than or equal to 38 sq metres and less than 125 sq metres,ChIJj_tLfUroXkgRZZnu3Ly54iA,"https://maps.googleapis.com/maps/api/geocode/json?address=Apt.+No.+4+The+Mill+Centre,+Coolaney,+Sligo,+Ireland&key=AIzaSyA1vJtESoYOSSuM_yTI1j1jpPGpxx_VGyk",54.2712958,-8.467274699999999,"Riverside, Abbeyquarter North, Sligo, Ireland",,GEOMETRIC_CENTER,Border,31001,Sligo East,0.2352697488385929,0.9545469030565686
24/09/2010,"Lislary, Ballinfull",Sligo,70000.0,No,Second-Hand Dwelling house /Apartment,,ChIJN22NqDvcXkgRZBupM3-tdWI,"https://maps.googleapis.com/maps/api/geocode/json?address=Lislary,+Ballinfull,+Sligo,+Ireland&key=AIzaSyA1vJtESoYOSSuM_yTI1j1jpPGpxx_VGyk",54.376546,-8.611384300000001,"Lislary, Co. Sligo, Ireland",,APPROXIMATE,Border,31057,Lissadill North,2.1314323966248367,14.303032042771495
26/09/2010,"Aughrais, Templeboy",Sligo,350000.0,No,Second-Hand Dwelling house /Apartment,,ChIJpeYDHO3PXkgR8vNNu6fHACY,"https://maps.googleapis.com/maps/api/geocode/json?address=Aughrais,+Templeboy,+Sligo,+Ireland&key=AIzaSyA1vJtESoYOSSuM_yTI1j1jpPGpxx_VGyk",54.2705911,-8.7812805,"Aughris, Co. Sligo, Ireland",,APPROXIMATE,Border,31017,Aughris,1.2631421114323336,19.41103853932573
27/09/2010,"16 Bushy Park, Ballisodare",Sligo,139000.0,No,Second-Hand Dwelling house /Apartment,,ChIJFY8URvLBXkgRCMdyEu84eO8,"https://maps.googleapis.com/maps/api/geocode/json?address=16+Bushy+Park,+Ballisodare,+Sligo,+Ireland&key=AIzaSyA1vJtESoYOSSuM_yTI1j1jpPGpxx_VGyk",54.212840799999995,-8.5046045,"16 Bushy Park, Ballysadare, Co. Sligo, F91 N4A0, Ireland",F91 N4A0,ROOFTOP,Border,31046,Collooney,0.3392772239493181,2.9957005156803675
27/09/2010,"6 The Park Avenue, Strandhill Road, Sligo",Sligo,273000.0,No,Second-Hand Dwelling house /Apartment,,ChIJI8jY-yroXkgReHceSl3QSzo,"https://maps.googleapis.com/maps/api/geocode/json?address=6+The+Park+Avenue,+Strandhill+Road,+Sligo,+Ireland&key=AIzaSyA1vJtESoYOSSuM_yTI1j1jpPGpxx_VGyk",54.26896230000001,-8.4944094,"6 Strandhill Rd, The Park Ave, Knappagh Beg, Sligo, F91 K2NF, Ireland",F91 K2NF,ROOFTOP,Border,31003,Sligo West,0.25672600713589555,0.8567610343293922
27/09/2010,"Raughley, Maugherow",Sligo,250000.0,No,Second-Hand Dwelling house /Apartment,,ChIJW3M8Ql_cXkgRB1qOs7MCx1s,"https://maps.googleapis.com/maps/api/geocode/json?address=Raughley,+Maugherow,+Sligo,+Ireland&key=AIzaSyA1vJtESoYOSSuM_yTI1j1jpPGpxx_VGyk",54.3475524,-8.607204399999999,"Unnamed Road,, Co. Sligo, Ireland",,GEOMETRIC_CENTER,Border,31058,Lissadill West,0.002644153184521573,11.65017398605469
29/09/2010,"2 Cleveragh Rd, Sligo",Sligo,100000.0,No,Second-Hand Dwelling house /Apartment,,ChIJFZD1ALbpXkgRqdN9OmBdpgw,"https://maps.googleapis.com/maps/api/geocode/json?address=2+Cleveragh+Rd,+Sligo,+Ireland&key=AIzaSyA1vJtESoYOSSuM_yTI1j1jpPGpxx_VGyk",54.26301609999999,-8.465348599999999,"2 Cleveragh Rd, Cleaveragh Demesne, Sligo, F91 XR3H, Ireland",F91 XR3H,ROOFTOP,Border,31001,Sligo East,0.11517783758475213,1.4698638943140605
29/09/2010,"Church View, Collooney",Sligo,80000.0,No,Second-Hand Dwelling house /Apartment,,ChIJ0Wna-8zBXkgRIYIFc74rLok,"https://maps.googleapis.com/maps/api/geocode/json?address=Church+View,+Collooney,+Sligo,+Ireland&key=AIzaSyA1vJtESoYOSSuM_yTI1j1jpPGpxx_VGyk",54.1819309,-8.488690400000001,"Church View, Co. Sligo, Ireland",,GEOMETRIC_CENTER,Border,31046,Collooney,0.1810483788070254,0.6444171216070256
29/09/2010,"Lovers Lane, Carrowreagh, Tubbercurry",Sligo,275000.0,Yes,New Dwelling house /Apartment,greater than 125 sq metres,ChIJ49kbf9S2XkgRR6MIEfYNhEQ,"https://maps.googleapis.com/maps/api/geocode/json?address=Lovers+Lane,+Carrowreagh,+Tubbercurry,+Sligo,+Ireland&key=AIzaSyA1vJtESoYOSSuM_yTI1j1jpPGpxx_VGyk",54.034278500000006,-8.7336385,"Carrowreagh (Cooper), Cloonrane, Co. Sligo, Ireland",,APPROXIMATE,Border,31082,Tobercurry,1.7189828993590268,15.129806544035315
01/10/2010,"10 Breffni Road, Mullaghmore",Sligo,200000.0,No,Second-Hand Dwelling house /Apartment,,ChIJ18u0ZY3hXkgRwHkxl6nHAAo,"https://maps.googleapis.com/maps/api/geocode/json?address=10+Breffni+Road,+Mullaghmore,+Sligo,+Ireland&key=AIzaSyA1vJtESoYOSSuM_yTI1j1jpPGpxx_VGyk",54.4655463,-8.4494544,"Kilkilloge, Mullaghmore, Co. Sligo, Ireland",,APPROXIMATE,Border,31044,Cliffony North,3.5439935680944514,21.60787936441435
06/10/2010,"27 Woodville Court, Strandhill Road, Sligo",Sligo,145000.0,No,Second-Hand Dwelling house /Apartment,,ChIJw_NXk4_CXkgRtThSYV4VVII,"https://maps.googleapis.com/maps/api/geocode/json?address=27+Woodville+Court,+Strandhill+Road,+Sligo,+Ireland&key=AIzaSyA1vJtESoYOSSuM_yTI1j1jpPGpxx_VGyk",54.2746295,-8.515801800000002,"27 Woodville Ct, Second Sea Rd, Knappagh More, Sligo, F91 XW5D, Ireland",F91 XW5D,ROOFTOP,Border,31053,Knockaree,0.07861533620027014,2.18294279909062
06/10/2010,"Stonehall, Ballisodare",Sligo,235000.0,No,Second-Hand Dwelling house /Apartment,,ChIJhRAzt27BXkgRUEjC3YHRNYM,"https://maps.googleapis.com/maps/api/geocode/json?address=Stonehall,+Ballisodare,+Sligo,+Ireland&key=AIzaSyA1vJtESoYOSSuM_yTI1j1jpPGpxx_VGyk",54.2013522,-8.558076699999999,"Stonehall, Co. Sligo, Ireland",,APPROXIMATE,Border,31039,Ballysadare West,3.2915955477135554,4.4307677464365165
08/10/2010,"41 Cloondara, Ballisodare, Sligo",Sligo,170000.0,No,Second-Hand Dwelling house /Apartment,,ChIJF2E3HJLBXkgRZoPMAU84ZYk,"https://maps.googleapis.com/maps/api/geocode/json?address=41+Cloondara,+Ballisodare,+Sligo,+Ireland&key=AIzaSyA1vJtESoYOSSuM_yTI1j1jpPGpxx_VGyk",54.209081999999995,-8.5159936,"41 Cloondara, Kilboglashy, Ballysadare, Co. Sligo, F91 VH75, Ireland",F91 VH75,ROOFTOP,Border,31038,Ballysadare East,0.5265935523199654,2.8613917414821435
08/10/2010,"64 Knocknaganny Park, Sligo",Sligo,161000.0,No,Second-Hand Dwelling house /Apartment,,ChIJV3m3vcjpXkgRpmv_isvFvIM,"https://maps.googleapis.com/maps/api/geocode/json?address=64+Knocknaganny+Park,+Sligo,+Ireland&key=AIzaSyA1vJtESoYOSSuM_yTI1j1jpPGpxx_VGyk",54.2582281,-8.469902699999999,"64 Knocknaganny Park, Commons, Sligo, F91 X2P8, Ireland",F91 X2P8,ROOFTOP,Border,31003,Sligo West,0.15037334721805154,1.7187830998344402
08/10/2010,"Rathcarrick House, Rathcarrick, Strandhill",Sligo,1324505.0,No,Second-Hand Dwelling house /Apartment,,ChIJexjPKgDDXkgRktdeqdnYpS4,"https://maps.googleapis.com/maps/api/geocode/json?address=Rathcarrick+House,+Rathcarrick,+Strandhill,+Sligo,+Ireland&key=AIzaSyA1vJtESoYOSSuM_yTI1j1jpPGpxx_VGyk",54.26485450000001,-8.5566426,"Rathcarrick House, Rathcarrick, Strandhill, Co. Sligo, Ireland",,ROOFTOP,Border,31053,Knockaree,1.8078525691229896,4.889217791165303
11/10/2010,"68 Fairways, Tubbercurry",Sligo,77500.0,Yes,New Dwelling house /Apartment,greater than or equal to 38 sq metres and less than 125 sq metres,ChIJaSyu1Be3XkgRTfe7jGqAz-U,"https://maps.googleapis.com/maps/api/geocode/json?address=68+Fairways,+Tubbercurry,+Sligo,+Ireland&key=AIzaSyA1vJtESoYOSSuM_yTI1j1jpPGpxx_VGyk",54.0535611,-8.710683300000001,"68 The Fairways, Tobercurry, Co. Sligo, F91 R2R4, Ireland",F91 R2R4,ROOFTOP,Border,31082,Tobercurry,1.2541749604007006,12.974308972471164
11/10/2010,"Apartment 21, Castlewood House, Rockwood Parade",Sligo,165000.0,Yes,New Dwelling house /Apartment,greater than or equal to 38 sq metres and less than 125 sq metres,ChIJCQALWzToXkgRizqyrTEGcW8,"https://maps.googleapis.com/maps/api/geocode/json?address=Apartment+21,+Castlewood+House,+Rockwood+Parade,+Sligo,+Ireland&key=AIzaSyA1vJtESoYOSSuM_yTI1j1jpPGpxx_VGyk",54.27112469999999,-8.472634300000001,"Rockwood Parade, Abbeyquarter North, Sligo, Ireland",,GEOMETRIC_CENTER,Border,31001,Sligo East,0.10308847571142823,0.6112149076308446
11/10/2010,"Apt 3 Rusheen Ard, Caltragh, Sligo",Sligo,125000.0,No,Second-Hand Dwelling house /Apartment,,ChIJuSM7A8_pXkgREUTLSRB6io4,"https://maps.googleapis.com/maps/api/geocode/json?address=Apt+3+Rusheen+Ard,+Caltragh,+Sligo,+Ireland&key=AIzaSyA1vJtESoYOSSuM_yTI1j1jpPGpxx_VGyk",54.25948709999999,-8.474786,"3 Rusheen Árd, Knocknaganny, Caltragh, Co. Sligo, F91 CK1C, Ireland",F91 CK1C,ROOFTOP,Border,31003,Sligo West,0.09349664845394524,1.465740325116752
14/10/2010,"32 Coill Dara, Tubbercurry",Sligo,70484.59,Yes,New Dwelling house /Apartment,greater than 125 sq metres,ChIJf4HziOe2XkgRANGYCDJK73k,"https://maps.googleapis.com/maps/api/geocode/json?address=32+Coill+Dara,+Tubbercurry,+Sligo,+Ireland&key=AIzaSyA1vJtESoYOSSuM_yTI1j1jpPGpxx_VGyk",54.051244200000006,-8.7409727,"32 Coill Dara, Rathscanlan, Tobercurry, Co. Sligo, F91 A0C1, Ireland",F91 A0C1,ROOFTOP,Border,31082,Tobercurry,0.5740328028418065,14.94290560909156
14/10/2010,"32 Coill Dara, Tubbercurry",Sligo,70484.0,Yes,New Dwelling house /Apartment,greater than or equal to 38 sq metres and less than 125 sq metres,ChIJf4HziOe2XkgRANGYCDJK73k,"https://maps.googleapis.com/maps/api/geocode/json?address=32+Coill+Dara,+Tubbercurry,+Sligo,+Ireland&key=AIzaSyA1vJtESoYOSSuM_yTI1j1jpPGpxx_VGyk",54.051244200000006,-8.7409727,"32 Coill Dara, Rathscanlan, Tobercurry, Co. Sligo, F91 A0C1, Ireland",F91 A0C1,ROOFTOP,Border,31082,Tobercurry,0.5740328028418065,14.94290560909156
